[{"name":"Alto Hama","country":"AO","lat":-12.23333,"lon":15.55},{"name":"Ambriz","country":"AO","lat":-7.86232,"lon":13.11935},{"name":"Ambrizette","country":"AO","lat":-7.23116,"lon":12.8666},{"name":"Andulo","country":"AO","lat":-11.48676,"lon":16.69663},{"name":"Baía Farta","country":"AO","lat":-12.60417,"lon":13.19667},{"name":"Bailundo","country":"AO","lat":-9.57499,"lon":15.99442},{"name":"Balombo","country":"AO","lat":-12.35426,"lon":14.77232},{"name":"Banza Damba","country":"AO","lat":-6.88831,"lon":15.01522},{"name":"Barra do Dande","country":"AO","lat":-8.47175,"lon":13.37011},{"name":"Belize","country":"AO","lat":-4.65,"lon":12.76667},{"name":"Benguela","country":"AO","lat":-12.57674,"lon":13.40268},{"name":"Bibala","country":"AO","lat":-14.7665,"lon":13.34912},{"name":"Bocoio","country":"AO","lat":-12.47017,"lon":14.13688},{"name":"Buco","country":"AO","lat":-9.55833,"lon":16.14639},{"name":"Buco Zau","country":"AO","lat":-4.76667,"lon":12.55},{"name":"Caála","country":"AO","lat":-12.8525,"lon":15.56056},{"name":"Cabinda","country":"AO","lat":-5.56198,"lon":12.19476},{"name":"Cacolo","country":"AO","lat":-10.14503,"lon":19.26598},{"name":"Caconda","country":"AO","lat":-13.73564,"lon":15.0618},{"name":"Cacongo","country":"AO","lat":-5.23333,"lon":12.13333},{"name":"Cacuso","country":"AO","lat":-9.42102,"lon":15.74668},{"name":"Cafunfo","country":"AO","lat":-8.7672,"lon":17.99572},{"name":"Cahama","country":"AO","lat":-16.28556,"lon":14.30962},{"name":"Caimbambo","country":"AO","lat":-13.02172,"lon":14.00283},{"name":"Calai","country":"AO","lat":-17.88896,"lon":19.7706},{"name":"Calandula","country":"AO","lat":-9.08981,"lon":15.95382},{"name":"Calandula","country":"AO","lat":-13.46667,"lon":19.61667},{"name":"Calonamba","country":"AO","lat":-13.77395,"lon":15.09111},{"name":"Calucinga","country":"AO","lat":-11.32281,"lon":16.19588},{"name":"Calulo","country":"AO","lat":-10.00055,"lon":14.89519},{"name":"Caluquembe","country":"AO","lat":-13.86667,"lon":14.43333},{"name":"Camabatela","country":"AO","lat":-8.18812,"lon":15.37495},{"name":"Camacupa","country":"AO","lat":-12.01667,"lon":17.48333},{"name":"Camanongue","country":"AO","lat":-11.4361,"lon":20.16459},{"name":"Camboio","country":"AO","lat":-12.92651,"lon":14.09888},{"name":"Cambundi","country":"AO","lat":-7.46856,"lon":17.03769},{"name":"Cambundi","country":"AO","lat":-10.89481,"lon":17.76402},{"name":"Cambundi Catembo","country":"AO","lat":-10.07531,"lon":17.55058},{"name":"Cameia","country":"AO","lat":-11.69055,"lon":20.83922},{"name":"Camucuio","country":"AO","lat":-14.11667,"lon":13.25},{"name":"Cangandala","country":"AO","lat":-9.78333,"lon":16.43333},{"name":"Capunda","country":"AO","lat":-11.13333,"lon":14.46667},{"name":"Cassanguidi","country":"AO","lat":-7.48367,"lon":21.30339},{"name":"Catabola","country":"AO","lat":-12.15,"lon":17.28333},{"name":"Catchiungo","country":"AO","lat":-12.56598,"lon":16.22589},{"name":"Catumbela","country":"AO","lat":-12.43002,"lon":13.54677},{"name":"Caxito","country":"AO","lat":-8.57848,"lon":13.66425},{"name":"Cazaji","country":"AO","lat":-11.06715,"lon":20.70148},{"name":"Cazombo","country":"AO","lat":-11.89355,"lon":22.9024},{"name":"Cazombo","country":"AO","lat":-8.73204,"lon":15.37124},{"name":"Cela","country":"AO","lat":-11.42173,"lon":15.12345},{"name":"Chela","country":"AO","lat":-12.30261,"lon":15.43358},{"name":"Chibia","country":"AO","lat":-15.18315,"lon":13.69909},{"name":"Chicomba","country":"AO","lat":-14.13333,"lon":14.91667},{"name":"Chinguar","country":"AO","lat":-12.55708,"lon":16.33805},{"name":"Chinjenje","country":"AO","lat":-12.93244,"lon":14.99238},{"name":"Chipindo","country":"AO","lat":-13.81419,"lon":15.79041},{"name":"Chissamba","country":"AO","lat":-12.16667,"lon":17.33333},{"name":"Chitato","country":"AO","lat":-7.3,"lon":20.73333},{"name":"Chitembo","country":"AO","lat":-13.55,"lon":16.63333},{"name":"Chongoroi","country":"AO","lat":-13.57418,"lon":13.94062},{"name":"Conda","country":"AO","lat":-11.10862,"lon":14.33621},{"name":"Cuango-Luzamba","country":"AO","lat":-9.14583,"lon":18.04453},{"name":"Cubal","country":"AO","lat":-13.03865,"lon":14.2455},{"name":"Cuchi","country":"AO","lat":-14.64978,"lon":16.89929},{"name":"Cuemba","country":"AO","lat":-12.15,"lon":18.08333},{"name":"Cuilo","country":"AO","lat":-8.23619,"lon":19.52566},{"name":"Cuímba","country":"AO","lat":-6.12085,"lon":14.62086},{"name":"Cuíto","country":"AO","lat":-12.38333,"lon":16.93333},{"name":"Cunda diá Baze","country":"AO","lat":-8.90769,"lon":17.05339},{"name":"Cunhinga","country":"AO","lat":-12.23333,"lon":16.78333},{"name":"Dala","country":"AO","lat":-11.03333,"lon":20.2},{"name":"Dala","country":"AO","lat":-13.78333,"lon":16.71667},{"name":"Damba","country":"AO","lat":-6.67868,"lon":15.13128},{"name":"Dombe Grande","country":"AO","lat":-12.95167,"lon":13.1025},{"name":"Dondo","country":"AO","lat":-9.68456,"lon":14.42788},{"name":"Dondo","country":"AO","lat":-9.05,"lon":15.31667},{"name":"Dundo","country":"AO","lat":-7.36643,"lon":20.81557},{"name":"Ebo","country":"AO","lat":-11.05,"lon":14.71667},{"name":"Ecunna","country":"AO","lat":-12.67889,"lon":15.50556},{"name":"Gabela","country":"AO","lat":-10.85147,"lon":14.37993},{"name":"Gama","country":"AO","lat":-8.5675,"lon":13.47639},{"name":"Ganda","country":"AO","lat":-13.01592,"lon":14.63502},{"name":"Golungo Alto","country":"AO","lat":-9.13333,"lon":14.76667},{"name":"Huambo","country":"AO","lat":-12.77611,"lon":15.73917},{"name":"Jamba","country":"AO","lat":-17.5,"lon":22.66667},{"name":"Léua","country":"AO","lat":-11.65753,"lon":20.44772},{"name":"Lobito","country":"AO","lat":-12.3644,"lon":13.53601},{"name":"Londuimbali","country":"AO","lat":-12.23712,"lon":15.31697},{"name":"Longonjo","country":"AO","lat":-12.90795,"lon":15.24845},{"name":"Luanda","country":"AO","lat":-8.83682,"lon":13.23432},{"name":"Luau","country":"AO","lat":-10.70727,"lon":22.22466},{"name":"Lubalo","country":"AO","lat":-9.15445,"lon":19.28136},{"name":"Lubango","country":"AO","lat":-14.91717,"lon":13.4925},{"name":"Lucala","country":"AO","lat":-9.27268,"lon":15.25206},{"name":"Lucapa","country":"AO","lat":-8.41915,"lon":20.74466},{"name":"Luena","country":"AO","lat":-11.78333,"lon":19.91667},{"name":"Lumbala","country":"AO","lat":-14.10165,"lon":21.43531},{"name":"Lumeji","country":"AO","lat":-11.55768,"lon":20.78096},{"name":"Luquembo","country":"AO","lat":-10.73912,"lon":17.71766},{"name":"Malanje","country":"AO","lat":-9.54015,"lon":16.34096},{"name":"Maquela do Zombo","country":"AO","lat":-6.05716,"lon":15.10971},{"name":"Matala","country":"AO","lat":-14.73272,"lon":15.03479},{"name":"Mavinga","country":"AO","lat":-15.79171,"lon":20.35763},{"name":"Mbanza Kongo","country":"AO","lat":-6.26667,"lon":14.23833},{"name":"Menongue","country":"AO","lat":-14.6585,"lon":17.69099},{"name":"Mossamedes","country":"AO","lat":-15.19611,"lon":12.15222},{"name":"Muconda","country":"AO","lat":-10.59236,"lon":21.31805},{"name":"Mungo","country":"AO","lat":-11.83268,"lon":16.23613},{"name":"Mussende","country":"AO","lat":-9.95,"lon":14.8},{"name":"N'dalatando","country":"AO","lat":-9.29782,"lon":14.91162},{"name":"Negage","country":"AO","lat":-7.75938,"lon":15.2722},{"name":"Nharêa","country":"AO","lat":-11.47512,"lon":16.96496},{"name":"Nzagi","country":"AO","lat":-8.38549,"lon":15.30126},{"name":"Ondjiva","country":"AO","lat":-17.06667,"lon":15.73333},{"name":"Porto Amboim","country":"AO","lat":-10.73251,"lon":13.76844},{"name":"Praia Bebe","country":"AO","lat":-12.40959,"lon":13.50349},{"name":"Puri","country":"AO","lat":-7.69468,"lon":15.65416},{"name":"Quibala","country":"AO","lat":-10.73366,"lon":14.97995},{"name":"Quibaxe","country":"AO","lat":-8.50055,"lon":14.58589},{"name":"Quilenda","country":"AO","lat":-11.46667,"lon":14.13333},{"name":"Quipungo","country":"AO","lat":-14.81909,"lon":14.53504},{"name":"Quissecula","country":"AO","lat":-11.39223,"lon":15.09201},{"name":"Santa Clara","country":"AO","lat":-10.19156,"lon":15.43408},{"name":"Sanza Pombo","country":"AO","lat":-7.31473,"lon":16.0024},{"name":"Saurimo","country":"AO","lat":-9.66078,"lon":20.39155},{"name":"Songo","country":"AO","lat":-7.35207,"lon":14.84629},{"name":"Soyo","country":"AO","lat":-6.1349,"lon":12.36894},{"name":"Sumbe","country":"AO","lat":-11.20605,"lon":13.84371},{"name":"Tombôco","country":"AO","lat":-6.80517,"lon":13.33017},{"name":"Tômbua","country":"AO","lat":-15.80394,"lon":11.84485},{"name":"Uacu Cungo","country":"AO","lat":-11.35669,"lon":15.11719},{"name":"Ucu Seles","country":"AO","lat":-11.41237,"lon":14.30663},{"name":"Ucuma","country":"AO","lat":-12.96121,"lon":15.05958},{"name":"Uíge","country":"AO","lat":-7.60874,"lon":15.06131},{"name":"Virei","country":"AO","lat":-15.727,"lon":12.94961},{"name":"Xangongo","country":"AO","lat":-16.7444,"lon":14.97494},{"name":"Zone (Zona) E","country":"AO","lat":-12.56734,"lon":13.41132}]