[{"name":"Daga","country":"BT","lat":27.07529,"lon":89.87688},{"name":"Daphu","country":"BT","lat":26.96667,"lon":89.38333},{"name":"Gasa","country":"BT","lat":27.90372,"lon":89.72689},{"name":"Ha","country":"BT","lat":27.38747,"lon":89.28074},{"name":"Jakar","country":"BT","lat":27.54918,"lon":90.7525},{"name":"Laya","country":"BT","lat":28.0613,"lon":89.6826},{"name":"Lhuentse","country":"BT","lat":27.66787,"lon":91.18393},{"name":"Lungtenzampa","country":"BT","lat":27.46821,"lon":89.64441},{"name":"Mongar","country":"BT","lat":27.27471,"lon":91.23963},{"name":"Pajo","country":"BT","lat":27.53333,"lon":89.88333},{"name":"Panbang","country":"BT","lat":26.86667,"lon":90.98333},{"name":"Paro","country":"BT","lat":27.4305,"lon":89.41334},{"name":"Pemagatshel","country":"BT","lat":27.03795,"lon":91.40305},{"name":"Phuntsholing","country":"BT","lat":26.85164,"lon":89.38837},{"name":"PunƒÅkha","country":"BT","lat":27.59137,"lon":89.87743},{"name":"Samdrup Jongkhar","country":"BT","lat":26.80069,"lon":91.50519},{"name":"Samtse","country":"BT","lat":26.89903,"lon":89.09951},{"name":"Sarpang","country":"BT","lat":26.86395,"lon":90.26745},{"name":"Shemgang","country":"BT","lat":27.21689,"lon":90.65793},{"name":"Thimphu","country":"BT","lat":27.46609,"lon":89.64191},{"name":"Trashi Yangtse","country":"BT","lat":27.6116,"lon":91.498},{"name":"Trashigang","country":"BT","lat":27.3331,"lon":91.55424},{"name":"Trongsa","country":"BT","lat":27.5026,"lon":90.50716},{"name":"Tsimasham","country":"BT","lat":27.0989,"lon":89.53604},{"name":"Tsirang","country":"BT","lat":27.0219,"lon":90.12291},{"name":"Wangdue Phodrang","country":"BT","lat":27.48615,"lon":89.89915}]