[{"name":"Alajuela","country":"CR","lat":10.01625,"lon":-84.21163},{"name":"Alajuelita","country":"CR","lat":9.90294,"lon":-84.10037},{"name":"Ángeles","country":"CR","lat":9.98863,"lon":-84.05922},{"name":"Aserrí","country":"CR","lat":9.86142,"lon":-84.09266},{"name":"Atenas","country":"CR","lat":9.97489,"lon":-84.37886},{"name":"Bagaces","country":"CR","lat":10.52541,"lon":-85.25537},{"name":"Barrio Jesús","country":"CR","lat":9.97439,"lon":-84.42166},{"name":"Batán","country":"CR","lat":10.08354,"lon":-83.33413},{"name":"Bejuco","country":"CR","lat":9.85014,"lon":-85.32923},{"name":"Belén","country":"CR","lat":10.40789,"lon":-85.58836},{"name":"Bijagua","country":"CR","lat":10.73243,"lon":-85.05721},{"name":"Buenos Aires","country":"CR","lat":9.17298,"lon":-83.33277},{"name":"Calle Blancos","country":"CR","lat":9.9453,"lon":-84.0669},{"name":"Cañas","country":"CR","lat":10.43105,"lon":-85.09825},{"name":"Canoas","country":"CR","lat":8.53305,"lon":-82.83844},{"name":"Cariari","country":"CR","lat":10.35719,"lon":-83.7362},{"name":"Carrillos","country":"CR","lat":10.02918,"lon":-84.27403},{"name":"Cartago","country":"CR","lat":9.86444,"lon":-83.91944},{"name":"Chacarita","country":"CR","lat":9.98424,"lon":-84.77892},{"name":"Colima","country":"CR","lat":9.95532,"lon":-84.08235},{"name":"Colón","country":"CR","lat":9.91491,"lon":-84.2417},{"name":"Concepción","country":"CR","lat":9.92683,"lon":-84.00123},{"name":"Corredor","country":"CR","lat":8.64002,"lon":-82.946},{"name":"Cot","country":"CR","lat":9.89472,"lon":-83.8745},{"name":"Curridabat","country":"CR","lat":9.9139,"lon":-84.03595},{"name":"Daniel Flores","country":"CR","lat":9.33607,"lon":-83.66999},{"name":"Desamparados","country":"CR","lat":9.94727,"lon":-84.50626},{"name":"Dulce Nombre de Jesus","country":"CR","lat":10.15144,"lon":-83.97748},{"name":"Escazú","country":"CR","lat":9.91887,"lon":-84.13989},{"name":"Esparza","country":"CR","lat":9.99197,"lon":-84.66628},{"name":"Esquipulas","country":"CR","lat":10.05676,"lon":-84.42337},{"name":"Golfito","country":"CR","lat":8.60327,"lon":-83.11342},{"name":"Granadilla","country":"CR","lat":9.93203,"lon":-84.01964},{"name":"Guácimo","country":"CR","lat":10.2129,"lon":-83.68793},{"name":"Guadalupe","country":"CR","lat":9.94805,"lon":-84.05665},{"name":"Guápiles","country":"CR","lat":10.21682,"lon":-83.78483},{"name":"Heredia","country":"CR","lat":10.00236,"lon":-84.11651},{"name":"Hojancha","country":"CR","lat":10.0581,"lon":-85.41809},{"name":"Ipís","country":"CR","lat":9.96548,"lon":-84.0182},{"name":"Jacó","country":"CR","lat":9.61497,"lon":-84.62975},{"name":"Juntas","country":"CR","lat":10.28082,"lon":-84.95912},{"name":"La Asunción","country":"CR","lat":9.97955,"lon":-84.17178},{"name":"La Cruz","country":"CR","lat":11.07377,"lon":-85.63272},{"name":"La Fortuna","country":"CR","lat":10.67434,"lon":-85.19962},{"name":"La Fortuna","country":"CR","lat":10.47089,"lon":-84.64535},{"name":"La Suiza","country":"CR","lat":9.85065,"lon":-83.6169},{"name":"La Virgen","country":"CR","lat":10.40174,"lon":-84.13348},{"name":"Liberia","country":"CR","lat":10.63504,"lon":-85.43772},{"name":"Limón","country":"CR","lat":9.99074,"lon":-83.03596},{"name":"Llorente","country":"CR","lat":9.99842,"lon":-84.15814},{"name":"Los Chiles","country":"CR","lat":11.03253,"lon":-84.71544},{"name":"Matina","country":"CR","lat":10.08363,"lon":-83.28431},{"name":"Mercedes","country":"CR","lat":9.27447,"lon":-83.57968},{"name":"Mercedes Norte","country":"CR","lat":10.00611,"lon":-84.13018},{"name":"Miramar","country":"CR","lat":10.0925,"lon":-84.72978},{"name":"Monterrey","country":"CR","lat":9.7573,"lon":-84.10956},{"name":"Nandayure","country":"CR","lat":10.03333,"lon":-85.2},{"name":"Naranjo","country":"CR","lat":10.09866,"lon":-84.37824},{"name":"Nicoya","country":"CR","lat":10.15038,"lon":-85.45093},{"name":"Orosi","country":"CR","lat":9.79617,"lon":-83.85383},{"name":"Orotina","country":"CR","lat":9.91193,"lon":-84.52337},{"name":"Pacayas","country":"CR","lat":9.80737,"lon":-84.04817},{"name":"Palmichal","country":"CR","lat":9.83802,"lon":-84.20405},{"name":"Paquera","country":"CR","lat":9.82005,"lon":-84.93513},{"name":"Paraíso","country":"CR","lat":9.83847,"lon":-83.86655},{"name":"Parrita","country":"CR","lat":9.52166,"lon":-84.32289},{"name":"Patarrá","country":"CR","lat":9.88059,"lon":-84.03551},{"name":"Pejibaye","country":"CR","lat":9.81253,"lon":-83.70378},{"name":"Pital","country":"CR","lat":10.45056,"lon":-84.27406},{"name":"Poco Sol","country":"CR","lat":10.35509,"lon":-84.65336},{"name":"Pocora","country":"CR","lat":10.17195,"lon":-83.60264},{"name":"Puerto Cortés","country":"CR","lat":8.96171,"lon":-83.52463},{"name":"Puntarenas","country":"CR","lat":9.97691,"lon":-84.8379},{"name":"Purral","country":"CR","lat":9.95689,"lon":-84.03209},{"name":"Quepos","country":"CR","lat":9.43063,"lon":-84.16231},{"name":"Quesada","country":"CR","lat":10.3266,"lon":-84.432},{"name":"Río Segundo","country":"CR","lat":10.2398,"lon":-84.3171},{"name":"Roxana","country":"CR","lat":10.26712,"lon":-83.7511},{"name":"Sabalito","country":"CR","lat":8.81814,"lon":-82.90911},{"name":"Sabanilla","country":"CR","lat":10.07404,"lon":-84.21551},{"name":"Sabanilla","country":"CR","lat":9.94706,"lon":-84.03408},{"name":"Salitral","country":"CR","lat":9.91163,"lon":-84.17835},{"name":"Salitrillos","country":"CR","lat":9.85373,"lon":-84.0916},{"name":"Sámara","country":"CR","lat":9.88147,"lon":-85.52809},{"name":"San Antonio","country":"CR","lat":9.9816,"lon":-84.18592},{"name":"San Diego","country":"CR","lat":9.90028,"lon":-84.0017},{"name":"San Felipe","country":"CR","lat":9.90444,"lon":-84.1062},{"name":"San Francisco","country":"CR","lat":9.9938,"lon":-84.12742},{"name":"San Ignacio","country":"CR","lat":9.79853,"lon":-84.16173},{"name":"San Isidro","country":"CR","lat":9.3674,"lon":-83.69713},{"name":"San José","country":"CR","lat":10.95192,"lon":-85.13572},{"name":"San José","country":"CR","lat":9.93333,"lon":-84.08333},{"name":"San Josecito","country":"CR","lat":10.01265,"lon":-84.1075},{"name":"San Juan","country":"CR","lat":10.10248,"lon":-84.31694},{"name":"San Juan","country":"CR","lat":9.96188,"lon":-84.07876},{"name":"San Juan de Dios","country":"CR","lat":9.87812,"lon":-84.08438},{"name":"San Marcos","country":"CR","lat":9.6601,"lon":-84.02026},{"name":"San Miguel","country":"CR","lat":9.87121,"lon":-84.06084},{"name":"San Pablo","country":"CR","lat":9.99559,"lon":-84.09656},{"name":"San Pablo","country":"CR","lat":9.68323,"lon":-84.0405},{"name":"San Pedro","country":"CR","lat":9.92829,"lon":-84.05074},{"name":"San Rafael","country":"CR","lat":10.06441,"lon":-84.47361},{"name":"San Rafael","country":"CR","lat":10.01817,"lon":-84.09465},{"name":"San Rafael","country":"CR","lat":9.92826,"lon":-84.13537},{"name":"San Rafael Abajo","country":"CR","lat":9.831,"lon":-84.29008},{"name":"San Rafael Arriba","country":"CR","lat":9.87648,"lon":-84.07479},{"name":"San Ramón","country":"CR","lat":10.08802,"lon":-84.47022},{"name":"San Vicente","country":"CR","lat":9.96194,"lon":-84.0494},{"name":"San Vicente de Moravia","country":"CR","lat":9.96164,"lon":-84.0488},{"name":"San Vito","country":"CR","lat":8.82079,"lon":-82.97092},{"name":"Santa Ana","country":"CR","lat":9.9326,"lon":-84.18255},{"name":"Santa Cruz","country":"CR","lat":10.26053,"lon":-85.5851},{"name":"Santiago","country":"CR","lat":10.02275,"lon":-84.4442},{"name":"Santiago","country":"CR","lat":9.84636,"lon":-84.31428},{"name":"Santo Domingo","country":"CR","lat":10.06389,"lon":-84.15499},{"name":"Sarchí","country":"CR","lat":10.0897,"lon":-84.34752},{"name":"Sardinal","country":"CR","lat":10.51674,"lon":-85.64748},{"name":"Siquirres","country":"CR","lat":10.09748,"lon":-83.50659},{"name":"Sixaola","country":"CR","lat":9.50371,"lon":-82.612},{"name":"Tamarindo","country":"CR","lat":10.29913,"lon":-85.84107},{"name":"Tejar","country":"CR","lat":9.74301,"lon":-84.23219},{"name":"Tilarán","country":"CR","lat":10.46701,"lon":-84.96775},{"name":"Tobosi","country":"CR","lat":9.83837,"lon":-83.98391},{"name":"Tres Ríos","country":"CR","lat":9.90692,"lon":-83.98789},{"name":"Tucurrique","country":"CR","lat":9.85336,"lon":-83.72273},{"name":"Turrialba","country":"CR","lat":9.90371,"lon":-83.68361},{"name":"Upala","country":"CR","lat":10.89908,"lon":-85.01366},{"name":"Zapotal","country":"CR","lat":10,"lon":-85.3},{"name":"Zarcero","country":"CR","lat":10.18455,"lon":-84.39163}]