[{"name":"Acherítou","country":"CY","lat":35.10022,"lon":33.86155},{"name":"Áchna","country":"CY","lat":35.05515,"lon":33.78388},{"name":"Ágios Dométios","country":"CY","lat":35.17346,"lon":33.34045},{"name":"Ágios Týchon","country":"CY","lat":34.72606,"lon":33.13872},{"name":"Aglantziá","country":"CY","lat":35.15422,"lon":33.39643},{"name":"Akáki","country":"CY","lat":35.13341,"lon":33.12873},{"name":"Alámpra","country":"CY","lat":34.98898,"lon":33.39887},{"name":"Aradíppou","country":"CY","lat":34.94779,"lon":33.58813},{"name":"Aredioú","country":"CY","lat":35.04844,"lon":33.1961},{"name":"Argáka","country":"CY","lat":35.06586,"lon":32.49226},{"name":"Astromerítis","country":"CY","lat":35.14096,"lon":33.03793},{"name":"Athíenou","country":"CY","lat":35.06183,"lon":33.54166},{"name":"Avgórou","country":"CY","lat":35.03615,"lon":33.83918},{"name":"Ayia Napa","country":"CY","lat":34.98213,"lon":34.00183},{"name":"Chlórakas","country":"CY","lat":34.79836,"lon":32.40653},{"name":"Dáli","country":"CY","lat":35.02294,"lon":33.42195},{"name":"Derýneia","country":"CY","lat":35.06484,"lon":33.96083},{"name":"Dhromolaxia","country":"CY","lat":34.87551,"lon":33.58684},{"name":"Égkomi","country":"CY","lat":35.16272,"lon":33.88322},{"name":"Emba","country":"CY","lat":34.807,"lon":32.42406},{"name":"Ergátes","country":"CY","lat":35.05365,"lon":33.24292},{"name":"Erími","country":"CY","lat":34.67766,"lon":32.91815},{"name":"Famagusta","country":"CY","lat":35.12489,"lon":33.94135},{"name":"Frénaros","country":"CY","lat":35.04121,"lon":33.92242},{"name":"Géri","country":"CY","lat":35.1056,"lon":33.41977},{"name":"Germasógeia","country":"CY","lat":34.72073,"lon":33.08447},{"name":"Geroskipou","country":"CY","lat":34.76091,"lon":32.44844},{"name":"Geroskípou (quarter)","country":"CY","lat":34.75581,"lon":32.44915},{"name":"Kakopetriá","country":"CY","lat":34.98768,"lon":32.90468},{"name":"Káto Defterá","country":"CY","lat":35.08489,"lon":33.27558},{"name":"Káto Lakatámeia","country":"CY","lat":35.11755,"lon":33.32539},{"name":"Káto Polemídia","country":"CY","lat":34.69721,"lon":32.99324},{"name":"Káto Pýrgos","country":"CY","lat":35.17897,"lon":32.686},{"name":"Kissonerga","country":"CY","lat":34.82279,"lon":32.40131},{"name":"Kíti","country":"CY","lat":34.84898,"lon":33.57523},{"name":"Klírou","country":"CY","lat":35.02004,"lon":33.17806},{"name":"Kofínou","country":"CY","lat":34.82427,"lon":33.39133},{"name":"Kokkinotrimithiá","country":"CY","lat":35.15303,"lon":33.19966},{"name":"Koloni","country":"CY","lat":34.74858,"lon":32.46565},{"name":"Kolossi","country":"CY","lat":34.66865,"lon":32.93375},{"name":"Konia","country":"CY","lat":34.78516,"lon":32.459},{"name":"Kórnos","country":"CY","lat":34.92221,"lon":33.39587},{"name":"Kyperoúnta","country":"CY","lat":34.93815,"lon":32.97551},{"name":"Kyrenia","country":"CY","lat":35.33634,"lon":33.31729},{"name":"Lápithos","country":"CY","lat":35.33823,"lon":33.17368},{"name":"Larnaca","country":"CY","lat":34.9221,"lon":33.62794},{"name":"Léfka","country":"CY","lat":35.11199,"lon":32.84997},{"name":"Lefkónoiko","country":"CY","lat":35.2598,"lon":33.73189},{"name":"Leonárisso","country":"CY","lat":35.46892,"lon":34.13886},{"name":"Limassol","country":"CY","lat":34.68406,"lon":33.03794},{"name":"Liopétri","country":"CY","lat":35.00885,"lon":33.89256},{"name":"Livádia","country":"CY","lat":34.95515,"lon":33.62734},{"name":"Lýmpia","country":"CY","lat":34.99889,"lon":33.46175},{"name":"Lythrodóntas","country":"CY","lat":34.95105,"lon":33.29777},{"name":"Mámmari","country":"CY","lat":35.17604,"lon":33.20435},{"name":"Meládeia","country":"CY","lat":34.98816,"lon":32.50665},{"name":"Meneou","country":"CY","lat":34.86075,"lon":33.59314},{"name":"Méniko","country":"CY","lat":35.10945,"lon":33.14474},{"name":"Mesógi","country":"CY","lat":34.81529,"lon":32.45627},{"name":"Mórfou","country":"CY","lat":35.19869,"lon":32.99338},{"name":"Mosfilotí","country":"CY","lat":34.95322,"lon":33.42518},{"name":"Mouttagiáka","country":"CY","lat":34.72022,"lon":33.10066},{"name":"Nicosia","country":"CY","lat":35.17531,"lon":33.3642},{"name":"Páchna","country":"CY","lat":34.77874,"lon":32.79355},{"name":"Páno Defterá","country":"CY","lat":35.07778,"lon":33.26584},{"name":"Páno Polemídia","country":"CY","lat":34.70559,"lon":32.99269},{"name":"Paphos","country":"CY","lat":34.77679,"lon":32.42451},{"name":"Paralímni","country":"CY","lat":35.03945,"lon":33.98181},{"name":"Parekklisha","country":"CY","lat":34.74583,"lon":33.15833},{"name":"Pégeia","country":"CY","lat":34.88385,"lon":32.38188},{"name":"Peléndri","country":"CY","lat":34.89597,"lon":32.96817},{"name":"Péra","country":"CY","lat":35.0335,"lon":33.25413},{"name":"Pérgamos","country":"CY","lat":35.04167,"lon":33.70833},{"name":"Peristeróna","country":"CY","lat":35.12928,"lon":33.07858},{"name":"Perivólia","country":"CY","lat":34.82894,"lon":33.58272},{"name":"Pissoúri","country":"CY","lat":34.66942,"lon":32.70132},{"name":"Polémi","country":"CY","lat":34.88613,"lon":32.50712},{"name":"Pólis","country":"CY","lat":35.03403,"lon":32.4255},{"name":"Protaras","country":"CY","lat":35.0125,"lon":34.05833},{"name":"Psevdás","country":"CY","lat":34.94478,"lon":33.46072},{"name":"Psimolofou","country":"CY","lat":35.0625,"lon":33.2625},{"name":"Pýla","country":"CY","lat":35.00469,"lon":33.68907},{"name":"Pyrgos","country":"CY","lat":34.74167,"lon":33.18333},{"name":"Rizokárpaso","country":"CY","lat":35.59719,"lon":34.37916},{"name":"Sotíra","country":"CY","lat":34.71189,"lon":32.8634},{"name":"Stróvolos","country":"CY","lat":35.14867,"lon":33.33384},{"name":"Tála","country":"CY","lat":34.83632,"lon":32.43097},{"name":"Tersefánou","country":"CY","lat":34.85408,"lon":33.54739},{"name":"Tríkomo","country":"CY","lat":35.28628,"lon":33.89167},{"name":"Tróodos","country":"CY","lat":34.92344,"lon":32.8805},{"name":"Troúlloi","country":"CY","lat":35.03263,"lon":33.61551},{"name":"Tsáda","country":"CY","lat":34.83862,"lon":32.47499},{"name":"Tsada - Tremithousa - Tala (Borders)","country":"CY","lat":34.8343,"lon":32.45363},{"name":"Tséri","country":"CY","lat":35.07307,"lon":33.32344},{"name":"Voróklini","country":"CY","lat":34.98138,"lon":33.65648},{"name":"Xylofágou","country":"CY","lat":34.97743,"lon":33.84894},{"name":"Xylotymbou","country":"CY","lat":35.01627,"lon":33.7435},{"name":"Ýpsonas","country":"CY","lat":34.68797,"lon":32.96191}]