[{"name":"Abertamy","country":"CZ","lat":50.36874,"lon":12.81826},{"name":"Adamov","country":"CZ","lat":49.30162,"lon":16.65253},{"name":"Albrechtice","country":"CZ","lat":49.78645,"lon":18.52444},{"name":"Albrechtice nad Orlicí","country":"CZ","lat":50.13979,"lon":16.06437},{"name":"Albrechtice nad Vltavou","country":"CZ","lat":49.25323,"lon":14.30283},{"name":"Aš","country":"CZ","lat":50.22387,"lon":12.19499},{"name":"Babice","country":"CZ","lat":49.12167,"lon":17.48075},{"name":"Bakov nad Jizerou","country":"CZ","lat":50.4823,"lon":14.94149},{"name":"Bánov","country":"CZ","lat":48.98801,"lon":17.71752},{"name":"Bartošovice","country":"CZ","lat":49.66884,"lon":18.05461},{"name":"Baška","country":"CZ","lat":49.64584,"lon":18.37233},{"name":"Batelov","country":"CZ","lat":49.31425,"lon":15.39465},{"name":"Bavorov","country":"CZ","lat":49.12184,"lon":14.07893},{"name":"Bechlín","country":"CZ","lat":50.41615,"lon":14.34092},{"name":"Bechyně","country":"CZ","lat":49.29523,"lon":14.4681},{"name":"Bečov","country":"CZ","lat":50.44972,"lon":13.71784},{"name":"Bedihošť","country":"CZ","lat":49.44826,"lon":17.16643},{"name":"Bělá nad Radbuzou","country":"CZ","lat":49.59115,"lon":12.71761},{"name":"Bělá pod Bezdězem","country":"CZ","lat":50.50121,"lon":14.80418},{"name":"Bělotín","country":"CZ","lat":49.5912,"lon":17.80654},{"name":"Benátky nad Jizerou","country":"CZ","lat":50.29085,"lon":14.82343},{"name":"Benecko","country":"CZ","lat":50.66633,"lon":15.54816},{"name":"Benešov","country":"CZ","lat":49.78162,"lon":14.68697},{"name":"Benešov nad Černou","country":"CZ","lat":48.7294,"lon":14.62737},{"name":"Benešov nad Ploučnicí","country":"CZ","lat":50.74159,"lon":14.31239},{"name":"Bernartice","country":"CZ","lat":49.36889,"lon":14.38101},{"name":"Beroun","country":"CZ","lat":49.96382,"lon":14.072},{"name":"Bezdružice","country":"CZ","lat":49.90724,"lon":12.9711},{"name":"Bílá Lhota","country":"CZ","lat":49.70953,"lon":16.97507},{"name":"Bílá Třemešná","country":"CZ","lat":50.44465,"lon":15.74101},{"name":"Bílina","country":"CZ","lat":50.54854,"lon":13.77535},{"name":"Bílovec","country":"CZ","lat":49.75639,"lon":18.01581},{"name":"Bílovice","country":"CZ","lat":49.09965,"lon":17.54961},{"name":"Bílovice nad Svitavou","country":"CZ","lat":49.24708,"lon":16.67247},{"name":"Blansko","country":"CZ","lat":49.36304,"lon":16.64446},{"name":"Blatná","country":"CZ","lat":49.42489,"lon":13.88176},{"name":"Blatnice","country":"CZ","lat":48.94714,"lon":17.46401},{"name":"Blažovice","country":"CZ","lat":49.16569,"lon":16.78611},{"name":"Blížejov","country":"CZ","lat":49.5,"lon":12.98926},{"name":"Blížkovice","country":"CZ","lat":48.99976,"lon":15.83482},{"name":"Blovice","country":"CZ","lat":49.5822,"lon":13.54009},{"name":"Blučina","country":"CZ","lat":49.05497,"lon":16.6445},{"name":"Bludov","country":"CZ","lat":49.9408,"lon":16.92849},{"name":"Bochov","country":"CZ","lat":50.14872,"lon":13.05227},{"name":"Bohdalov","country":"CZ","lat":49.47921,"lon":15.87582},{"name":"Bohumín","country":"CZ","lat":49.90411,"lon":18.35755},{"name":"Bohuňovice","country":"CZ","lat":49.66301,"lon":17.28693},{"name":"Bohuslavice","country":"CZ","lat":49.94232,"lon":18.12866},{"name":"Bohušovice nad Ohří","country":"CZ","lat":50.49316,"lon":14.15048},{"name":"Bohutín","country":"CZ","lat":49.65551,"lon":13.94389},{"name":"Bojkovice","country":"CZ","lat":49.03864,"lon":17.81487},{"name":"Bolatice","country":"CZ","lat":49.95172,"lon":18.08358},{"name":"Bor","country":"CZ","lat":49.71159,"lon":12.77516},{"name":"Borek","country":"CZ","lat":49.02339,"lon":14.50088},{"name":"Bořetice","country":"CZ","lat":48.91302,"lon":16.85306},{"name":"Bořitov","country":"CZ","lat":49.42504,"lon":16.59119},{"name":"Borohrádek","country":"CZ","lat":50.09777,"lon":16.09326},{"name":"Borová Lada","country":"CZ","lat":48.98983,"lon":13.65986},{"name":"Borovany","country":"CZ","lat":48.8986,"lon":14.64227},{"name":"Boršice","country":"CZ","lat":49.06254,"lon":17.35084},{"name":"Boskovice","country":"CZ","lat":49.48751,"lon":16.65997},{"name":"Bošovice","country":"CZ","lat":49.05351,"lon":16.83676},{"name":"Bouzov","country":"CZ","lat":49.70426,"lon":16.89288},{"name":"Božice","country":"CZ","lat":48.83687,"lon":16.28875},{"name":"Braňany","country":"CZ","lat":50.54295,"lon":13.70017},{"name":"Brandýs nad Labem-Stará Boleslav","country":"CZ","lat":50.18709,"lon":14.66326},{"name":"Brandýs nad Orlicí","country":"CZ","lat":50.00194,"lon":16.28528},{"name":"Brandýsek","country":"CZ","lat":50.18923,"lon":14.16199},{"name":"Braník","country":"CZ","lat":50.03498,"lon":14.41518},{"name":"Brantice","country":"CZ","lat":50.06351,"lon":17.62911},{"name":"Břasy","country":"CZ","lat":49.837,"lon":13.57833},{"name":"Břeclav","country":"CZ","lat":48.75897,"lon":16.88203},{"name":"Březí","country":"CZ","lat":48.81928,"lon":16.56748},{"name":"Březnice","country":"CZ","lat":49.55763,"lon":13.95063},{"name":"Březnice","country":"CZ","lat":49.18643,"lon":17.66277},{"name":"Březno","country":"CZ","lat":50.40185,"lon":13.42118},{"name":"Březolupy","country":"CZ","lat":49.12138,"lon":17.58034},{"name":"Březová","country":"CZ","lat":50.14557,"lon":12.64996},{"name":"Březová","country":"CZ","lat":49.79158,"lon":17.86556},{"name":"Březová","country":"CZ","lat":48.92543,"lon":17.73986},{"name":"Březová nad Svitavou","country":"CZ","lat":49.64418,"lon":16.51799},{"name":"Břidličná","country":"CZ","lat":49.91167,"lon":17.37107},{"name":"Brloh","country":"CZ","lat":48.92987,"lon":14.21857},{"name":"Brněnec","country":"CZ","lat":49.62735,"lon":16.52202},{"name":"Brniště","country":"CZ","lat":50.72919,"lon":14.70338},{"name":"Brno","country":"CZ","lat":49.19522,"lon":16.60796},{"name":"Brodek u Přerova","country":"CZ","lat":49.48419,"lon":17.33825},{"name":"Broumov","country":"CZ","lat":50.58566,"lon":16.33181},{"name":"Brtnice","country":"CZ","lat":49.30695,"lon":15.67642},{"name":"Brumovice","country":"CZ","lat":50.0153,"lon":17.74958},{"name":"Bruntál","country":"CZ","lat":49.98844,"lon":17.4647},{"name":"Brušperk","country":"CZ","lat":49.7001,"lon":18.2221},{"name":"Buchlovice","country":"CZ","lat":49.08627,"lon":17.33852},{"name":"Bučovice","country":"CZ","lat":49.14896,"lon":17.00191},{"name":"Budišov","country":"CZ","lat":49.27138,"lon":16.00383},{"name":"Budišov nad Budišovkou","country":"CZ","lat":49.79511,"lon":17.62969},{"name":"Budyně nad Ohří","country":"CZ","lat":50.40427,"lon":14.12591},{"name":"Bukovany","country":"CZ","lat":50.16632,"lon":12.57265},{"name":"Bukovec","country":"CZ","lat":49.55114,"lon":18.82683},{"name":"Buštěhrad","country":"CZ","lat":50.15594,"lon":14.18897},{"name":"Byšice","country":"CZ","lat":50.31044,"lon":14.61136},{"name":"Býšť","country":"CZ","lat":50.13243,"lon":15.91116},{"name":"Bystřany","country":"CZ","lat":50.62867,"lon":13.86419},{"name":"Bystré","country":"CZ","lat":49.62846,"lon":16.34679},{"name":"Bystřec","country":"CZ","lat":50.01168,"lon":16.619},{"name":"Bystřice","country":"CZ","lat":49.73213,"lon":14.6674},{"name":"Bystřice","country":"CZ","lat":49.63657,"lon":18.72038},{"name":"Bystřice nad Pernštejnem","country":"CZ","lat":49.52295,"lon":16.26147},{"name":"Bystřice pod Hostýnem","country":"CZ","lat":49.39924,"lon":17.67401},{"name":"Bzenec","country":"CZ","lat":48.97336,"lon":17.26685},{"name":"Čáslav","country":"CZ","lat":49.91099,"lon":15.38972},{"name":"Častolovice","country":"CZ","lat":50.1291,"lon":16.18128},{"name":"Čebín","country":"CZ","lat":49.31324,"lon":16.47791},{"name":"Čechtice","country":"CZ","lat":49.62403,"lon":15.04824},{"name":"Čejč","country":"CZ","lat":48.94653,"lon":16.96511},{"name":"Čejkovice","country":"CZ","lat":48.90592,"lon":16.9423},{"name":"Čeladná","country":"CZ","lat":49.54873,"lon":18.33759},{"name":"Čelákovice","country":"CZ","lat":50.16038,"lon":14.75005},{"name":"Čelechovice na Hané","country":"CZ","lat":49.51626,"lon":17.09379},{"name":"Čerčany","country":"CZ","lat":49.85293,"lon":14.70299},{"name":"Cerhenice","country":"CZ","lat":50.07127,"lon":15.07203},{"name":"Černá Hora","country":"CZ","lat":49.41361,"lon":16.5814},{"name":"Černčice","country":"CZ","lat":50.36138,"lon":13.84521},{"name":"Černilov","country":"CZ","lat":50.26265,"lon":15.92254},{"name":"Černošice","country":"CZ","lat":49.96008,"lon":14.31979},{"name":"Černošín","country":"CZ","lat":49.81613,"lon":12.88381},{"name":"Černovice","country":"CZ","lat":49.37265,"lon":14.96089},{"name":"Černožice","country":"CZ","lat":50.31863,"lon":15.87403},{"name":"Černý Most","country":"CZ","lat":50.10475,"lon":14.57974},{"name":"Červená Voda","country":"CZ","lat":50.04029,"lon":16.74268},{"name":"Červené Pečky","country":"CZ","lat":49.97822,"lon":15.20856},{"name":"Červenka","country":"CZ","lat":49.72068,"lon":17.07773},{"name":"Červený Kostelec","country":"CZ","lat":50.47626,"lon":16.09289},{"name":"Česká Kamenice","country":"CZ","lat":50.7978,"lon":14.41767},{"name":"Česká Lípa","country":"CZ","lat":50.68551,"lon":14.53764},{"name":"Česká Skalice","country":"CZ","lat":50.39467,"lon":16.04276},{"name":"Česká Třebová","country":"CZ","lat":49.90436,"lon":16.44413},{"name":"Česká Ves","country":"CZ","lat":50.25736,"lon":17.22805},{"name":"České Budějovice","country":"CZ","lat":48.97447,"lon":14.47434},{"name":"České Meziříčí","country":"CZ","lat":50.2868,"lon":16.04428},{"name":"České Velenice","country":"CZ","lat":48.76851,"lon":14.96368},{"name":"Český Brod","country":"CZ","lat":50.0742,"lon":14.86081},{"name":"Český Dub","country":"CZ","lat":50.66054,"lon":14.99617},{"name":"Český Krumlov","country":"CZ","lat":48.81091,"lon":14.31521},{"name":"Český Rudolec","country":"CZ","lat":49.06835,"lon":15.32437},{"name":"Český Těšín","country":"CZ","lat":49.74613,"lon":18.62613},{"name":"Chabařovice","country":"CZ","lat":50.67318,"lon":13.94184},{"name":"Cheb","country":"CZ","lat":50.07963,"lon":12.37392},{"name":"Chlebičov","country":"CZ","lat":49.95942,"lon":17.96748},{"name":"Chlum u Třeboně","country":"CZ","lat":48.96235,"lon":14.92799},{"name":"Chlumčany","country":"CZ","lat":49.63256,"lon":13.31323},{"name":"Chlumec","country":"CZ","lat":50.69972,"lon":13.93964},{"name":"Chlumec nad Cidlinou","country":"CZ","lat":50.1544,"lon":15.46026},{"name":"Choceň","country":"CZ","lat":50.00161,"lon":16.22303},{"name":"Chodov","country":"CZ","lat":50.24018,"lon":12.74551},{"name":"Chodová Planá","country":"CZ","lat":49.89321,"lon":12.73014},{"name":"Chomutov","country":"CZ","lat":50.46048,"lon":13.41779},{"name":"Chotěboř","country":"CZ","lat":49.72072,"lon":15.67018},{"name":"Chotěbuz","country":"CZ","lat":49.76849,"lon":18.56912},{"name":"Chotěšov","country":"CZ","lat":49.65408,"lon":13.20271},{"name":"Chotoviny","country":"CZ","lat":49.47803,"lon":14.67695},{"name":"Chrast","country":"CZ","lat":49.90205,"lon":15.93396},{"name":"Chrást","country":"CZ","lat":49.7932,"lon":13.49358},{"name":"Chrastava","country":"CZ","lat":50.81693,"lon":14.96884},{"name":"Chřibská","country":"CZ","lat":50.86079,"lon":14.48444},{"name":"Chropyně","country":"CZ","lat":49.35644,"lon":17.36451},{"name":"Chroustovice","country":"CZ","lat":49.95553,"lon":15.99143},{"name":"Chrudim","country":"CZ","lat":49.95109,"lon":15.79558},{"name":"Chuchelná","country":"CZ","lat":49.98664,"lon":18.11656},{"name":"Chvalčov","country":"CZ","lat":49.38918,"lon":17.71149},{"name":"Chvaletice","country":"CZ","lat":50.03443,"lon":15.41846},{"name":"Chvalšiny","country":"CZ","lat":48.85401,"lon":14.21114},{"name":"Chyňava","country":"CZ","lat":50.02736,"lon":14.07398},{"name":"Chýnov","country":"CZ","lat":49.40677,"lon":14.81122},{"name":"Chyšky","country":"CZ","lat":49.52346,"lon":14.42757},{"name":"Čimelice","country":"CZ","lat":49.46557,"lon":14.06922},{"name":"Církvice","country":"CZ","lat":49.9456,"lon":15.33505},{"name":"Cítov","country":"CZ","lat":50.37225,"lon":14.39813},{"name":"Čížkovice","country":"CZ","lat":50.48418,"lon":14.02839},{"name":"Čkyně","country":"CZ","lat":49.11503,"lon":13.82906},{"name":"Cvikov","country":"CZ","lat":50.77668,"lon":14.63298},{"name":"Dačice","country":"CZ","lat":49.08154,"lon":15.43727},{"name":"Dalovice","country":"CZ","lat":50.24779,"lon":12.89581},{"name":"Dambořice","country":"CZ","lat":49.03828,"lon":16.91757},{"name":"Darkovice","country":"CZ","lat":49.93592,"lon":18.22213},{"name":"Dašice","country":"CZ","lat":50.02844,"lon":15.91244},{"name":"Davle","country":"CZ","lat":49.89218,"lon":14.40037},{"name":"Děčín","country":"CZ","lat":50.78215,"lon":14.21478},{"name":"Desná","country":"CZ","lat":50.75987,"lon":15.30284},{"name":"Dětmarovice","country":"CZ","lat":49.89412,"lon":18.46079},{"name":"Divišov","country":"CZ","lat":49.78849,"lon":14.87579},{"name":"Dlouhá Třebová","country":"CZ","lat":49.9404,"lon":16.42329},{"name":"Dobrá","country":"CZ","lat":49.67383,"lon":18.41393},{"name":"Dobřany","country":"CZ","lat":49.65482,"lon":13.29307},{"name":"Dobratice","country":"CZ","lat":49.66039,"lon":18.49226},{"name":"Dobřichovice","country":"CZ","lat":49.92749,"lon":14.27469},{"name":"Dobříš","country":"CZ","lat":49.78113,"lon":14.16717},{"name":"Dobřív","country":"CZ","lat":49.71566,"lon":13.68681},{"name":"Dobroměřice","country":"CZ","lat":50.37009,"lon":13.79473},{"name":"Dobronín","country":"CZ","lat":49.47833,"lon":15.64992},{"name":"Dobrovice","country":"CZ","lat":50.36933,"lon":14.96233},{"name":"Dobruška","country":"CZ","lat":50.29201,"lon":16.16001},{"name":"Dobšice","country":"CZ","lat":48.84834,"lon":16.08218},{"name":"Doksy","country":"CZ","lat":50.56471,"lon":14.65553},{"name":"Doksy","country":"CZ","lat":50.119,"lon":14.04782},{"name":"Dolany","country":"CZ","lat":49.64987,"lon":17.3224},{"name":"Dolní Bečva","country":"CZ","lat":49.45498,"lon":18.19419},{"name":"Dolní Benešov","country":"CZ","lat":49.92101,"lon":18.10835},{"name":"Dolní Beřkovice","country":"CZ","lat":50.39313,"lon":14.45024},{"name":"Dolní Bohdíkov","country":"CZ","lat":50.00996,"lon":16.90433},{"name":"Dolní Bojanovice","country":"CZ","lat":48.85861,"lon":17.02859},{"name":"Dolní Bousov","country":"CZ","lat":50.43825,"lon":15.12812},{"name":"Dolní Břežany","country":"CZ","lat":49.96321,"lon":14.4585},{"name":"Dolní Bukovsko","country":"CZ","lat":49.17086,"lon":14.58127},{"name":"Dolní Cerekev","country":"CZ","lat":49.34449,"lon":15.45655},{"name":"Dolní Čermná","country":"CZ","lat":49.97954,"lon":16.56475},{"name":"Dolní Černilov","country":"CZ","lat":50.2611,"lon":15.96107},{"name":"Dolní Dobrouč","country":"CZ","lat":49.99273,"lon":16.49766},{"name":"Dolní Dunajovice","country":"CZ","lat":48.85447,"lon":16.59283},{"name":"Dolní Dvořiště","country":"CZ","lat":48.65642,"lon":14.45221},{"name":"Dolní Kounice","country":"CZ","lat":49.07011,"lon":16.46492},{"name":"Dolní Lhota","country":"CZ","lat":49.84236,"lon":18.09241},{"name":"Dolní Loućky","country":"CZ","lat":49.36099,"lon":16.35871},{"name":"Dolní Lutyně","country":"CZ","lat":49.89876,"lon":18.42815},{"name":"Dolní Němčí","country":"CZ","lat":48.96837,"lon":17.58585},{"name":"Dolní Počernice","country":"CZ","lat":50.0876,"lon":14.57199},{"name":"Dolní Podluží","country":"CZ","lat":50.87988,"lon":14.59503},{"name":"Dolní Poustevna","country":"CZ","lat":50.98251,"lon":14.28684},{"name":"Dolní Roveň","country":"CZ","lat":50.02927,"lon":15.96774},{"name":"Dolní Rychnov","country":"CZ","lat":50.16462,"lon":12.64507},{"name":"Dolní Sloupnice","country":"CZ","lat":49.92721,"lon":16.29401},{"name":"Dolní Studénky","country":"CZ","lat":49.93506,"lon":16.97107},{"name":"Dolní Újezd","country":"CZ","lat":49.82562,"lon":16.25461},{"name":"Dolní Újezd","country":"CZ","lat":49.54597,"lon":17.53547},{"name":"Dolní Žandov","country":"CZ","lat":50.01794,"lon":12.55101},{"name":"Dolní Životice","country":"CZ","lat":49.89732,"lon":17.77969},{"name":"Doloplazy","country":"CZ","lat":49.56876,"lon":17.41393},{"name":"Domanín","country":"CZ","lat":49.00167,"lon":17.28476},{"name":"Domažlice","country":"CZ","lat":49.44049,"lon":12.92976},{"name":"Doubrava","country":"CZ","lat":49.85873,"lon":18.48018},{"name":"Doubravice nad Svitavou","country":"CZ","lat":49.43664,"lon":16.62937},{"name":"Doudleby nad Orlicí","country":"CZ","lat":50.10742,"lon":16.26131},{"name":"Drahanovice","country":"CZ","lat":49.57856,"lon":17.07701},{"name":"Drásov","country":"CZ","lat":49.33183,"lon":16.47798},{"name":"Dřevohostice","country":"CZ","lat":49.42594,"lon":17.59204},{"name":"Dřiteň","country":"CZ","lat":49.1428,"lon":14.34596},{"name":"Drnholec","country":"CZ","lat":48.85746,"lon":16.48586},{"name":"Drnovice","country":"CZ","lat":49.46931,"lon":16.54223},{"name":"Drnovice","country":"CZ","lat":49.2763,"lon":16.95146},{"name":"Dub nad Moravou","country":"CZ","lat":49.48249,"lon":17.27723},{"name":"Dubá","country":"CZ","lat":50.54034,"lon":14.54023},{"name":"Dubí","country":"CZ","lat":50.68558,"lon":13.78561},{"name":"Dubicko","country":"CZ","lat":49.82806,"lon":16.96266},{"name":"Dubňany","country":"CZ","lat":48.91694,"lon":17.09004},{"name":"Dubné","country":"CZ","lat":48.97619,"lon":14.36038},{"name":"Duchcov","country":"CZ","lat":50.60376,"lon":13.74621},{"name":"Dvorce","country":"CZ","lat":49.83332,"lon":17.54762},{"name":"Dvůr Králové nad Labem","country":"CZ","lat":50.43172,"lon":15.81402},{"name":"Dýšina","country":"CZ","lat":49.77735,"lon":13.4915},{"name":"Francova Lhota","country":"CZ","lat":49.20174,"lon":18.11175},{"name":"Františkovy Lázně","country":"CZ","lat":50.12033,"lon":12.35174},{"name":"Frenštát pod Radhoštěm","country":"CZ","lat":49.54835,"lon":18.21078},{"name":"Fryčovice","country":"CZ","lat":49.66677,"lon":18.22321},{"name":"Frýdek-Místek","country":"CZ","lat":49.68333,"lon":18.35},{"name":"Frýdlant","country":"CZ","lat":50.92139,"lon":15.07974},{"name":"Frýdlant nad Ostravicí","country":"CZ","lat":49.5928,"lon":18.35967},{"name":"Frymburk","country":"CZ","lat":48.66094,"lon":14.16564},{"name":"Fryšták","country":"CZ","lat":49.2852,"lon":17.68346},{"name":"Fulnek","country":"CZ","lat":49.71238,"lon":17.90319},{"name":"Golčův Jeníkov","country":"CZ","lat":49.81626,"lon":15.47686},{"name":"Grygov","country":"CZ","lat":49.53841,"lon":17.30887},{"name":"Habartov","country":"CZ","lat":50.18297,"lon":12.55054},{"name":"Habry","country":"CZ","lat":49.75603,"lon":15.48486},{"name":"Háj ve Slezsku","country":"CZ","lat":49.89856,"lon":18.0954},{"name":"Halenkov","country":"CZ","lat":49.3174,"lon":18.14749},{"name":"Halenkovice","country":"CZ","lat":49.17102,"lon":17.47156},{"name":"Hanušovice","country":"CZ","lat":50.08049,"lon":16.93641},{"name":"Harrachov","country":"CZ","lat":50.77209,"lon":15.43141},{"name":"Hartmanice","country":"CZ","lat":49.16948,"lon":13.45455},{"name":"Hať","country":"CZ","lat":49.94644,"lon":18.23931},{"name":"Havířov","country":"CZ","lat":49.77984,"lon":18.43688},{"name":"Havlíčkův Brod","country":"CZ","lat":49.6069,"lon":15.57937},{"name":"Hazlov","country":"CZ","lat":50.15634,"lon":12.27238},{"name":"Hejnice","country":"CZ","lat":50.8772,"lon":15.18168},{"name":"Herálec","country":"CZ","lat":49.68891,"lon":15.99431},{"name":"Herálec","country":"CZ","lat":49.53083,"lon":15.45708},{"name":"Heřmanova Huť","country":"CZ","lat":49.70679,"lon":13.10069},{"name":"Heřmanův Městec","country":"CZ","lat":49.94707,"lon":15.66492},{"name":"Hevlín","country":"CZ","lat":48.75209,"lon":16.38131},{"name":"Hlinsko","country":"CZ","lat":49.76213,"lon":15.90756},{"name":"Hlohovec","country":"CZ","lat":48.77399,"lon":16.7623},{"name":"Hlubočky","country":"CZ","lat":49.61783,"lon":17.39436},{"name":"Hluboká nad Vltavou","country":"CZ","lat":49.05225,"lon":14.43427},{"name":"Hlučín","country":"CZ","lat":49.89795,"lon":18.19196},{"name":"Hluk","country":"CZ","lat":48.98805,"lon":17.52744},{"name":"Hněvošice","country":"CZ","lat":50.00299,"lon":18.00829},{"name":"Hněvotín","country":"CZ","lat":49.57205,"lon":17.17954},{"name":"Hnojník","country":"CZ","lat":49.6825,"lon":18.54143},{"name":"Hodkovice nad Mohelkou","country":"CZ","lat":50.66586,"lon":15.08985},{"name":"Hodkovičky","country":"CZ","lat":50.02346,"lon":14.41415},{"name":"Hodonice","country":"CZ","lat":48.8368,"lon":16.16337},{"name":"Hodonín","country":"CZ","lat":48.84893,"lon":17.13244},{"name":"Hodslavice","country":"CZ","lat":49.53856,"lon":18.02367},{"name":"Holasovice","country":"CZ","lat":49.99843,"lon":17.80847},{"name":"Holešov","country":"CZ","lat":49.33331,"lon":17.57832},{"name":"Holice","country":"CZ","lat":50.06601,"lon":15.9859},{"name":"Holoubkov","country":"CZ","lat":49.77598,"lon":13.69246},{"name":"Holýšov","country":"CZ","lat":49.59361,"lon":13.10129},{"name":"Horažďovice","country":"CZ","lat":49.32069,"lon":13.701},{"name":"Hořice","country":"CZ","lat":50.36609,"lon":15.63183},{"name":"Horka nad Moravou","country":"CZ","lat":49.64009,"lon":17.2107},{"name":"Horní Bečva","country":"CZ","lat":49.43216,"lon":18.28859},{"name":"Horní Benešov","country":"CZ","lat":49.96682,"lon":17.60262},{"name":"Horní Bludovice","country":"CZ","lat":49.74965,"lon":18.43677},{"name":"Horní Branná","country":"CZ","lat":50.60826,"lon":15.57146},{"name":"Horní Bříza","country":"CZ","lat":49.84012,"lon":13.35558},{"name":"Horní Cerekev","country":"CZ","lat":49.32026,"lon":15.32769},{"name":"Horní Čermná","country":"CZ","lat":49.97053,"lon":16.60772},{"name":"Horní Jelení","country":"CZ","lat":50.04901,"lon":16.08396},{"name":"Horní Jiřetín","country":"CZ","lat":50.57309,"lon":13.54717},{"name":"Horní Lideč","country":"CZ","lat":49.18121,"lon":18.06099},{"name":"Horní Město","country":"CZ","lat":49.90845,"lon":17.21112},{"name":"Horní Moštěnice","country":"CZ","lat":49.41213,"lon":17.45879},{"name":"Horní Planá","country":"CZ","lat":48.76736,"lon":14.03257},{"name":"Horní Počaply","country":"CZ","lat":50.4244,"lon":14.38993},{"name":"Horní Počernice","country":"CZ","lat":50.1121,"lon":14.61036},{"name":"Horní Slavkov","country":"CZ","lat":50.13863,"lon":12.80758},{"name":"Horní Sloupnice","country":"CZ","lat":49.92138,"lon":16.33948},{"name":"Horní Štěpánov","country":"CZ","lat":49.54901,"lon":16.79078},{"name":"Horní Stropnice","country":"CZ","lat":48.76124,"lon":14.73502},{"name":"Horní Suchá","country":"CZ","lat":49.7978,"lon":18.48189},{"name":"Horní Těrlicko","country":"CZ","lat":49.75177,"lon":18.4829},{"name":"Horoměřice","country":"CZ","lat":50.13173,"lon":14.33879},{"name":"Hořovice","country":"CZ","lat":49.83597,"lon":13.90268},{"name":"Horšovský Týn","country":"CZ","lat":49.52965,"lon":12.94405},{"name":"Hošťálková","country":"CZ","lat":49.35467,"lon":17.86944},{"name":"Hostavice","country":"CZ","lat":50.09283,"lon":14.55822},{"name":"Hostěradice","country":"CZ","lat":48.95006,"lon":16.25931},{"name":"Hostinné","country":"CZ","lat":50.54066,"lon":15.72334},{"name":"Hostivice","country":"CZ","lat":50.08158,"lon":14.25856},{"name":"Hošťka","country":"CZ","lat":50.48859,"lon":14.335},{"name":"Hostomice","country":"CZ","lat":50.5877,"lon":13.80803},{"name":"Hostomice","country":"CZ","lat":49.82526,"lon":14.0456},{"name":"Hostouň","country":"CZ","lat":49.55971,"lon":12.77147},{"name":"Hovězí","country":"CZ","lat":49.30365,"lon":18.06062},{"name":"Hovorany","country":"CZ","lat":48.95493,"lon":16.99346},{"name":"Hovorčovice","country":"CZ","lat":50.17866,"lon":14.51789},{"name":"Hrabyně","country":"CZ","lat":49.88249,"lon":18.05483},{"name":"Hradec Králové","country":"CZ","lat":50.20923,"lon":15.83277},{"name":"Hradec nad Moravicí","country":"CZ","lat":49.87042,"lon":17.87843},{"name":"Hradec nad Svitavou","country":"CZ","lat":49.71143,"lon":16.48058},{"name":"Hrádek","country":"CZ","lat":49.71316,"lon":13.65296},{"name":"Hrádek","country":"CZ","lat":49.61661,"lon":18.7372},{"name":"Hrádek","country":"CZ","lat":49.26127,"lon":13.4985},{"name":"Hrádek nad Nisou","country":"CZ","lat":50.85279,"lon":14.84455},{"name":"Hradištko","country":"CZ","lat":49.86828,"lon":14.40935},{"name":"Hranice","country":"CZ","lat":50.30459,"lon":12.17577},{"name":"Hranice","country":"CZ","lat":49.54796,"lon":17.73469},{"name":"Hrdějovice","country":"CZ","lat":49.01893,"lon":14.47857},{"name":"Hřebeč","country":"CZ","lat":50.13595,"lon":14.16446},{"name":"Hrob","country":"CZ","lat":50.65919,"lon":13.72676},{"name":"Hrochův Týnec","country":"CZ","lat":49.95946,"lon":15.91054},{"name":"Hromnice","country":"CZ","lat":49.84907,"lon":13.44146},{"name":"Hronov","country":"CZ","lat":50.47968,"lon":16.1823},{"name":"Hrotovice","country":"CZ","lat":49.1077,"lon":16.06067},{"name":"Hroznětín","country":"CZ","lat":50.3094,"lon":12.8718},{"name":"Hroznová Lhota","country":"CZ","lat":48.90784,"lon":17.41697},{"name":"Hrušky","country":"CZ","lat":48.79272,"lon":16.97404},{"name":"Hrušovany nad Jevišovkou","country":"CZ","lat":48.82991,"lon":16.40271},{"name":"Hrušovany u Brna","country":"CZ","lat":49.03863,"lon":16.59429},{"name":"Hudlice","country":"CZ","lat":49.96096,"lon":13.97063},{"name":"Hukvaldy","country":"CZ","lat":49.62381,"lon":18.22189},{"name":"Hulín","country":"CZ","lat":49.31689,"lon":17.46374},{"name":"Humpolec","country":"CZ","lat":49.54152,"lon":15.35932},{"name":"Husinec","country":"CZ","lat":49.05496,"lon":13.98697},{"name":"Hustopeče","country":"CZ","lat":48.94085,"lon":16.73762},{"name":"Hustopeče Nad Bečvou","country":"CZ","lat":49.53053,"lon":17.86994},{"name":"Hvozdná","country":"CZ","lat":49.24848,"lon":17.75163},{"name":"Hýskov","country":"CZ","lat":49.99072,"lon":14.05055},{"name":"Ivančice","country":"CZ","lat":49.10144,"lon":16.37752},{"name":"Ivanovice na Hané","country":"CZ","lat":49.30542,"lon":17.09343},{"name":"Jablonec nad Jizerou","country":"CZ","lat":50.70347,"lon":15.42959},{"name":"Jablonec nad Nisou","country":"CZ","lat":50.72431,"lon":15.17108},{"name":"Jablonné nad Orlicí","country":"CZ","lat":50.02964,"lon":16.60059},{"name":"Jablonné v Podještědí","country":"CZ","lat":50.76528,"lon":14.76052},{"name":"Jablůnka","country":"CZ","lat":49.38355,"lon":17.95021},{"name":"Jablunkov","country":"CZ","lat":49.57672,"lon":18.76458},{"name":"Jáchymov","country":"CZ","lat":50.35846,"lon":12.93465},{"name":"Jakartovice","country":"CZ","lat":49.9151,"lon":17.684},{"name":"Jalubí","country":"CZ","lat":49.11626,"lon":17.42788},{"name":"Janov nad Nisou","country":"CZ","lat":50.77204,"lon":15.16913},{"name":"Janovice","country":"CZ","lat":49.62141,"lon":18.40602},{"name":"Janovice nad Úhlavou","country":"CZ","lat":49.34515,"lon":13.21813},{"name":"Jaroměř","country":"CZ","lat":50.3562,"lon":15.92136},{"name":"Jaroměřice","country":"CZ","lat":49.62556,"lon":16.75185},{"name":"Jaroměřice nad Rokytnou","country":"CZ","lat":49.09408,"lon":15.89331},{"name":"Jaroslavice","country":"CZ","lat":48.75657,"lon":16.23351},{"name":"Jarošov nad Nežárkou","country":"CZ","lat":49.18989,"lon":15.06734},{"name":"Javorník","country":"CZ","lat":50.39077,"lon":17.00272},{"name":"Jedlová","country":"CZ","lat":49.661,"lon":16.30608},{"name":"Jedovnice","country":"CZ","lat":49.34453,"lon":16.75595},{"name":"Jemnice","country":"CZ","lat":49.01898,"lon":15.56994},{"name":"Jeneč","country":"CZ","lat":50.0873,"lon":14.21482},{"name":"Jesenice","country":"CZ","lat":50.09703,"lon":13.46948},{"name":"Jesenice","country":"CZ","lat":49.96814,"lon":14.5135},{"name":"Jeseník","country":"CZ","lat":50.22937,"lon":17.20464},{"name":"Jeseník nad Odrou","country":"CZ","lat":49.61194,"lon":17.90526},{"name":"Jevíčko","country":"CZ","lat":49.6322,"lon":16.71125},{"name":"Jevišovice","country":"CZ","lat":48.98736,"lon":15.98992},{"name":"Jičín","country":"CZ","lat":50.43723,"lon":15.35162},{"name":"Jihlava","country":"CZ","lat":49.3961,"lon":15.59124},{"name":"Jilemnice","country":"CZ","lat":50.6089,"lon":15.50653},{"name":"Jílové","country":"CZ","lat":50.76082,"lon":14.10383},{"name":"Jílové u Prahy","country":"CZ","lat":49.89545,"lon":14.49333},{"name":"Jimramov","country":"CZ","lat":49.63719,"lon":16.22632},{"name":"Jince","country":"CZ","lat":49.78624,"lon":13.97867},{"name":"Jindřichov","country":"CZ","lat":50.25184,"lon":17.51903},{"name":"Jindřichův Hradec","country":"CZ","lat":49.14404,"lon":15.00301},{"name":"Jiříkov","country":"CZ","lat":50.99514,"lon":14.5691},{"name":"Jirkov","country":"CZ","lat":50.49979,"lon":13.44769},{"name":"Jirny","country":"CZ","lat":50.11578,"lon":14.69923},{"name":"Jistebnice","country":"CZ","lat":49.48553,"lon":14.5276},{"name":"Jistebník","country":"CZ","lat":49.754,"lon":18.13063},{"name":"Josefův Důl","country":"CZ","lat":50.78191,"lon":15.23146},{"name":"Kačice","country":"CZ","lat":50.16261,"lon":13.98815},{"name":"Kadaň","country":"CZ","lat":50.38333,"lon":13.26667},{"name":"Kájov","country":"CZ","lat":48.81082,"lon":14.25859},{"name":"Kamenice","country":"CZ","lat":49.90151,"lon":14.58242},{"name":"Kamenice","country":"CZ","lat":49.36659,"lon":15.78023},{"name":"Kamenice nad Lipou","country":"CZ","lat":49.30303,"lon":15.07519},{"name":"Kamenický Šenov","country":"CZ","lat":50.77359,"lon":14.47287},{"name":"Kamenné Žehrovice","country":"CZ","lat":50.12697,"lon":14.01809},{"name":"Kamenný Přívoz","country":"CZ","lat":49.86299,"lon":14.50339},{"name":"Kamenný Újezd","country":"CZ","lat":48.89753,"lon":14.44638},{"name":"Kaplice","country":"CZ","lat":48.73881,"lon":14.49449},{"name":"Kardašova Řečice","country":"CZ","lat":49.18478,"lon":14.85315},{"name":"Karlín","country":"CZ","lat":50.09272,"lon":14.44711},{"name":"Karlovice","country":"CZ","lat":50.10564,"lon":17.44563},{"name":"Karlovy Vary","country":"CZ","lat":50.23271,"lon":12.87117},{"name":"Karolinka","country":"CZ","lat":49.35128,"lon":18.24006},{"name":"Karviná","country":"CZ","lat":49.854,"lon":18.54169},{"name":"Kasejovice","country":"CZ","lat":49.4627,"lon":13.7406},{"name":"Kašperské Hory","country":"CZ","lat":49.14289,"lon":13.55616},{"name":"Katovice","country":"CZ","lat":49.27348,"lon":13.83035},{"name":"Kaznějov","country":"CZ","lat":49.89313,"lon":13.38295},{"name":"Kbely","country":"CZ","lat":50.13333,"lon":14.55},{"name":"Kdyně","country":"CZ","lat":49.39077,"lon":13.03968},{"name":"Kelč","country":"CZ","lat":49.47844,"lon":17.81533},{"name":"Kladno","country":"CZ","lat":50.14734,"lon":14.10285},{"name":"Kladruby","country":"CZ","lat":49.71498,"lon":12.98232},{"name":"Klášter","country":"CZ","lat":49.96762,"lon":12.87623},{"name":"Klášterec nad Ohří","country":"CZ","lat":50.3886,"lon":13.18342},{"name":"Klatovy","country":"CZ","lat":49.39552,"lon":13.29505},{"name":"Klecany","country":"CZ","lat":50.17599,"lon":14.41148},{"name":"Klenčí pod Čerchovem","country":"CZ","lat":49.43484,"lon":12.81473},{"name":"Klimkovice","country":"CZ","lat":49.78809,"lon":18.12585},{"name":"Klobouky","country":"CZ","lat":48.99609,"lon":16.86298},{"name":"Klobuky","country":"CZ","lat":50.29401,"lon":13.98748},{"name":"Kněždub","country":"CZ","lat":48.88666,"lon":17.39546},{"name":"Kněžice","country":"CZ","lat":49.27078,"lon":15.67216},{"name":"Kněžmost","country":"CZ","lat":50.48917,"lon":15.03829},{"name":"Kněžpole","country":"CZ","lat":49.09855,"lon":17.51671},{"name":"Kobeřice","country":"CZ","lat":49.98548,"lon":18.05212},{"name":"Kobylí","country":"CZ","lat":48.93286,"lon":16.89159},{"name":"Kojetín","country":"CZ","lat":49.35179,"lon":17.30207},{"name":"Kokory","country":"CZ","lat":49.49482,"lon":17.37544},{"name":"Kolín","country":"CZ","lat":50.02806,"lon":15.1998},{"name":"Kolinec","country":"CZ","lat":49.29895,"lon":13.439},{"name":"Komárov","country":"CZ","lat":49.8065,"lon":13.85636},{"name":"Komorní Lhotka","country":"CZ","lat":49.65811,"lon":18.52777},{"name":"Konice","country":"CZ","lat":49.5903,"lon":16.88911},{"name":"Kopidlno","country":"CZ","lat":50.33085,"lon":15.27029},{"name":"Kopřivnice","country":"CZ","lat":49.59947,"lon":18.1448},{"name":"Kořenov","country":"CZ","lat":50.75926,"lon":15.36532},{"name":"Koryčany","country":"CZ","lat":49.10639,"lon":17.16433},{"name":"Kosmonosy","country":"CZ","lat":50.4385,"lon":14.93},{"name":"Kosova Hora","country":"CZ","lat":49.65414,"lon":14.47173},{"name":"Košťálov","country":"CZ","lat":50.57165,"lon":15.40403},{"name":"Košťany","country":"CZ","lat":50.65507,"lon":13.75554},{"name":"Kostelec na Hané","country":"CZ","lat":49.51398,"lon":17.05824},{"name":"Kostelec nad Černými Lesy","country":"CZ","lat":49.99403,"lon":14.85922},{"name":"Kostelec nad Labem","country":"CZ","lat":50.22653,"lon":14.58552},{"name":"Kostelec nad Orlicí","country":"CZ","lat":50.12267,"lon":16.21319},{"name":"Kostice","country":"CZ","lat":48.74685,"lon":16.97869},{"name":"Kouřim","country":"CZ","lat":50.00306,"lon":14.97703},{"name":"Kout na Šumavě","country":"CZ","lat":49.40255,"lon":13.00208},{"name":"Kovářov","country":"CZ","lat":49.5176,"lon":14.27809},{"name":"Kovářská","country":"CZ","lat":50.43821,"lon":13.05388},{"name":"Kožlany","country":"CZ","lat":49.99389,"lon":13.54107},{"name":"Kozlovice","country":"CZ","lat":49.5904,"lon":18.25656},{"name":"Kozmice","country":"CZ","lat":49.9128,"lon":18.15584},{"name":"Kralice na Hané","country":"CZ","lat":49.46296,"lon":17.18048},{"name":"Králíky","country":"CZ","lat":50.08384,"lon":16.76054},{"name":"Kralovice","country":"CZ","lat":49.98192,"lon":13.48747},{"name":"Kralupy nad Vltavou","country":"CZ","lat":50.24107,"lon":14.31149},{"name":"Králův Dvůr","country":"CZ","lat":49.94981,"lon":14.03445},{"name":"Kraslice","country":"CZ","lat":50.32372,"lon":12.51747},{"name":"Krásná Hora nad Vltavou","country":"CZ","lat":49.60461,"lon":14.27742},{"name":"Krásná Lípa","country":"CZ","lat":50.91303,"lon":14.50999},{"name":"Krásná Lípa","country":"CZ","lat":50.48378,"lon":13.3575},{"name":"Kravaře","country":"CZ","lat":49.93203,"lon":18.00472},{"name":"Křemže","country":"CZ","lat":48.90497,"lon":14.30568},{"name":"Křenovice","country":"CZ","lat":49.14216,"lon":16.82932},{"name":"Křepice","country":"CZ","lat":48.99986,"lon":16.71989},{"name":"Křešice","country":"CZ","lat":50.52259,"lon":14.2145},{"name":"Křinec","country":"CZ","lat":50.26449,"lon":15.13782},{"name":"Křižanov","country":"CZ","lat":49.38858,"lon":16.1096},{"name":"Krmelín","country":"CZ","lat":49.72914,"lon":18.23541},{"name":"Krnov","country":"CZ","lat":50.08967,"lon":17.70385},{"name":"Kroměříž","country":"CZ","lat":49.29785,"lon":17.39312},{"name":"Krouna","country":"CZ","lat":49.7724,"lon":16.02674},{"name":"Krucemburk","country":"CZ","lat":49.68841,"lon":15.85207},{"name":"Krumvíř","country":"CZ","lat":48.98901,"lon":16.91027},{"name":"Krupka","country":"CZ","lat":50.68449,"lon":13.85815},{"name":"Kryry","country":"CZ","lat":50.17437,"lon":13.4266},{"name":"Kunčice pod Ondřejníkem","country":"CZ","lat":49.5507,"lon":18.26113},{"name":"Kunčina","country":"CZ","lat":49.79455,"lon":16.62763},{"name":"Kunín","country":"CZ","lat":49.63377,"lon":17.98965},{"name":"Kunovice","country":"CZ","lat":49.04499,"lon":17.47011},{"name":"Kunštát","country":"CZ","lat":49.50645,"lon":16.51722},{"name":"Kunvald","country":"CZ","lat":50.12927,"lon":16.49996},{"name":"Kunžak","country":"CZ","lat":49.12119,"lon":15.19028},{"name":"Kuřim","country":"CZ","lat":49.29852,"lon":16.53144},{"name":"Kutná Hora","country":"CZ","lat":49.94839,"lon":15.26816},{"name":"Kvasice","country":"CZ","lat":49.24223,"lon":17.46974},{"name":"Kvasiny","country":"CZ","lat":50.2125,"lon":16.26323},{"name":"Kyjov","country":"CZ","lat":49.01018,"lon":17.12253},{"name":"Kynšperk nad Ohří","country":"CZ","lat":50.11893,"lon":12.53027},{"name":"Ladná","country":"CZ","lat":48.80539,"lon":16.87206},{"name":"Lanškroun","country":"CZ","lat":49.91217,"lon":16.6119},{"name":"Lány","country":"CZ","lat":50.12471,"lon":13.95041},{"name":"Lanžhot","country":"CZ","lat":48.72443,"lon":16.96695},{"name":"Lázně Bělohrad","country":"CZ","lat":50.42874,"lon":15.58269},{"name":"Lázně Bohdaneč","country":"CZ","lat":50.0756,"lon":15.67978},{"name":"Lázně Kynžvart","country":"CZ","lat":50.01058,"lon":12.62474},{"name":"Ledeč nad Sázavou","country":"CZ","lat":49.69517,"lon":15.27772},{"name":"Ledenice","country":"CZ","lat":48.93329,"lon":14.61886},{"name":"Lednice","country":"CZ","lat":48.79992,"lon":16.80339},{"name":"Lelekovice","country":"CZ","lat":49.29144,"lon":16.57874},{"name":"Lenešice","country":"CZ","lat":50.37516,"lon":13.7659},{"name":"Lešná","country":"CZ","lat":49.52055,"lon":17.93004},{"name":"Leština","country":"CZ","lat":49.86879,"lon":16.92748},{"name":"Letňany","country":"CZ","lat":50.13333,"lon":14.51667},{"name":"Letohrad","country":"CZ","lat":50.0358,"lon":16.49879},{"name":"Letonice","country":"CZ","lat":49.17726,"lon":16.95913},{"name":"Letovice","country":"CZ","lat":49.54709,"lon":16.57357},{"name":"Lhenice","country":"CZ","lat":48.99479,"lon":14.1498},{"name":"Libáň","country":"CZ","lat":50.37542,"lon":15.21684},{"name":"Libavské Údolí","country":"CZ","lat":50.12887,"lon":12.55249},{"name":"Libčice nad Vltavou","country":"CZ","lat":50.19778,"lon":14.36385},{"name":"Libeň","country":"CZ","lat":50.10819,"lon":14.47457},{"name":"Liberec","country":"CZ","lat":50.76711,"lon":15.05619},{"name":"Liběšice","country":"CZ","lat":50.56886,"lon":14.28906},{"name":"Líbeznice","country":"CZ","lat":50.19198,"lon":14.49357},{"name":"Libice nad Cidlinou","country":"CZ","lat":50.12677,"lon":15.1782},{"name":"Libiš","country":"CZ","lat":50.27417,"lon":14.5024},{"name":"Libochovice","country":"CZ","lat":50.40626,"lon":14.04439},{"name":"Libouchec","country":"CZ","lat":50.75854,"lon":14.04071},{"name":"Libušín","country":"CZ","lat":50.16819,"lon":14.05458},{"name":"Lichnov","country":"CZ","lat":50.00786,"lon":17.6264},{"name":"Lichnov (o. Nový Jičín)","country":"CZ","lat":49.56423,"lon":18.16898},{"name":"Lidečko","country":"CZ","lat":49.20303,"lon":18.0513},{"name":"Líně","country":"CZ","lat":49.69472,"lon":13.25693},{"name":"Lípa","country":"CZ","lat":49.55418,"lon":15.54465},{"name":"Lipník nad Bečvou","country":"CZ","lat":49.52721,"lon":17.58594},{"name":"Lipov","country":"CZ","lat":48.90495,"lon":17.46171},{"name":"Lipovec","country":"CZ","lat":49.38394,"lon":16.80583},{"name":"Liptál","country":"CZ","lat":49.29051,"lon":17.92177},{"name":"Lipůvka","country":"CZ","lat":49.33933,"lon":16.55313},{"name":"Lišov","country":"CZ","lat":49.01597,"lon":14.60838},{"name":"Litoměřice","country":"CZ","lat":50.53348,"lon":14.1318},{"name":"Litomyšl","country":"CZ","lat":49.86809,"lon":16.31298},{"name":"Litovel","country":"CZ","lat":49.70121,"lon":17.07615},{"name":"Litvínov","country":"CZ","lat":50.6042,"lon":13.61812},{"name":"Litvínovice","country":"CZ","lat":48.96207,"lon":14.45146},{"name":"Lochovice","country":"CZ","lat":49.85318,"lon":13.98126},{"name":"Loděnice","country":"CZ","lat":49.99486,"lon":14.15785},{"name":"Loket","country":"CZ","lat":50.186,"lon":12.75405},{"name":"Lom u Mostu","country":"CZ","lat":50.59328,"lon":13.65729},{"name":"Lomnice","country":"CZ","lat":50.21174,"lon":12.63267},{"name":"Lomnice","country":"CZ","lat":49.40462,"lon":16.41359},{"name":"Lomnice nad Lužnicí","country":"CZ","lat":49.08468,"lon":14.71727},{"name":"Lomnice nad Popelkou","country":"CZ","lat":50.53062,"lon":15.37341},{"name":"Loštice","country":"CZ","lat":49.7447,"lon":16.92892},{"name":"Loučeň","country":"CZ","lat":50.28537,"lon":15.02049},{"name":"Loučná nad Desnou","country":"CZ","lat":50.07433,"lon":17.09052},{"name":"Loučovice","country":"CZ","lat":48.62019,"lon":14.25747},{"name":"Louny","country":"CZ","lat":50.35699,"lon":13.79667},{"name":"Lovosice","country":"CZ","lat":50.51504,"lon":14.05103},{"name":"Lubenec","country":"CZ","lat":50.13207,"lon":13.31319},{"name":"Luby","country":"CZ","lat":50.25248,"lon":12.40595},{"name":"Lučany nad Nisou","country":"CZ","lat":50.74136,"lon":15.22046},{"name":"Lučina","country":"CZ","lat":49.72082,"lon":18.44776},{"name":"Ludgeřovice","country":"CZ","lat":49.89042,"lon":18.24008},{"name":"Luhačovice","country":"CZ","lat":49.09982,"lon":17.75747},{"name":"Luka nad Jihlavou","country":"CZ","lat":49.37403,"lon":15.70194},{"name":"Lukavec","country":"CZ","lat":49.56541,"lon":14.99041},{"name":"Lukavice","country":"CZ","lat":50.06029,"lon":16.48207},{"name":"Lukov","country":"CZ","lat":49.29027,"lon":17.72959},{"name":"Luštěnice","country":"CZ","lat":50.32296,"lon":14.93667},{"name":"Lutín","country":"CZ","lat":49.55845,"lon":17.13572},{"name":"Luže","country":"CZ","lat":49.89341,"lon":16.0285},{"name":"Lužec nad Vltavou","country":"CZ","lat":50.32138,"lon":14.40022},{"name":"Lužice","country":"CZ","lat":48.84098,"lon":17.07104},{"name":"Lužná","country":"CZ","lat":50.12377,"lon":13.77004},{"name":"Lysá nad Labem","country":"CZ","lat":50.20143,"lon":14.83281},{"name":"Lysice","country":"CZ","lat":49.4516,"lon":16.53716},{"name":"Machov","country":"CZ","lat":50.49927,"lon":16.2769},{"name":"Majetín","country":"CZ","lat":49.49808,"lon":17.33314},{"name":"Malá Skála","country":"CZ","lat":50.64631,"lon":15.19543},{"name":"Malá Strana","country":"CZ","lat":50.08774,"lon":14.40449},{"name":"Malé Svatoňovice","country":"CZ","lat":50.53395,"lon":16.04978},{"name":"Malonty","country":"CZ","lat":48.68611,"lon":14.57678},{"name":"Malšice","country":"CZ","lat":49.36391,"lon":14.57868},{"name":"Manětín","country":"CZ","lat":49.99177,"lon":13.23319},{"name":"Mariánské Lázně","country":"CZ","lat":49.96459,"lon":12.70118},{"name":"Markvartovice","country":"CZ","lat":49.90595,"lon":18.23602},{"name":"Měcholupy","country":"CZ","lat":50.26666,"lon":13.53737},{"name":"Měčín","country":"CZ","lat":49.48009,"lon":13.40289},{"name":"Meclov","country":"CZ","lat":49.50556,"lon":12.88082},{"name":"Medlov","country":"CZ","lat":49.78754,"lon":17.06261},{"name":"Mělník","country":"CZ","lat":50.3505,"lon":14.47411},{"name":"Měnín","country":"CZ","lat":49.0824,"lon":16.69424},{"name":"Měřín","country":"CZ","lat":49.39321,"lon":15.88381},{"name":"Merklín","country":"CZ","lat":50.32808,"lon":12.8635},{"name":"Merklín","country":"CZ","lat":49.56043,"lon":13.1979},{"name":"Měšice","country":"CZ","lat":50.19799,"lon":14.51992},{"name":"Městec Králové","country":"CZ","lat":50.20718,"lon":15.29758},{"name":"Městečko Trnávka","country":"CZ","lat":49.70926,"lon":16.72744},{"name":"Město Albrechtice","country":"CZ","lat":50.16294,"lon":17.57481},{"name":"Město Libavá","country":"CZ","lat":49.72162,"lon":17.52013},{"name":"Město Touškov","country":"CZ","lat":49.77587,"lon":13.25108},{"name":"Metylovice","country":"CZ","lat":49.60666,"lon":18.33911},{"name":"Meziboři","country":"CZ","lat":50.62115,"lon":13.5987},{"name":"Meziměstí","country":"CZ","lat":50.62461,"lon":16.24207},{"name":"Mikulášovice","country":"CZ","lat":50.96507,"lon":14.36368},{"name":"Mikulčice","country":"CZ","lat":48.81643,"lon":17.05107},{"name":"Mikulov","country":"CZ","lat":48.80556,"lon":16.6378},{"name":"Mikulovice","country":"CZ","lat":50.29854,"lon":17.32155},{"name":"Milevsko","country":"CZ","lat":49.45089,"lon":14.36},{"name":"Milíkov","country":"CZ","lat":49.58565,"lon":18.71943},{"name":"Milín","country":"CZ","lat":49.63192,"lon":14.046},{"name":"Milotice","country":"CZ","lat":48.95528,"lon":17.14241},{"name":"Milovice","country":"CZ","lat":50.22596,"lon":14.88863},{"name":"Mimoň","country":"CZ","lat":50.65869,"lon":14.72474},{"name":"Miřetice","country":"CZ","lat":49.84126,"lon":15.88472},{"name":"Miroslav","country":"CZ","lat":48.94767,"lon":16.31252},{"name":"Mirošov","country":"CZ","lat":49.68782,"lon":13.65807},{"name":"Mirotice","country":"CZ","lat":49.42908,"lon":14.03697},{"name":"Mirovice","country":"CZ","lat":49.51555,"lon":14.03582},{"name":"Mistřice","country":"CZ","lat":49.08668,"lon":17.53597},{"name":"Mladá Boleslav","country":"CZ","lat":50.41135,"lon":14.90318},{"name":"Mladá Vožice","country":"CZ","lat":49.53313,"lon":14.80857},{"name":"Mladé Buky","country":"CZ","lat":50.60643,"lon":15.83348},{"name":"Mnichovice","country":"CZ","lat":49.93601,"lon":14.70907},{"name":"Mnichovo Hradiště","country":"CZ","lat":50.5272,"lon":14.97134},{"name":"Mníšek","country":"CZ","lat":50.83163,"lon":15.0563},{"name":"Mníšek pod Brdy","country":"CZ","lat":49.8665,"lon":14.26176},{"name":"Modřany","country":"CZ","lat":50.01116,"lon":14.4096},{"name":"Modřice","country":"CZ","lat":49.11928,"lon":16.60446},{"name":"Mohelnice","country":"CZ","lat":49.77698,"lon":16.91946},{"name":"Mohelno","country":"CZ","lat":49.11412,"lon":16.19022},{"name":"Mokrá Hora","country":"CZ","lat":49.26176,"lon":16.59107},{"name":"Mokré Lazce","country":"CZ","lat":49.90462,"lon":18.02954},{"name":"Moravany","country":"CZ","lat":50.00095,"lon":15.94071},{"name":"Moravany","country":"CZ","lat":49.1478,"lon":16.58026},{"name":"Moravičany","country":"CZ","lat":49.75694,"lon":16.96042},{"name":"Morávka","country":"CZ","lat":49.59607,"lon":18.52471},{"name":"Moravská Nová Ves","country":"CZ","lat":48.80304,"lon":17.01371},{"name":"Moravská Třebová","country":"CZ","lat":49.75793,"lon":16.66426},{"name":"Moravské Budějovice","country":"CZ","lat":49.05209,"lon":15.80864},{"name":"Moravský Beroun","country":"CZ","lat":49.79374,"lon":17.44212},{"name":"Moravský Krumlov","country":"CZ","lat":49.04893,"lon":16.31169},{"name":"Moravský Písek","country":"CZ","lat":48.99016,"lon":17.33269},{"name":"Moravský Žižkov","country":"CZ","lat":48.83285,"lon":16.9314},{"name":"Mořkov","country":"CZ","lat":49.53684,"lon":18.05968},{"name":"Most","country":"CZ","lat":50.50301,"lon":13.63617},{"name":"Mostek","country":"CZ","lat":50.48623,"lon":15.69622},{"name":"Mostkovice","country":"CZ","lat":49.47215,"lon":17.05212},{"name":"Mosty u Jablunkova","country":"CZ","lat":49.52737,"lon":18.75417},{"name":"Moutnice","country":"CZ","lat":49.04924,"lon":16.73741},{"name":"Mrákov","country":"CZ","lat":49.40314,"lon":12.9512},{"name":"Mšeno","country":"CZ","lat":50.43809,"lon":14.6325},{"name":"Mukařov","country":"CZ","lat":49.99115,"lon":14.74155},{"name":"Mutěnice","country":"CZ","lat":48.90413,"lon":17.02917},{"name":"Mýto","country":"CZ","lat":49.78904,"lon":13.73461},{"name":"Načeradec","country":"CZ","lat":49.61018,"lon":14.90633},{"name":"Náchod","country":"CZ","lat":50.4167,"lon":16.16289},{"name":"Náklo","country":"CZ","lat":49.65462,"lon":17.12969},{"name":"Náměšť na Hané","country":"CZ","lat":49.60213,"lon":17.06539},{"name":"Náměšť nad Oslavou","country":"CZ","lat":49.20726,"lon":16.15849},{"name":"Napajedla","country":"CZ","lat":49.17156,"lon":17.51194},{"name":"Nasavrky","country":"CZ","lat":49.8445,"lon":15.80461},{"name":"Návsí u Jablunkova","country":"CZ","lat":49.5872,"lon":18.75907},{"name":"Nechanice","country":"CZ","lat":50.23737,"lon":15.63276},{"name":"Nedakonice","country":"CZ","lat":49.03159,"lon":17.38141},{"name":"Nedašov","country":"CZ","lat":49.10778,"lon":18.07036},{"name":"Nedvědice","country":"CZ","lat":49.45702,"lon":16.33406},{"name":"Nehvizdy","country":"CZ","lat":50.13056,"lon":14.72993},{"name":"Nejdek","country":"CZ","lat":50.32242,"lon":12.72936},{"name":"Nelahozeves","country":"CZ","lat":50.26148,"lon":14.29881},{"name":"Nemanice","country":"CZ","lat":49.43655,"lon":12.72053},{"name":"Němčice nad Hanou","country":"CZ","lat":49.34181,"lon":17.20596},{"name":"Nepomuk","country":"CZ","lat":49.48616,"lon":13.58225},{"name":"Neratovice","country":"CZ","lat":50.25926,"lon":14.51759},{"name":"Nesovice","country":"CZ","lat":49.15111,"lon":17.08095},{"name":"Netolice","country":"CZ","lat":49.0493,"lon":14.197},{"name":"Netvořice","country":"CZ","lat":49.81569,"lon":14.51827},{"name":"Neveklov","country":"CZ","lat":49.75373,"lon":14.53291},{"name":"Nezamyslice","country":"CZ","lat":49.32543,"lon":17.17326},{"name":"Nezvěstice","country":"CZ","lat":49.64043,"lon":13.51962},{"name":"Nivnice","country":"CZ","lat":48.97465,"lon":17.64757},{"name":"Nižbor","country":"CZ","lat":49.99995,"lon":14.00237},{"name":"Nosislav","country":"CZ","lat":49.0138,"lon":16.65431},{"name":"Nová Bystřice","country":"CZ","lat":49.01926,"lon":15.10316},{"name":"Nová Cerekev","country":"CZ","lat":49.41723,"lon":15.11675},{"name":"Nová Paka","country":"CZ","lat":50.49449,"lon":15.51503},{"name":"Nová Role","country":"CZ","lat":50.27092,"lon":12.78422},{"name":"Nová Včelnice","country":"CZ","lat":49.23935,"lon":15.0726},{"name":"Nové Hrady","country":"CZ","lat":48.78963,"lon":14.77839},{"name":"Nové Město","country":"CZ","lat":50.07829,"lon":14.42089},{"name":"Nové Město na Moravě","country":"CZ","lat":49.56144,"lon":16.07418},{"name":"Nové Město nad Metují","country":"CZ","lat":50.34456,"lon":16.15147},{"name":"Nové Město pod Smrkem","country":"CZ","lat":50.92491,"lon":15.22943},{"name":"Nové Sedlo","country":"CZ","lat":50.20647,"lon":12.738},{"name":"Nové Strašecí","country":"CZ","lat":50.15272,"lon":13.90043},{"name":"Nové Syrovice","country":"CZ","lat":49.01763,"lon":15.77345},{"name":"Nové Veselí","country":"CZ","lat":49.51976,"lon":15.90853},{"name":"Novosedlice","country":"CZ","lat":50.65633,"lon":13.82304},{"name":"Novosedly","country":"CZ","lat":48.83704,"lon":16.49273},{"name":"Nový Bor","country":"CZ","lat":50.75761,"lon":14.55555},{"name":"Nový Bydžov","country":"CZ","lat":50.2415,"lon":15.49082},{"name":"Nový Hrozenkov","country":"CZ","lat":49.33697,"lon":18.19793},{"name":"Nový Jičín","country":"CZ","lat":49.59438,"lon":18.01028},{"name":"Nový Knín","country":"CZ","lat":49.788,"lon":14.29355},{"name":"Nový Malín","country":"CZ","lat":49.94262,"lon":17.03191},{"name":"Nýdek","country":"CZ","lat":49.65609,"lon":18.75687},{"name":"Nymburk","country":"CZ","lat":50.18605,"lon":15.04167},{"name":"Nýřany","country":"CZ","lat":49.71145,"lon":13.21185},{"name":"Nýrsko","country":"CZ","lat":49.29387,"lon":13.14353},{"name":"Obecnice","country":"CZ","lat":49.71615,"lon":13.94731},{"name":"Obrnice","country":"CZ","lat":50.50498,"lon":13.6954},{"name":"Odolena Voda","country":"CZ","lat":50.23341,"lon":14.41078},{"name":"Odry","country":"CZ","lat":49.66255,"lon":17.83084},{"name":"Ohrazenice","country":"CZ","lat":50.59765,"lon":15.12596},{"name":"Okříšky","country":"CZ","lat":49.24539,"lon":15.76959},{"name":"Okrouhlice","country":"CZ","lat":49.62991,"lon":15.49083},{"name":"Olbramovice","country":"CZ","lat":48.9848,"lon":16.40239},{"name":"Oldřišov","country":"CZ","lat":49.9913,"lon":17.96074},{"name":"Olešnice","country":"CZ","lat":49.55755,"lon":16.42169},{"name":"Olomouc","country":"CZ","lat":49.59552,"lon":17.25175},{"name":"Oloví","country":"CZ","lat":50.25113,"lon":12.55877},{"name":"Olšany","country":"CZ","lat":49.96509,"lon":16.85894},{"name":"Ondřejov","country":"CZ","lat":49.90461,"lon":14.7842},{"name":"Opařany","country":"CZ","lat":49.39678,"lon":14.48137},{"name":"Opatov","country":"CZ","lat":49.825,"lon":16.50458},{"name":"Opatovice nad Labem","country":"CZ","lat":50.14541,"lon":15.79045},{"name":"Opava","country":"CZ","lat":49.93866,"lon":17.90257},{"name":"Opočno","country":"CZ","lat":50.26742,"lon":16.1148},{"name":"Ořechov","country":"CZ","lat":49.11118,"lon":16.52329},{"name":"Orlová","country":"CZ","lat":49.84527,"lon":18.43011},{"name":"Osečná","country":"CZ","lat":50.69489,"lon":14.92138},{"name":"Osek","country":"CZ","lat":50.62115,"lon":13.69274},{"name":"Osek","country":"CZ","lat":49.77594,"lon":13.5906},{"name":"Osek nad Bečvou","country":"CZ","lat":49.51121,"lon":17.52829},{"name":"Osík","country":"CZ","lat":49.84355,"lon":16.28467},{"name":"Oskava","country":"CZ","lat":49.89523,"lon":17.13214},{"name":"Oslavany","country":"CZ","lat":49.12335,"lon":16.33653},{"name":"Osoblaha","country":"CZ","lat":50.27517,"lon":17.71523},{"name":"Ostopovice","country":"CZ","lat":49.161,"lon":16.54548},{"name":"Ostrava","country":"CZ","lat":49.83465,"lon":18.28204},{"name":"Ostravice","country":"CZ","lat":49.5351,"lon":18.39164},{"name":"Ostroměř","country":"CZ","lat":50.37246,"lon":15.54949},{"name":"Ostrov","country":"CZ","lat":50.30592,"lon":12.93907},{"name":"Ostrov u Macochy","country":"CZ","lat":49.38236,"lon":16.76268},{"name":"Ostrožská Lhota","country":"CZ","lat":48.97559,"lon":17.46751},{"name":"Ostrožská Nová Ves","country":"CZ","lat":49.00434,"lon":17.43632},{"name":"Otaslavice","country":"CZ","lat":49.38833,"lon":17.07108},{"name":"Otice","country":"CZ","lat":49.91684,"lon":17.86982},{"name":"Otnice","country":"CZ","lat":49.08642,"lon":16.81443},{"name":"Otrokovice","country":"CZ","lat":49.20934,"lon":17.53944},{"name":"Pacov","country":"CZ","lat":49.47076,"lon":15.00168},{"name":"Palkovice","country":"CZ","lat":49.63467,"lon":18.31508},{"name":"Pardubice","country":"CZ","lat":50.04075,"lon":15.77659},{"name":"Paseka","country":"CZ","lat":49.79644,"lon":17.22276},{"name":"Paskov","country":"CZ","lat":49.73179,"lon":18.29037},{"name":"Pavlíkov","country":"CZ","lat":50.05599,"lon":13.73636},{"name":"Pchery","country":"CZ","lat":50.19378,"lon":14.11782},{"name":"Pecka","country":"CZ","lat":50.48034,"lon":15.60822},{"name":"Pečky","country":"CZ","lat":50.09043,"lon":15.03017},{"name":"Pelhřimov","country":"CZ","lat":49.43134,"lon":15.22336},{"name":"Pěnčín","country":"CZ","lat":50.68769,"lon":15.23593},{"name":"Perštejn","country":"CZ","lat":50.38166,"lon":13.1102},{"name":"Peruc","country":"CZ","lat":50.3425,"lon":13.95986},{"name":"Petrov","country":"CZ","lat":48.88196,"lon":17.2781},{"name":"Petrovice","country":"CZ","lat":49.55426,"lon":14.33737},{"name":"Petrovice u Karviné","country":"CZ","lat":49.89587,"lon":18.54779},{"name":"Petřvald","country":"CZ","lat":49.831,"lon":18.3894},{"name":"Petřvald","country":"CZ","lat":49.70872,"lon":18.15719},{"name":"Pilníkov","country":"CZ","lat":50.53247,"lon":15.8202},{"name":"Pilsen","country":"CZ","lat":49.74747,"lon":13.37759},{"name":"Písečná","country":"CZ","lat":50.27303,"lon":17.25373},{"name":"Písek","country":"CZ","lat":49.55924,"lon":18.80231},{"name":"Písek","country":"CZ","lat":49.3088,"lon":14.1475},{"name":"Píšť","country":"CZ","lat":49.97857,"lon":18.19349},{"name":"Planá","country":"CZ","lat":49.86816,"lon":12.74378},{"name":"Planá nad Lužnicí","country":"CZ","lat":49.35444,"lon":14.70147},{"name":"Plaňany","country":"CZ","lat":50.0501,"lon":15.02944},{"name":"Plánice","country":"CZ","lat":49.38993,"lon":13.47106},{"name":"Plasy","country":"CZ","lat":49.93449,"lon":13.39035},{"name":"Plavy","country":"CZ","lat":50.70324,"lon":15.31736},{"name":"Plesná","country":"CZ","lat":50.2207,"lon":12.34669},{"name":"Plumlov","country":"CZ","lat":49.46614,"lon":17.01502},{"name":"Poběžovice","country":"CZ","lat":49.51029,"lon":12.80261},{"name":"Počátky","country":"CZ","lat":49.2602,"lon":15.24022},{"name":"Podbořany","country":"CZ","lat":50.22937,"lon":13.41192},{"name":"Poděbrady","country":"CZ","lat":50.14242,"lon":15.11881},{"name":"Podivín","country":"CZ","lat":48.82554,"lon":16.84822},{"name":"Podolí","country":"CZ","lat":49.19042,"lon":16.72084},{"name":"Pohořelice","country":"CZ","lat":48.98119,"lon":16.52445},{"name":"Polepy","country":"CZ","lat":50.50563,"lon":14.26447},{"name":"Polešovice","country":"CZ","lat":49.0339,"lon":17.34064},{"name":"Police nad Metují","country":"CZ","lat":50.53687,"lon":16.2335},{"name":"Polička","country":"CZ","lat":49.71465,"lon":16.26543},{"name":"Polná","country":"CZ","lat":49.487,"lon":15.71881},{"name":"Pomezí","country":"CZ","lat":49.71026,"lon":16.31729},{"name":"Poniklá","country":"CZ","lat":50.66152,"lon":15.46329},{"name":"Popovice","country":"CZ","lat":49.05255,"lon":17.52712},{"name":"Poříčany","country":"CZ","lat":50.10806,"lon":14.91818},{"name":"Poříčí nad Sázavou","country":"CZ","lat":49.83895,"lon":14.67446},{"name":"Postoloprty","country":"CZ","lat":50.35979,"lon":13.70291},{"name":"Postřekov","country":"CZ","lat":49.45827,"lon":12.80678},{"name":"Postřelmov","country":"CZ","lat":49.90756,"lon":16.91226},{"name":"Postupice","country":"CZ","lat":49.72798,"lon":14.77722},{"name":"Potštát","country":"CZ","lat":49.63693,"lon":17.65174},{"name":"Povrly","country":"CZ","lat":50.67276,"lon":14.16033},{"name":"Pozlovice","country":"CZ","lat":49.12921,"lon":17.76925},{"name":"Pozořice","country":"CZ","lat":49.20976,"lon":16.79074},{"name":"Prachatice","country":"CZ","lat":49.01292,"lon":13.99752},{"name":"Prachovice","country":"CZ","lat":49.89379,"lon":15.62872},{"name":"Prague","country":"CZ","lat":50.08804,"lon":14.42076},{"name":"Přáslavice","country":"CZ","lat":49.58568,"lon":17.38209},{"name":"Pražmo","country":"CZ","lat":49.60876,"lon":18.48617},{"name":"Předklášteří","country":"CZ","lat":49.35253,"lon":16.40241},{"name":"Předměřice nad Labem","country":"CZ","lat":50.25633,"lon":15.81556},{"name":"Přelouč","country":"CZ","lat":50.03985,"lon":15.56031},{"name":"Přemyslovice","country":"CZ","lat":49.55637,"lon":16.95581},{"name":"Přerov","country":"CZ","lat":49.45511,"lon":17.4509},{"name":"Přerov nad Labem","country":"CZ","lat":50.16027,"lon":14.82502},{"name":"Přeštice","country":"CZ","lat":49.57298,"lon":13.3335},{"name":"Příbor","country":"CZ","lat":49.64094,"lon":18.14499},{"name":"Příbram","country":"CZ","lat":49.68988,"lon":14.01043},{"name":"Přibyslav","country":"CZ","lat":49.57684,"lon":15.73855},{"name":"Příkazy","country":"CZ","lat":49.6436,"lon":17.14337},{"name":"Přimda","country":"CZ","lat":49.67488,"lon":12.67366},{"name":"Příšovice","country":"CZ","lat":50.57813,"lon":15.0839},{"name":"Proboštov","country":"CZ","lat":50.66773,"lon":13.83601},{"name":"Proseč","country":"CZ","lat":49.8059,"lon":16.11621},{"name":"Prosek","country":"CZ","lat":50.11525,"lon":14.50685},{"name":"Prostějov","country":"CZ","lat":49.47188,"lon":17.11184},{"name":"Prostřední Bečva","country":"CZ","lat":49.43609,"lon":18.252},{"name":"Protivanov","country":"CZ","lat":49.48351,"lon":16.83594},{"name":"Protivín","country":"CZ","lat":49.19949,"lon":14.21717},{"name":"Provodov-Šonov","country":"CZ","lat":50.38711,"lon":16.10797},{"name":"Průhonice","country":"CZ","lat":49.99962,"lon":14.55017},{"name":"Prušánky","country":"CZ","lat":48.8284,"lon":16.98068},{"name":"Prusinovice","country":"CZ","lat":49.37898,"lon":17.5871},{"name":"Psáry","country":"CZ","lat":49.93622,"lon":14.51276},{"name":"Ptení","country":"CZ","lat":49.51163,"lon":16.9611},{"name":"Pustá Polom","country":"CZ","lat":49.84917,"lon":17.9979},{"name":"Pustiměř","country":"CZ","lat":49.32251,"lon":17.02792},{"name":"Pyšely","country":"CZ","lat":49.87678,"lon":14.67713},{"name":"Radiměř","country":"CZ","lat":49.6985,"lon":16.4407},{"name":"Radnice","country":"CZ","lat":49.85677,"lon":13.6057},{"name":"Radomyšl","country":"CZ","lat":49.31634,"lon":13.93024},{"name":"Radonice","country":"CZ","lat":50.29803,"lon":13.28464},{"name":"Radslavice","country":"CZ","lat":49.47817,"lon":17.51656},{"name":"Radvanice","country":"CZ","lat":50.56745,"lon":16.06172},{"name":"Rájec-Jestřebí","country":"CZ","lat":49.41094,"lon":16.63902},{"name":"Ráječko","country":"CZ","lat":49.39393,"lon":16.64497},{"name":"Rajhrad","country":"CZ","lat":49.09021,"lon":16.60388},{"name":"Rajhradice","country":"CZ","lat":49.09203,"lon":16.62933},{"name":"Rakovník","country":"CZ","lat":50.1037,"lon":13.7334},{"name":"Rakvice","country":"CZ","lat":48.85811,"lon":16.8133},{"name":"Rapotín","country":"CZ","lat":50.01094,"lon":17.03121},{"name":"Raškovice","country":"CZ","lat":49.61975,"lon":18.47286},{"name":"Raspenava","country":"CZ","lat":50.90415,"lon":15.11465},{"name":"Rataje","country":"CZ","lat":49.2713,"lon":17.33555},{"name":"Ratiboř","country":"CZ","lat":49.36769,"lon":17.91499},{"name":"Ratíškovice","country":"CZ","lat":48.92002,"lon":17.16561},{"name":"Řečany nad Labem","country":"CZ","lat":50.03589,"lon":15.47735},{"name":"Řehlovice","country":"CZ","lat":50.60712,"lon":13.95412},{"name":"Řepiště","country":"CZ","lat":49.73338,"lon":18.31707},{"name":"Řevnice","country":"CZ","lat":49.91395,"lon":14.23589},{"name":"Řevničov","country":"CZ","lat":50.18489,"lon":13.80823},{"name":"Řež","country":"CZ","lat":50.17734,"lon":14.35733},{"name":"Říčany","country":"CZ","lat":49.99168,"lon":14.65427},{"name":"Říčany","country":"CZ","lat":49.21497,"lon":16.39362},{"name":"Řitka","country":"CZ","lat":49.89451,"lon":14.29923},{"name":"Rohatec","country":"CZ","lat":48.8804,"lon":17.1833},{"name":"Rokycany","country":"CZ","lat":49.7427,"lon":13.59459},{"name":"Rokytnice","country":"CZ","lat":49.46592,"lon":17.3912},{"name":"Rokytnice nad Jizerou","country":"CZ","lat":50.72561,"lon":15.43357},{"name":"Rokytnice v Orlických Horách","country":"CZ","lat":50.16473,"lon":16.46567},{"name":"Ronov nad Doubravou","country":"CZ","lat":49.88825,"lon":15.53144},{"name":"Ropice","country":"CZ","lat":49.70536,"lon":18.61345},{"name":"Rosice","country":"CZ","lat":49.92226,"lon":15.95127},{"name":"Rosice","country":"CZ","lat":49.18232,"lon":16.38787},{"name":"Rotava","country":"CZ","lat":50.29627,"lon":12.57341},{"name":"Rouchovany","country":"CZ","lat":49.07036,"lon":16.1076},{"name":"Roudnice nad Labem","country":"CZ","lat":50.42528,"lon":14.26175},{"name":"Rousínov","country":"CZ","lat":49.20128,"lon":16.88215},{"name":"Rovensko pod Troskami","country":"CZ","lat":50.53532,"lon":15.25941},{"name":"Rožďalovice","country":"CZ","lat":50.30476,"lon":15.16962},{"name":"Rožmitál pod Třemšínem","country":"CZ","lat":49.60196,"lon":13.8643},{"name":"Rožnov pod Radhoštěm","country":"CZ","lat":49.45853,"lon":18.14302},{"name":"Roztoky","country":"CZ","lat":50.15841,"lon":14.3976},{"name":"Roztoky","country":"CZ","lat":50.02671,"lon":13.86787},{"name":"Rtyně v Podkrkonoší","country":"CZ","lat":50.50523,"lon":16.07187},{"name":"Ruda nad Moravou","country":"CZ","lat":49.981,"lon":16.87782},{"name":"Rudná","country":"CZ","lat":50.03502,"lon":14.23435},{"name":"Rudník","country":"CZ","lat":50.59517,"lon":15.73362},{"name":"Rudolfov","country":"CZ","lat":48.99339,"lon":14.54179},{"name":"Rumburk","country":"CZ","lat":50.95151,"lon":14.55699},{"name":"Rybí","country":"CZ","lat":49.60073,"lon":18.07592},{"name":"Rybitví","country":"CZ","lat":50.06015,"lon":15.70472},{"name":"Rychnov","country":"CZ","lat":50.68263,"lon":15.15124},{"name":"Rychnov nad Kněžnou","country":"CZ","lat":50.16284,"lon":16.27488},{"name":"Rychvald","country":"CZ","lat":49.86625,"lon":18.37626},{"name":"Rýmařov","country":"CZ","lat":49.93183,"lon":17.27177},{"name":"Sadov","country":"CZ","lat":50.26711,"lon":12.89708},{"name":"Sadská","country":"CZ","lat":50.13596,"lon":14.98633},{"name":"Šakvice","country":"CZ","lat":48.89746,"lon":16.71424},{"name":"Samotíšky","country":"CZ","lat":49.63042,"lon":17.32807},{"name":"Šanov","country":"CZ","lat":48.80089,"lon":16.37858},{"name":"Šardice","country":"CZ","lat":48.96403,"lon":17.02812},{"name":"Satalice","country":"CZ","lat":50.12484,"lon":14.57191},{"name":"Šatov","country":"CZ","lat":48.79317,"lon":16.00992},{"name":"Sázava","country":"CZ","lat":49.87164,"lon":14.89674},{"name":"Seč","country":"CZ","lat":49.84694,"lon":15.65643},{"name":"Sedlčany","country":"CZ","lat":49.66057,"lon":14.42664},{"name":"Sedlec","country":"CZ","lat":49.96391,"lon":15.28846},{"name":"Sedlice","country":"CZ","lat":49.37715,"lon":13.93895},{"name":"Sedlice","country":"CZ","lat":48.77401,"lon":14.39115},{"name":"Sedliště","country":"CZ","lat":49.71836,"lon":18.36869},{"name":"Sedlnice","country":"CZ","lat":49.6577,"lon":18.0869},{"name":"Semily","country":"CZ","lat":50.60191,"lon":15.33552},{"name":"Senice na Hané","country":"CZ","lat":49.62401,"lon":17.08578},{"name":"Šenov","country":"CZ","lat":49.79315,"lon":18.37607},{"name":"Sepekov","country":"CZ","lat":49.42865,"lon":14.41815},{"name":"Šestajovice","country":"CZ","lat":50.10845,"lon":14.68013},{"name":"Ševětín","country":"CZ","lat":49.10005,"lon":14.5722},{"name":"Sezemice","country":"CZ","lat":50.06651,"lon":15.8527},{"name":"Sezimovo Ústí","country":"CZ","lat":49.38519,"lon":14.6848},{"name":"Šilheřovice","country":"CZ","lat":49.92602,"lon":18.27017},{"name":"Šitbořice","country":"CZ","lat":49.01433,"lon":16.77975},{"name":"Skalná","country":"CZ","lat":50.1703,"lon":12.36144},{"name":"Skrbeň","country":"CZ","lat":49.64115,"lon":17.1765},{"name":"Skuhrov nad Bělou","country":"CZ","lat":50.22946,"lon":16.2923},{"name":"Skuteč","country":"CZ","lat":49.84347,"lon":15.99655},{"name":"Slaný","country":"CZ","lat":50.23046,"lon":14.08693},{"name":"Šlapanice","country":"CZ","lat":49.16863,"lon":16.72731},{"name":"Slatiňany","country":"CZ","lat":49.9211,"lon":15.81377},{"name":"Slatinice","country":"CZ","lat":49.56155,"lon":17.09992},{"name":"Slavičín","country":"CZ","lat":49.08799,"lon":17.87349},{"name":"Slavkov","country":"CZ","lat":49.9218,"lon":17.83641},{"name":"Slavkov u Brna","country":"CZ","lat":49.15325,"lon":16.87649},{"name":"Slavonice","country":"CZ","lat":48.99753,"lon":15.35154},{"name":"Šluknov","country":"CZ","lat":51.00369,"lon":14.45258},{"name":"Slušovice","country":"CZ","lat":49.24782,"lon":17.8015},{"name":"Smečno","country":"CZ","lat":50.18844,"lon":14.04037},{"name":"Smidary","country":"CZ","lat":50.29146,"lon":15.47725},{"name":"Smiřice","country":"CZ","lat":50.29978,"lon":15.86508},{"name":"Smržice","country":"CZ","lat":49.50569,"lon":17.10698},{"name":"Smržovka","country":"CZ","lat":50.7382,"lon":15.24639},{"name":"Soběslav","country":"CZ","lat":49.25993,"lon":14.71861},{"name":"Sobotín","country":"CZ","lat":50.01039,"lon":17.09129},{"name":"Sobotka","country":"CZ","lat":50.46741,"lon":15.17619},{"name":"Sokolnice","country":"CZ","lat":49.11392,"lon":16.72156},{"name":"Sokolov","country":"CZ","lat":50.1813,"lon":12.6401},{"name":"Solnice","country":"CZ","lat":50.20366,"lon":16.23762},{"name":"Spálené Poříčí","country":"CZ","lat":49.61371,"lon":13.60556},{"name":"Špindlerův Mlýn","country":"CZ","lat":50.72615,"lon":15.60944},{"name":"Spytihněv","country":"CZ","lat":49.14115,"lon":17.49808},{"name":"Srubec","country":"CZ","lat":48.94806,"lon":14.54131},{"name":"Stachy","country":"CZ","lat":49.10179,"lon":13.66659},{"name":"Šťáhlavy","country":"CZ","lat":49.67555,"lon":13.50394},{"name":"Staňkov","country":"CZ","lat":49.55348,"lon":13.06976},{"name":"Stará Huť","country":"CZ","lat":49.78225,"lon":14.19735},{"name":"Stará Paka","country":"CZ","lat":50.51032,"lon":15.49444},{"name":"Stará Ves nad Ondřejnicí","country":"CZ","lat":49.72775,"lon":18.1885},{"name":"Staré Hradiště","country":"CZ","lat":50.0654,"lon":15.77885},{"name":"Staré Křečany","country":"CZ","lat":50.95044,"lon":14.49617},{"name":"Staré Město","country":"CZ","lat":50.087,"lon":14.42024},{"name":"Staré Město","country":"CZ","lat":50.16174,"lon":16.94734},{"name":"Staré Město","country":"CZ","lat":49.66992,"lon":18.36349},{"name":"Staré Město","country":"CZ","lat":49.07515,"lon":17.43338},{"name":"Staré Nechanice","country":"CZ","lat":50.24298,"lon":15.61787},{"name":"Stařeč","country":"CZ","lat":49.19783,"lon":15.82791},{"name":"Staříč","country":"CZ","lat":49.68594,"lon":18.27281},{"name":"Starý Bohumín","country":"CZ","lat":49.9169,"lon":18.33619},{"name":"Starý Jičín","country":"CZ","lat":49.57686,"lon":17.96169},{"name":"Starý Kolín","country":"CZ","lat":50.00977,"lon":15.29388},{"name":"Starý Plzenec","country":"CZ","lat":49.69768,"lon":13.4735},{"name":"Stěbořice","country":"CZ","lat":49.93708,"lon":17.80547},{"name":"Štěchovice","country":"CZ","lat":49.85109,"lon":14.40543},{"name":"Štěnovice","country":"CZ","lat":49.67051,"lon":13.39963},{"name":"Štěpánkovice","country":"CZ","lat":49.95738,"lon":18.03741},{"name":"Štěpánov","country":"CZ","lat":50.16238,"lon":16.91702},{"name":"Štěpánov","country":"CZ","lat":49.68404,"lon":17.22041},{"name":"Šternberk","country":"CZ","lat":49.73044,"lon":17.29889},{"name":"Štětí","country":"CZ","lat":50.45298,"lon":14.37421},{"name":"Stěžery","country":"CZ","lat":50.21572,"lon":15.74831},{"name":"Štítina","country":"CZ","lat":49.91487,"lon":18.01245},{"name":"Štítná nad Vláří","country":"CZ","lat":49.06881,"lon":17.98274},{"name":"Štíty","country":"CZ","lat":49.96122,"lon":16.76576},{"name":"Stochov","country":"CZ","lat":50.14631,"lon":13.96345},{"name":"Stod","country":"CZ","lat":49.63909,"lon":13.16474},{"name":"Štoky","country":"CZ","lat":49.50249,"lon":15.58863},{"name":"Stonava","country":"CZ","lat":49.81691,"lon":18.52518},{"name":"Strakonice","country":"CZ","lat":49.26141,"lon":13.90237},{"name":"Štramberk","country":"CZ","lat":49.59181,"lon":18.11741},{"name":"Strančice","country":"CZ","lat":49.94811,"lon":14.67745},{"name":"Strání","country":"CZ","lat":48.90216,"lon":17.70671},{"name":"Strašice","country":"CZ","lat":49.73552,"lon":13.75755},{"name":"Stráž","country":"CZ","lat":49.66878,"lon":12.77546},{"name":"Stráž nad Nisou","country":"CZ","lat":50.79099,"lon":15.02683},{"name":"Stráž pod Ralskem","country":"CZ","lat":50.7028,"lon":14.80102},{"name":"Strážná","country":"CZ","lat":49.83104,"lon":17.13275},{"name":"Strážnice","country":"CZ","lat":48.90102,"lon":17.3168},{"name":"Strážov","country":"CZ","lat":49.30326,"lon":13.24623},{"name":"Střelice","country":"CZ","lat":49.15221,"lon":16.50399},{"name":"Stříbro","country":"CZ","lat":49.75565,"lon":12.997},{"name":"Střížkov","country":"CZ","lat":50.12674,"lon":14.49363},{"name":"Strmilov","country":"CZ","lat":49.15846,"lon":15.19934},{"name":"Strunkovice nad Blanicí","country":"CZ","lat":49.08402,"lon":14.05522},{"name":"Studená","country":"CZ","lat":49.18516,"lon":15.28688},{"name":"Studenec","country":"CZ","lat":50.55344,"lon":15.54936},{"name":"Studénka","country":"CZ","lat":49.72342,"lon":18.07853},{"name":"Suchá Loz","country":"CZ","lat":48.97001,"lon":17.71379},{"name":"Suchdol","country":"CZ","lat":49.95247,"lon":15.16651},{"name":"Suchdol nad Lužnicí","country":"CZ","lat":48.89,"lon":14.8772},{"name":"Suchohrdly","country":"CZ","lat":48.86822,"lon":16.09471},{"name":"Sudkov","country":"CZ","lat":49.91903,"lon":16.94516},{"name":"Sudoměřice","country":"CZ","lat":48.86723,"lon":17.25676},{"name":"Šumice","country":"CZ","lat":49.02858,"lon":17.72205},{"name":"Šumperk","country":"CZ","lat":49.96528,"lon":16.97061},{"name":"Sušice","country":"CZ","lat":49.23106,"lon":13.52018},{"name":"Svatava","country":"CZ","lat":50.19223,"lon":12.62524},{"name":"Světlá nad Sázavou","country":"CZ","lat":49.66801,"lon":15.40393},{"name":"Sviadnov","country":"CZ","lat":49.68926,"lon":18.32762},{"name":"Švihov","country":"CZ","lat":49.48136,"lon":13.28417},{"name":"Svitávka","country":"CZ","lat":49.50178,"lon":16.59793},{"name":"Svitavy","country":"CZ","lat":49.75594,"lon":16.46829},{"name":"Svoboda nad Úpou","country":"CZ","lat":50.62596,"lon":15.81648},{"name":"Svratka","country":"CZ","lat":49.71066,"lon":16.03214},{"name":"Tábor","country":"CZ","lat":49.41441,"lon":14.6578},{"name":"Tachov","country":"CZ","lat":49.79528,"lon":12.63365},{"name":"Tanvald","country":"CZ","lat":50.73735,"lon":15.30585},{"name":"Tasovice","country":"CZ","lat":48.8361,"lon":16.15558},{"name":"Tečovice","country":"CZ","lat":49.22107,"lon":17.58733},{"name":"Telč","country":"CZ","lat":49.18418,"lon":15.45275},{"name":"Telnice","country":"CZ","lat":49.10187,"lon":16.71774},{"name":"Teplá","country":"CZ","lat":49.97997,"lon":12.86432},{"name":"Teplice","country":"CZ","lat":50.6404,"lon":13.82451},{"name":"Teplice nad Metují","country":"CZ","lat":50.59332,"lon":16.17026},{"name":"Terezín","country":"CZ","lat":50.511,"lon":14.15055},{"name":"Těšany","country":"CZ","lat":49.03956,"lon":16.77003},{"name":"Těšetice","country":"CZ","lat":49.59317,"lon":17.12607},{"name":"Tichá","country":"CZ","lat":49.56999,"lon":18.22148},{"name":"Tišice","country":"CZ","lat":50.2698,"lon":14.55411},{"name":"Tišnov","country":"CZ","lat":49.34872,"lon":16.42438},{"name":"Tlučná","country":"CZ","lat":49.72425,"lon":13.23534},{"name":"Tlumačov","country":"CZ","lat":49.25351,"lon":17.49559},{"name":"Topolná","country":"CZ","lat":49.12187,"lon":17.54434},{"name":"Toužim","country":"CZ","lat":50.06049,"lon":12.98506},{"name":"Tovačov","country":"CZ","lat":49.43083,"lon":17.28795},{"name":"Traplice","country":"CZ","lat":49.13088,"lon":17.43622},{"name":"Třebechovice pod Orebem","country":"CZ","lat":50.20097,"lon":15.99223},{"name":"Třebenice","country":"CZ","lat":50.47632,"lon":13.99005},{"name":"Třebíč","country":"CZ","lat":49.21492,"lon":15.88166},{"name":"Třeboň","country":"CZ","lat":49.00364,"lon":14.77065},{"name":"Třebotov","country":"CZ","lat":49.97244,"lon":14.29127},{"name":"Třemošná","country":"CZ","lat":49.81584,"lon":13.39499},{"name":"Třemošnice","country":"CZ","lat":49.86912,"lon":15.58002},{"name":"Třešť","country":"CZ","lat":49.29092,"lon":15.48211},{"name":"Trhové Sviny","country":"CZ","lat":48.84231,"lon":14.63924},{"name":"Trhový Štěpánov","country":"CZ","lat":49.71147,"lon":15.01356},{"name":"Třinec","country":"CZ","lat":49.67763,"lon":18.67078},{"name":"Trmice","country":"CZ","lat":50.64286,"lon":13.99449},{"name":"Trnava","country":"CZ","lat":49.29603,"lon":17.84191},{"name":"Trojanovice","country":"CZ","lat":49.52039,"lon":18.238},{"name":"Troubelice","country":"CZ","lat":49.81731,"lon":17.081},{"name":"Troubky","country":"CZ","lat":49.43215,"lon":17.34914},{"name":"Troubsko","country":"CZ","lat":49.16951,"lon":16.51078},{"name":"Tršice","country":"CZ","lat":49.54237,"lon":17.42483},{"name":"Trutnov","country":"CZ","lat":50.56101,"lon":15.9127},{"name":"Tuchlovice","country":"CZ","lat":50.13803,"lon":13.99115},{"name":"Tuchoměřice","country":"CZ","lat":50.13543,"lon":14.28218},{"name":"Tupesy","country":"CZ","lat":49.08427,"lon":17.36983},{"name":"Turnov","country":"CZ","lat":50.58356,"lon":15.15186},{"name":"Tvarožná","country":"CZ","lat":49.19177,"lon":16.77146},{"name":"Tvrdonice","country":"CZ","lat":48.76048,"lon":16.99446},{"name":"Týn nad Vltavou","country":"CZ","lat":49.2234,"lon":14.42057},{"name":"Týnec","country":"CZ","lat":48.77943,"lon":17.01322},{"name":"Týnec nad Labem","country":"CZ","lat":50.04202,"lon":15.35836},{"name":"Týnec nad Sázavou","country":"CZ","lat":49.83348,"lon":14.58983},{"name":"Týniště nad Orlicí","country":"CZ","lat":50.15136,"lon":16.0777},{"name":"Údlice","country":"CZ","lat":50.4406,"lon":13.45738},{"name":"Uherské Hradiště","country":"CZ","lat":49.06975,"lon":17.45969},{"name":"Uherský Brod","country":"CZ","lat":49.02513,"lon":17.64715},{"name":"Uherský Ostroh","country":"CZ","lat":48.98556,"lon":17.38984},{"name":"Uhlířské Janovice","country":"CZ","lat":49.88019,"lon":15.06481},{"name":"Újezd","country":"CZ","lat":49.76397,"lon":17.1804},{"name":"Újezd","country":"CZ","lat":49.16809,"lon":17.9061},{"name":"Únanov","country":"CZ","lat":48.90082,"lon":16.06351},{"name":"Unhošť","country":"CZ","lat":50.08535,"lon":14.13007},{"name":"Uničov","country":"CZ","lat":49.77092,"lon":17.12144},{"name":"Úpice","country":"CZ","lat":50.51237,"lon":16.01607},{"name":"Určice","country":"CZ","lat":49.43045,"lon":17.07291},{"name":"Úsov","country":"CZ","lat":49.79831,"lon":17.01055},{"name":"Úštěk","country":"CZ","lat":50.58474,"lon":14.34332},{"name":"Ústí nad Labem","country":"CZ","lat":50.6607,"lon":14.03227},{"name":"Ústí nad Orlicí","country":"CZ","lat":49.97387,"lon":16.39361},{"name":"Úvaly","country":"CZ","lat":50.07394,"lon":14.7308},{"name":"Vacenovice","country":"CZ","lat":48.9451,"lon":17.17404},{"name":"Václavovice","country":"CZ","lat":49.75531,"lon":18.3722},{"name":"Vacov","country":"CZ","lat":49.13686,"lon":13.72911},{"name":"Valašská Bystřice","country":"CZ","lat":49.41507,"lon":18.10977},{"name":"Valašská Polanka","country":"CZ","lat":49.26215,"lon":17.99667},{"name":"Valašské Klobouky","country":"CZ","lat":49.14064,"lon":18.0076},{"name":"Valašské Meziříčí","country":"CZ","lat":49.47181,"lon":17.97113},{"name":"Valdice","country":"CZ","lat":50.5835,"lon":15.41248},{"name":"Valdice","country":"CZ","lat":50.45501,"lon":15.38488},{"name":"Valtice","country":"CZ","lat":48.74069,"lon":16.75499},{"name":"Vamberk","country":"CZ","lat":50.11756,"lon":16.29067},{"name":"Vápenná","country":"CZ","lat":50.28338,"lon":17.09762},{"name":"Varnsdorf","country":"CZ","lat":50.91154,"lon":14.61824},{"name":"Včelná","country":"CZ","lat":48.92373,"lon":14.45383},{"name":"Vejprnice","country":"CZ","lat":49.72988,"lon":13.27628},{"name":"Vejprty","country":"CZ","lat":50.49232,"lon":13.03212},{"name":"Velehrad","country":"CZ","lat":49.10543,"lon":17.39426},{"name":"Velemín","country":"CZ","lat":50.53898,"lon":13.97675},{"name":"Veleň","country":"CZ","lat":50.17321,"lon":14.55421},{"name":"Velešín","country":"CZ","lat":48.82949,"lon":14.46252},{"name":"Velim","country":"CZ","lat":50.05965,"lon":15.10711},{"name":"Velká Bíteš","country":"CZ","lat":49.28838,"lon":16.22742},{"name":"Velká Bystřice","country":"CZ","lat":49.5948,"lon":17.36544},{"name":"Velká Chuchle","country":"CZ","lat":50.01177,"lon":14.38703},{"name":"Velká Dobrá","country":"CZ","lat":50.10964,"lon":14.0698},{"name":"Velká Hleďsebe","country":"CZ","lat":49.96151,"lon":12.66763},{"name":"Velká nad Veličkou","country":"CZ","lat":48.88257,"lon":17.5206},{"name":"Velká Polom","country":"CZ","lat":49.86359,"lon":18.09331},{"name":"Velké Bílovice","country":"CZ","lat":48.84929,"lon":16.89227},{"name":"Velké Březno","country":"CZ","lat":50.6627,"lon":14.14174},{"name":"Velké Hamry","country":"CZ","lat":50.71373,"lon":15.31539},{"name":"Velké Heraltice","country":"CZ","lat":49.97493,"lon":17.72879},{"name":"Velké Hoštice","country":"CZ","lat":49.93609,"lon":17.9738},{"name":"Velké Karlovice","country":"CZ","lat":49.36064,"lon":18.28355},{"name":"Velké Losiny","country":"CZ","lat":50.03197,"lon":17.04058},{"name":"Velké Meziříčí","country":"CZ","lat":49.35522,"lon":16.01224},{"name":"Velké Němčice","country":"CZ","lat":48.99168,"lon":16.67208},{"name":"Velké Opatovice","country":"CZ","lat":49.61237,"lon":16.67947},{"name":"Velké Pavlovice","country":"CZ","lat":48.90469,"lon":16.81605},{"name":"Velké Popovice","country":"CZ","lat":49.92252,"lon":14.63934},{"name":"Velké Poříčí","country":"CZ","lat":50.46177,"lon":16.18931},{"name":"Velké Přílepy","country":"CZ","lat":50.1605,"lon":14.31447},{"name":"Velké Svatoňovice","country":"CZ","lat":50.53164,"lon":16.02853},{"name":"Velký Beranov","country":"CZ","lat":49.40504,"lon":15.667},{"name":"Velký Osek","country":"CZ","lat":50.09867,"lon":15.18629},{"name":"Velký Šenov","country":"CZ","lat":50.99078,"lon":14.37428},{"name":"Velký Týnec","country":"CZ","lat":49.54994,"lon":17.33359},{"name":"Velký Újezd","country":"CZ","lat":49.57858,"lon":17.48347},{"name":"Veltruby","country":"CZ","lat":50.07059,"lon":15.18454},{"name":"Veltrusy","country":"CZ","lat":50.27046,"lon":14.32857},{"name":"Velvary","country":"CZ","lat":50.28152,"lon":14.23616},{"name":"Vendryně","country":"CZ","lat":49.66662,"lon":18.71307},{"name":"Verneřice","country":"CZ","lat":50.66114,"lon":14.30114},{"name":"Věrovany","country":"CZ","lat":49.46109,"lon":17.28795},{"name":"Veřovice","country":"CZ","lat":49.53916,"lon":18.11425},{"name":"Veselí nad Lužnicí","country":"CZ","lat":49.1843,"lon":14.69734},{"name":"Veselí nad Moravou","country":"CZ","lat":48.95363,"lon":17.37648},{"name":"Vestec","country":"CZ","lat":49.9805,"lon":14.50487},{"name":"Větřní","country":"CZ","lat":48.77425,"lon":14.28616},{"name":"Veverská Bítýška","country":"CZ","lat":49.27591,"lon":16.43686},{"name":"Vidče","country":"CZ","lat":49.44151,"lon":18.09473},{"name":"Vidnava","country":"CZ","lat":50.37234,"lon":17.18626},{"name":"Vikýřovice","country":"CZ","lat":49.97792,"lon":17.01234},{"name":"Vilémov","country":"CZ","lat":50.99054,"lon":14.33531},{"name":"Vilémov","country":"CZ","lat":49.81566,"lon":15.53584},{"name":"Vilémov","country":"CZ","lat":49.53578,"lon":15.38347},{"name":"Vimperk","country":"CZ","lat":49.05857,"lon":13.78286},{"name":"Vinařice","country":"CZ","lat":50.17585,"lon":14.09106},{"name":"Viničné Šumice","country":"CZ","lat":49.21358,"lon":16.82541},{"name":"Vintířov","country":"CZ","lat":50.23382,"lon":12.71748},{"name":"Višňova","country":"CZ","lat":50.96663,"lon":15.02495},{"name":"Višňové","country":"CZ","lat":48.98241,"lon":16.15025},{"name":"Vítkov","country":"CZ","lat":49.77445,"lon":17.74941},{"name":"Vizovice","country":"CZ","lat":49.22287,"lon":17.85455},{"name":"Vlachovice","country":"CZ","lat":49.12377,"lon":17.94001},{"name":"Vlachovo Březí","country":"CZ","lat":49.08135,"lon":13.95842},{"name":"Vladislav","country":"CZ","lat":49.21017,"lon":15.9883},{"name":"Vlašim","country":"CZ","lat":49.70632,"lon":14.89881},{"name":"Vlčnov","country":"CZ","lat":49.57866,"lon":17.95458},{"name":"Vlčnov","country":"CZ","lat":49.0099,"lon":17.58183},{"name":"Vlkoš","country":"CZ","lat":48.9896,"lon":17.16356},{"name":"Vnorovy","country":"CZ","lat":48.93096,"lon":17.3505},{"name":"Vodňany","country":"CZ","lat":49.14789,"lon":14.17513},{"name":"Vojkovice","country":"CZ","lat":49.05138,"lon":16.6082},{"name":"Volary","country":"CZ","lat":48.90881,"lon":13.88657},{"name":"Volyně","country":"CZ","lat":49.16578,"lon":13.88624},{"name":"Votice","country":"CZ","lat":49.64013,"lon":14.63809},{"name":"Vracov","country":"CZ","lat":48.97523,"lon":17.211},{"name":"Vrané nad Vltavou","country":"CZ","lat":49.93585,"lon":14.37706},{"name":"Vranovice","country":"CZ","lat":48.966,"lon":16.6066},{"name":"Vratimov","country":"CZ","lat":49.76995,"lon":18.31015},{"name":"Vrbátky","country":"CZ","lat":49.50805,"lon":17.19994},{"name":"Vrbice","country":"CZ","lat":49.88333,"lon":18.31667},{"name":"Vrbice","country":"CZ","lat":48.91508,"lon":16.89779},{"name":"Vrbno pod Pradědem","country":"CZ","lat":50.12095,"lon":17.38316},{"name":"Vrbovec","country":"CZ","lat":48.79978,"lon":16.10061},{"name":"Vrchlabí","country":"CZ","lat":50.62697,"lon":15.60937},{"name":"Vrdy","country":"CZ","lat":49.92153,"lon":15.47243},{"name":"Vřesina","country":"CZ","lat":49.94581,"lon":18.19005},{"name":"Vřesina","country":"CZ","lat":49.82418,"lon":18.12569},{"name":"Vroutek","country":"CZ","lat":50.17999,"lon":13.37986},{"name":"Všemina","country":"CZ","lat":49.281,"lon":17.87682},{"name":"Všenory","country":"CZ","lat":49.92883,"lon":14.30392},{"name":"Všeruby","country":"CZ","lat":49.84167,"lon":13.22943},{"name":"Všestary","country":"CZ","lat":50.2566,"lon":15.75983},{"name":"Všetaty","country":"CZ","lat":50.28187,"lon":14.59297},{"name":"Vsetín","country":"CZ","lat":49.33871,"lon":17.99619},{"name":"Vysehrad","country":"CZ","lat":50.06509,"lon":14.41711},{"name":"Vyškov","country":"CZ","lat":49.27747,"lon":16.99897},{"name":"Vysočany","country":"CZ","lat":50.10938,"lon":14.51667},{"name":"Vysoké Mýto","country":"CZ","lat":49.9532,"lon":16.16169},{"name":"Vysoké nad Jizerou","country":"CZ","lat":50.68559,"lon":15.40152},{"name":"Vyšší Brod","country":"CZ","lat":48.61598,"lon":14.31183},{"name":"Žabčice","country":"CZ","lat":49.0116,"lon":16.60257},{"name":"Zábřeh","country":"CZ","lat":49.8826,"lon":16.87223},{"name":"Zabrušany","country":"CZ","lat":50.60495,"lon":13.78748},{"name":"Žacléř","country":"CZ","lat":50.66329,"lon":15.91063},{"name":"Zadní Mostek","country":"CZ","lat":50.4967,"lon":15.69804},{"name":"Záhorovice","country":"CZ","lat":49.02266,"lon":17.77922},{"name":"Zaječí","country":"CZ","lat":48.87295,"lon":16.76646},{"name":"Zaječov","country":"CZ","lat":49.77435,"lon":13.84072},{"name":"Zákupy","country":"CZ","lat":50.68475,"lon":14.64522},{"name":"Žamberk","country":"CZ","lat":50.08601,"lon":16.46738},{"name":"Žandov","country":"CZ","lat":50.71394,"lon":14.39623},{"name":"Zásmuky","country":"CZ","lat":49.9547,"lon":15.03058},{"name":"Zašová","country":"CZ","lat":49.4741,"lon":18.04436},{"name":"Zastávka","country":"CZ","lat":49.188,"lon":16.3631},{"name":"Žatec","country":"CZ","lat":50.32717,"lon":13.54577},{"name":"Zátor","country":"CZ","lat":50.03413,"lon":17.59296},{"name":"Zbiroh","country":"CZ","lat":49.86024,"lon":13.77262},{"name":"Zborovice","country":"CZ","lat":49.24889,"lon":17.28464},{"name":"Zbraslav","country":"CZ","lat":49.22155,"lon":16.29415},{"name":"Zbraslavice","country":"CZ","lat":49.81179,"lon":15.18319},{"name":"Zbůch","country":"CZ","lat":49.6784,"lon":13.22564},{"name":"Zbýšov","country":"CZ","lat":49.15524,"lon":16.34951},{"name":"Ždánice","country":"CZ","lat":49.06729,"lon":17.02751},{"name":"Žďár","country":"CZ","lat":50.54366,"lon":15.08034},{"name":"Žďár nad Sázavou","country":"CZ","lat":49.56263,"lon":15.93924},{"name":"Zdiby","country":"CZ","lat":50.16799,"lon":14.45118},{"name":"Zdice","country":"CZ","lat":49.91207,"lon":13.97747},{"name":"Zdíkov","country":"CZ","lat":49.08456,"lon":13.69738},{"name":"Zdounky","country":"CZ","lat":49.22771,"lon":17.31899},{"name":"Žebrák","country":"CZ","lat":49.87574,"lon":13.89735},{"name":"Zeleneč","country":"CZ","lat":50.13362,"lon":14.6607},{"name":"Želešice","country":"CZ","lat":49.11689,"lon":16.58137},{"name":"Želetava","country":"CZ","lat":49.14187,"lon":15.673},{"name":"Železná Ruda","country":"CZ","lat":49.13743,"lon":13.2352},{"name":"Železnice","country":"CZ","lat":50.47274,"lon":15.38459},{"name":"Železný Brod","country":"CZ","lat":50.64274,"lon":15.25408},{"name":"Želiv","country":"CZ","lat":49.52984,"lon":15.22181},{"name":"Žeravice","country":"CZ","lat":49.02288,"lon":17.23726},{"name":"Židlochovice","country":"CZ","lat":49.03952,"lon":16.61881},{"name":"Žihle","country":"CZ","lat":50.04491,"lon":13.37502},{"name":"Žirovnice","country":"CZ","lat":49.25318,"lon":15.18824},{"name":"Žitenice","country":"CZ","lat":50.55528,"lon":14.15665},{"name":"Žiželice","country":"CZ","lat":50.13192,"lon":15.3932},{"name":"Žižkov","country":"CZ","lat":50.08333,"lon":14.45},{"name":"Zlaté Hory","country":"CZ","lat":50.2638,"lon":17.39602},{"name":"Žleby","country":"CZ","lat":49.88958,"lon":15.48853},{"name":"Zlechov","country":"CZ","lat":49.07396,"lon":17.37938},{"name":"Zlín","country":"CZ","lat":49.22645,"lon":17.67065},{"name":"Zliv","country":"CZ","lat":49.06608,"lon":14.36613},{"name":"Zlonice","country":"CZ","lat":50.2875,"lon":14.09214},{"name":"Žlutava","country":"CZ","lat":49.19976,"lon":17.49037},{"name":"Žlutice","country":"CZ","lat":50.09192,"lon":13.16297},{"name":"Znojmo","country":"CZ","lat":48.8555,"lon":16.0488},{"name":"Zruč nad Sázavou","country":"CZ","lat":49.7401,"lon":15.10606},{"name":"Zubří","country":"CZ","lat":49.46603,"lon":18.09249},{"name":"Žulová","country":"CZ","lat":50.30933,"lon":17.09871},{"name":"Zvole","country":"CZ","lat":49.93466,"lon":14.41769}]