[{"name":"Abdón Calderón","country":"EC","lat":-1.02979,"lon":-80.34285},{"name":"Achupallas","country":"EC","lat":-2.28302,"lon":-78.76895},{"name":"Aguas Negras","country":"EC","lat":-0.13058,"lon":-76.29982},{"name":"Ahuano","country":"EC","lat":-1.05868,"lon":-77.54592},{"name":"Alangasí","country":"EC","lat":-0.3074,"lon":-78.41609},{"name":"Alausí","country":"EC","lat":-2.20128,"lon":-78.84781},{"name":"Alfredo Baquerizo Moreno","country":"EC","lat":-1.91667,"lon":-79.51667},{"name":"Amarillos","country":"EC","lat":-3.8723,"lon":-79.69316},{"name":"Ambatillo","country":"EC","lat":-1.22873,"lon":-78.65821},{"name":"Ambato","country":"EC","lat":-1.24908,"lon":-78.61675},{"name":"Anchayacu","country":"EC","lat":0.95464,"lon":-79.05901},{"name":"Antonio José de Holguín","country":"EC","lat":-1.09798,"lon":-78.60374},{"name":"Antonio Sotomayor","country":"EC","lat":-1.64229,"lon":-79.80217},{"name":"Arajuno","country":"EC","lat":-1.23302,"lon":-77.6875},{"name":"Arcapamba","country":"EC","lat":-3.64804,"lon":-79.61741},{"name":"Archidona","country":"EC","lat":-0.9095,"lon":-77.80772},{"name":"Ascázubi","country":"EC","lat":-0.08333,"lon":-78.29314},{"name":"Asunción","country":"EC","lat":-1.66494,"lon":-79.03916},{"name":"Atacames","country":"EC","lat":0.86903,"lon":-79.84806},{"name":"Atahualpa","country":"EC","lat":-1.21803,"lon":-78.61148},{"name":"Atuntaqui","country":"EC","lat":0.32759,"lon":-78.21908},{"name":"Ayapamba","country":"EC","lat":-3.61089,"lon":-79.6782},{"name":"Azogues","country":"EC","lat":-2.73969,"lon":-78.8486},{"name":"Baba","country":"EC","lat":-1.78443,"lon":-79.6787},{"name":"Babahoyo","country":"EC","lat":-1.80217,"lon":-79.53443},{"name":"Bahía de Caráquez","country":"EC","lat":-0.60033,"lon":-80.42444},{"name":"Balao","country":"EC","lat":-2.9106,"lon":-79.81505},{"name":"Balsas","country":"EC","lat":-3.76146,"lon":-79.82422},{"name":"Balzar","country":"EC","lat":-1.36553,"lon":-79.90507},{"name":"Baños","country":"EC","lat":-1.39699,"lon":-78.42289},{"name":"Barraganete","country":"EC","lat":-0.77666,"lon":-79.69672},{"name":"Bella María","country":"EC","lat":-3.49968,"lon":-79.89161},{"name":"Bella María","country":"EC","lat":-3.76134,"lon":-79.84784},{"name":"Bellavista","country":"EC","lat":-1.3486,"lon":-80.28542},{"name":"Biblián","country":"EC","lat":-2.71343,"lon":-78.88976},{"name":"Boca Suno","country":"EC","lat":-0.69832,"lon":-77.14083},{"name":"Bolívar","country":"EC","lat":0.44604,"lon":-80.04376},{"name":"Bolívar","country":"EC","lat":0.50245,"lon":-77.90533},{"name":"Borbón","country":"EC","lat":1.08814,"lon":-78.98954},{"name":"Boyacá","country":"EC","lat":-0.56972,"lon":-80.17763},{"name":"Buena Vista","country":"EC","lat":-3.36335,"lon":-79.84495},{"name":"Buenavista","country":"EC","lat":-3.89194,"lon":-79.71572},{"name":"Cahuasquí","country":"EC","lat":0.51401,"lon":-78.21289},{"name":"Calceta","country":"EC","lat":-0.84582,"lon":-80.16389},{"name":"Calderón","country":"EC","lat":-0.10511,"lon":-78.43139},{"name":"Calpi","country":"EC","lat":-1.64579,"lon":-78.74325},{"name":"Caluma","country":"EC","lat":-1.63085,"lon":-79.25729},{"name":"Camarones","country":"EC","lat":0.85435,"lon":-78.965},{"name":"Cañar","country":"EC","lat":-2.55941,"lon":-78.93808},{"name":"Cangahua","country":"EC","lat":-0.06304,"lon":-78.16718},{"name":"Cangonamá","country":"EC","lat":-3.96526,"lon":-79.70275},{"name":"Canoa","country":"EC","lat":-0.4638,"lon":-80.4545},{"name":"Canuto","country":"EC","lat":-0.79886,"lon":-80.12855},{"name":"Cariamanga","country":"EC","lat":-4.32804,"lon":-79.55575},{"name":"Carondelet","country":"EC","lat":1.12589,"lon":-78.76242},{"name":"Casacay","country":"EC","lat":-3.32298,"lon":-79.72281},{"name":"Cascol","country":"EC","lat":-1.66429,"lon":-80.45917},{"name":"Catacocha","country":"EC","lat":-4.05031,"lon":-79.64982},{"name":"Catamayo","country":"EC","lat":-3.98661,"lon":-79.35763},{"name":"Catarama","country":"EC","lat":-1.57091,"lon":-79.47335},{"name":"Cayambe","country":"EC","lat":0.04103,"lon":-78.14636},{"name":"Cebadas","country":"EC","lat":-1.91184,"lon":-78.64389},{"name":"Celica","country":"EC","lat":-4.10304,"lon":-79.95598},{"name":"Cevallos","country":"EC","lat":-1.35496,"lon":-78.6164},{"name":"Chaguarpamba","country":"EC","lat":-3.87776,"lon":-79.64455},{"name":"Chamanga","country":"EC","lat":0.26879,"lon":-79.95519},{"name":"Chambo","country":"EC","lat":-1.73101,"lon":-78.59672},{"name":"Changaimina","country":"EC","lat":-4.22216,"lon":-79.52404},{"name":"Chantaco","country":"EC","lat":-3.87879,"lon":-79.32894},{"name":"Charapotó","country":"EC","lat":-0.83744,"lon":-80.48782},{"name":"Chicaña","country":"EC","lat":-3.72732,"lon":-78.74698},{"name":"Chigüilpe","country":"EC","lat":-0.03793,"lon":-79.26008},{"name":"Chiguinda","country":"EC","lat":-3.2289,"lon":-78.71978},{"name":"Chile","country":"EC","lat":-4.28882,"lon":-79.50321},{"name":"Chilla","country":"EC","lat":-3.4581,"lon":-79.58122},{"name":"Chillanes","country":"EC","lat":-1.9429,"lon":-79.06646},{"name":"Chinca","country":"EC","lat":0.77068,"lon":-79.56828},{"name":"Chiquintad","country":"EC","lat":-2.81326,"lon":-79.00248},{"name":"Chone","country":"EC","lat":-0.6985,"lon":-80.0925},{"name":"Chongón","country":"EC","lat":-2.2364,"lon":-80.08249},{"name":"Chontaduro","country":"EC","lat":0.93059,"lon":-79.43588},{"name":"Chontaduro","country":"EC","lat":0.73553,"lon":-79.75683},{"name":"Chordeleg","country":"EC","lat":-2.92285,"lon":-78.77533},{"name":"Chucchilán","country":"EC","lat":-0.79953,"lon":-78.92072},{"name":"Chuga","country":"EC","lat":0.37478,"lon":-77.90481},{"name":"Chumundé","country":"EC","lat":0.83098,"lon":-79.41922},{"name":"Chunchi","country":"EC","lat":-2.28971,"lon":-78.91987},{"name":"Chuquiribamba","country":"EC","lat":-3.84181,"lon":-79.34495},{"name":"Cojimíes","country":"EC","lat":0.36644,"lon":-80.03592},{"name":"Colaisaca","country":"EC","lat":-4.31809,"lon":-79.69301},{"name":"Colimes","country":"EC","lat":-1.54566,"lon":-80.01158},{"name":"Colón","country":"EC","lat":-1.11295,"lon":-80.41389},{"name":"Colón Eloy del María","country":"EC","lat":1.0192,"lon":-78.90993},{"name":"Comité del Pueblo","country":"EC","lat":-0.09497,"lon":-78.52776},{"name":"Concepción","country":"EC","lat":0.6054,"lon":-78.12651},{"name":"Concepción","country":"EC","lat":1.03651,"lon":-78.82888},{"name":"Conocoto","country":"EC","lat":-0.29341,"lon":-78.47569},{"name":"Convento","country":"EC","lat":-0.27689,"lon":-80.03679},{"name":"Cordoncillo","country":"EC","lat":-3.59246,"lon":-79.64823},{"name":"Coronel Marcelino Maridueña","country":"EC","lat":-2.21025,"lon":-79.43734},{"name":"Cotacachi","country":"EC","lat":0.29947,"lon":-78.26565},{"name":"Cotaló","country":"EC","lat":-1.4315,"lon":-78.51301},{"name":"Cristóbal Colón","country":"EC","lat":0.606,"lon":-77.81192},{"name":"Cuatro de Diciembre","country":"EC","lat":-0.25046,"lon":-79.48814},{"name":"Cube","country":"EC","lat":0.57364,"lon":-79.64418},{"name":"Cubijíes","country":"EC","lat":-1.64471,"lon":-78.58815},{"name":"Cuellaje","country":"EC","lat":0.39824,"lon":-78.52654},{"name":"Cuenca","country":"EC","lat":-2.90055,"lon":-79.00453},{"name":"Cumandá","country":"EC","lat":-2.20497,"lon":-79.1358},{"name":"Cumbaratza","country":"EC","lat":-3.99422,"lon":-78.86671},{"name":"Cumbayá","country":"EC","lat":-0.19874,"lon":-78.43013},{"name":"Curtincapa","country":"EC","lat":-3.73102,"lon":-79.54934},{"name":"Cuyabeno","country":"EC","lat":-0.26501,"lon":-75.89186},{"name":"Cuyuja","country":"EC","lat":-0.41475,"lon":-78.02634},{"name":"Daule","country":"EC","lat":-1.86032,"lon":-79.97683},{"name":"Daule","country":"EC","lat":0.40624,"lon":-80.01332},{"name":"Déleg","country":"EC","lat":-2.7725,"lon":-78.91913},{"name":"Diez de Agosto","country":"EC","lat":-1.45829,"lon":-77.90637},{"name":"Doctor Miguel Egas Cabezas","country":"EC","lat":0.2502,"lon":-78.24371},{"name":"Echeandía","country":"EC","lat":-1.43208,"lon":-79.28018},{"name":"El Ángel","country":"EC","lat":0.62022,"lon":-77.94098},{"name":"El Carmen","country":"EC","lat":-0.27527,"lon":-79.46222},{"name":"El Chaco","country":"EC","lat":-0.33904,"lon":-77.81115},{"name":"El Chaupi","country":"EC","lat":-0.6021,"lon":-78.64294},{"name":"El Cisne","country":"EC","lat":-3.85128,"lon":-79.42634},{"name":"El Corazón","country":"EC","lat":-1.13663,"lon":-79.08137},{"name":"El Empalme","country":"EC","lat":-1.04491,"lon":-79.6384},{"name":"El Eno","country":"EC","lat":-0.06687,"lon":-76.87907},{"name":"El Esfuerzo","country":"EC","lat":-0.41645,"lon":-79.27563},{"name":"El Güismi","country":"EC","lat":-3.55671,"lon":-78.56439},{"name":"El Pangui","country":"EC","lat":-3.62575,"lon":-78.58836},{"name":"El Paraíso","country":"EC","lat":-0.22615,"lon":-76.84804},{"name":"El Paraíso de Celén","country":"EC","lat":-3.60111,"lon":-79.33934},{"name":"El Porvenir del Carmen","country":"EC","lat":-4.54671,"lon":-79.03472},{"name":"El Quinche","country":"EC","lat":-0.11071,"lon":-78.29685},{"name":"El Reventador","country":"EC","lat":-0.04647,"lon":-77.52874},{"name":"El Rosario","country":"EC","lat":-3.78495,"lon":-79.60649},{"name":"El Rosario","country":"EC","lat":-1.05166,"lon":-79.8122},{"name":"El Salitre","country":"EC","lat":-1.8302,"lon":-79.8179},{"name":"El Triunfo","country":"EC","lat":-1.93333,"lon":-79.96667},{"name":"El Triunfo","country":"EC","lat":-1.30496,"lon":-78.4043},{"name":"El Triunfo","country":"EC","lat":-2.33289,"lon":-79.40015},{"name":"Eloy Alfaro","country":"EC","lat":-2.16919,"lon":-79.83987},{"name":"Eloy Alfaro","country":"EC","lat":-0.40133,"lon":-80.08017},{"name":"Eloy Alfaro","country":"EC","lat":-1.47121,"lon":-80.53392},{"name":"Emilio María Terán","country":"EC","lat":-1.22326,"lon":-78.51252},{"name":"Esmeraldas","country":"EC","lat":0.9592,"lon":-79.65397},{"name":"Facundo Vela","country":"EC","lat":-1.20551,"lon":-79.065},{"name":"Fátima","country":"EC","lat":-1.42806,"lon":-77.99948},{"name":"Febres Cordero","country":"EC","lat":-1.99365,"lon":-79.35514},{"name":"Fernández Salvador","country":"EC","lat":0.59999,"lon":-77.75227},{"name":"Flavio Alfaro","country":"EC","lat":-0.40501,"lon":-79.90468},{"name":"Galera","country":"EC","lat":0.81656,"lon":-80.04648},{"name":"García Moreno","country":"EC","lat":0.56017,"lon":-77.94819},{"name":"General Leonidas Plaza Gutiérrez","country":"EC","lat":-2.96677,"lon":-78.43207},{"name":"General Morales","country":"EC","lat":-2.40772,"lon":-79.02322},{"name":"General Proaño","country":"EC","lat":-2.26676,"lon":-78.12982},{"name":"General Vernaza","country":"EC","lat":-1.76275,"lon":-79.79105},{"name":"Gima","country":"EC","lat":-3.19109,"lon":-78.95787},{"name":"Girón","country":"EC","lat":-3.16042,"lon":-79.14752},{"name":"Gonzalo Pizarro","country":"EC","lat":0.01674,"lon":-77.37924},{"name":"Gonzanamá","country":"EC","lat":-4.23081,"lon":-79.43545},{"name":"Gonzol","country":"EC","lat":-2.26223,"lon":-78.84673},{"name":"Guadalupe","country":"EC","lat":-3.84664,"lon":-78.88896},{"name":"Gualaceo","country":"EC","lat":-2.89418,"lon":-78.77907},{"name":"Gualaquiza","country":"EC","lat":-3.40352,"lon":-78.58148},{"name":"Guale","country":"EC","lat":-1.63004,"lon":-80.23922},{"name":"Gualel","country":"EC","lat":-3.77022,"lon":-79.3756},{"name":"Guambaló","country":"EC","lat":-1.38807,"lon":-78.53221},{"name":"Guamote","country":"EC","lat":-1.93499,"lon":-78.71043},{"name":"Guanando","country":"EC","lat":-1.54566,"lon":-78.54385},{"name":"Guanazán","country":"EC","lat":-3.45935,"lon":-79.4921},{"name":"Guano","country":"EC","lat":-1.60689,"lon":-78.63726},{"name":"Guanujo","country":"EC","lat":-1.56046,"lon":-79.00888},{"name":"Guaranda","country":"EC","lat":-1.59263,"lon":-79.00098},{"name":"Guasaganda Centro","country":"EC","lat":-0.80287,"lon":-79.16001},{"name":"Guasuntos","country":"EC","lat":-2.2324,"lon":-78.81334},{"name":"Guayaquil","country":"EC","lat":-2.19616,"lon":-79.88621},{"name":"Guayquichuma","country":"EC","lat":-3.82259,"lon":-79.57445},{"name":"Guaytacama","country":"EC","lat":-0.82498,"lon":-78.64158},{"name":"Guizhaguiña","country":"EC","lat":-3.69333,"lon":-79.55152},{"name":"Huambi","country":"EC","lat":-2.53653,"lon":-78.16324},{"name":"Huamboya","country":"EC","lat":-1.94564,"lon":-77.991},{"name":"Huaquillas","country":"EC","lat":-3.47523,"lon":-80.23084},{"name":"Huertas","country":"EC","lat":-3.60704,"lon":-79.63216},{"name":"Ibarra","country":"EC","lat":0.35171,"lon":-78.12233},{"name":"Ilapo","country":"EC","lat":-1.54201,"lon":-78.58667},{"name":"Imantag","country":"EC","lat":0.35716,"lon":-78.24871},{"name":"Isidro Ayora","country":"EC","lat":-1.88048,"lon":-80.14509},{"name":"Isinliví","country":"EC","lat":-0.75932,"lon":-78.8698},{"name":"Isla de Bejucal","country":"EC","lat":-1.6775,"lon":-79.64494},{"name":"Izamba","country":"EC","lat":-1.22704,"lon":-78.58631},{"name":"Jama","country":"EC","lat":-0.20172,"lon":-80.26358},{"name":"Jambelí","country":"EC","lat":0.08451,"lon":-77.07557},{"name":"Jesús María","country":"EC","lat":-2.56825,"lon":-79.54587},{"name":"Jipijapa","country":"EC","lat":-1.34841,"lon":-80.57913},{"name":"Joséguango Bajo","country":"EC","lat":-0.81842,"lon":-78.59521},{"name":"Juan Benigno Vela","country":"EC","lat":-1.30173,"lon":-78.69407},{"name":"Julcuy","country":"EC","lat":-1.47698,"lon":-80.62584},{"name":"Junín","country":"EC","lat":-0.92777,"lon":-80.20583},{"name":"La Avanzada","country":"EC","lat":-3.53779,"lon":-79.95881},{"name":"La Bocana","country":"EC","lat":0.86038,"lon":-79.87476},{"name":"La Bocana","country":"EC","lat":-3.689,"lon":-79.90254},{"name":"La Concordia","country":"EC","lat":0.00801,"lon":-79.39462},{"name":"La Dolorasa del Priorato","country":"EC","lat":0.38479,"lon":-78.10934},{"name":"La Esperanza","country":"EC","lat":0.29791,"lon":-78.11935},{"name":"La Esperanza","country":"EC","lat":-0.96615,"lon":-79.42283},{"name":"La Joya de Los Sachas","country":"EC","lat":-0.29394,"lon":-76.85573},{"name":"La Libertad","country":"EC","lat":-2.233,"lon":-80.91039},{"name":"La Libertad","country":"EC","lat":0.65325,"lon":-77.94381},{"name":"La Maná","country":"EC","lat":-0.94096,"lon":-79.22655},{"name":"La Merced","country":"EC","lat":-0.29286,"lon":-78.39977},{"name":"La Merced de Buenos Aires","country":"EC","lat":0.61765,"lon":-78.3175},{"name":"La Paz","country":"EC","lat":-3.701,"lon":-78.89673},{"name":"La Paz","country":"EC","lat":0.50961,"lon":-77.86597},{"name":"La Providencia","country":"EC","lat":-1.55206,"lon":-78.54326},{"name":"La Puntilla","country":"EC","lat":-2.13556,"lon":-79.86588},{"name":"La Susaya","country":"EC","lat":-3.67736,"lon":-79.69068},{"name":"La Tingue","country":"EC","lat":-3.91059,"lon":-79.5785},{"name":"La Troncal","country":"EC","lat":-2.42466,"lon":-79.34159},{"name":"La Unión","country":"EC","lat":-2.85,"lon":-78.78333},{"name":"La Unión","country":"EC","lat":-1.70763,"lon":-79.39447},{"name":"La Unión","country":"EC","lat":0.81017,"lon":-79.866},{"name":"La Victoria de Imbana","country":"EC","lat":-3.8468,"lon":-79.12021},{"name":"Lagarto","country":"EC","lat":1.04327,"lon":-79.28036},{"name":"Las Mercedes","country":"EC","lat":-1.27018,"lon":-79.32236},{"name":"Las Naves","country":"EC","lat":-1.28584,"lon":-79.31473},{"name":"Las Nieves","country":"EC","lat":-3.34186,"lon":-79.11528},{"name":"Lascano","country":"EC","lat":-1.53068,"lon":-80.23042},{"name":"Latacunga","country":"EC","lat":-0.93521,"lon":-78.61554},{"name":"Laurel","country":"EC","lat":-1.78474,"lon":-79.90908},{"name":"Leonidas Plaza Gutiérrez","country":"EC","lat":-0.62754,"lon":-80.42504},{"name":"Licto","country":"EC","lat":-1.80539,"lon":-78.60409},{"name":"Limoncocha","country":"EC","lat":-0.41053,"lon":-76.62387},{"name":"Lincán","country":"EC","lat":-1.65284,"lon":-78.70592},{"name":"Llacao","country":"EC","lat":-2.86667,"lon":-78.88333},{"name":"Llano Chico","country":"EC","lat":-0.12742,"lon":-78.44429},{"name":"Loja","country":"EC","lat":-3.99313,"lon":-79.20422},{"name":"Loma de Franco","country":"EC","lat":-3.34262,"lon":-79.79299},{"name":"Lomas de Sargentillo","country":"EC","lat":-1.88082,"lon":-80.08354},{"name":"Los Andes","country":"EC","lat":0.49808,"lon":-77.93833},{"name":"Los Encuentros","country":"EC","lat":-3.75993,"lon":-78.64803},{"name":"Luz de América","country":"EC","lat":-0.40579,"lon":-79.30323},{"name":"Macará","country":"EC","lat":-4.38184,"lon":-79.94521},{"name":"Macas","country":"EC","lat":-2.30868,"lon":-78.11135},{"name":"Machachi","country":"EC","lat":-0.51273,"lon":-78.57066},{"name":"Machala","country":"EC","lat":-3.25861,"lon":-79.96053},{"name":"Machalilla","country":"EC","lat":-1.47382,"lon":-80.76384},{"name":"Madre Tierra","country":"EC","lat":-1.5423,"lon":-78.03471},{"name":"Magdalena","country":"EC","lat":-1.66364,"lon":-79.06802},{"name":"Majua","country":"EC","lat":0.70384,"lon":-79.5293},{"name":"Malacatos","country":"EC","lat":-4.21908,"lon":-79.25991},{"name":"Maldonado","country":"EC","lat":1.06953,"lon":-78.90866},{"name":"Malimpia","country":"EC","lat":0.41439,"lon":-79.42889},{"name":"Malvas","country":"EC","lat":-3.65941,"lon":-79.62724},{"name":"Manta","country":"EC","lat":-0.94937,"lon":-80.73137},{"name":"Manuel J. Calle","country":"EC","lat":-2.35615,"lon":-79.39949},{"name":"Marcabelí","country":"EC","lat":-3.7839,"lon":-79.91227},{"name":"Marcos Espinel","country":"EC","lat":-1.17402,"lon":-78.5242},{"name":"Mariano Acosta","country":"EC","lat":0.2966,"lon":-77.98287},{"name":"Mariano Moreno","country":"EC","lat":-2.8561,"lon":-78.73087},{"name":"Matus","country":"EC","lat":-1.55823,"lon":-78.50279},{"name":"Membrillal","country":"EC","lat":-1.23781,"lon":-80.66546},{"name":"Mera","country":"EC","lat":-1.46053,"lon":-78.11348},{"name":"Milagro","country":"EC","lat":-2.13396,"lon":-79.59337},{"name":"Milagro","country":"EC","lat":-3.628,"lon":-79.66126},{"name":"Mindo","country":"EC","lat":-0.05201,"lon":-78.77633},{"name":"Mira","country":"EC","lat":0.55069,"lon":-78.04034},{"name":"Mocache","country":"EC","lat":-1.18891,"lon":-79.50619},{"name":"Mocha","country":"EC","lat":-1.4191,"lon":-78.66202},{"name":"Montalvo","country":"EC","lat":-2.04934,"lon":-77.00856},{"name":"Montalvo","country":"EC","lat":-1.79008,"lon":-79.28759},{"name":"Montalvo","country":"EC","lat":1.05012,"lon":-79.31189},{"name":"Montecristi","country":"EC","lat":-1.04576,"lon":-80.65889},{"name":"Morales","country":"EC","lat":-3.71873,"lon":-79.5432},{"name":"Moraspungo","country":"EC","lat":-1.17409,"lon":-79.22341},{"name":"Muisne","country":"EC","lat":0.61045,"lon":-80.0186},{"name":"Mulaló","country":"EC","lat":-0.78064,"lon":-78.57534},{"name":"Muluncay","country":"EC","lat":-3.63625,"lon":-79.63615},{"name":"Nabón","country":"EC","lat":-3.33875,"lon":-79.06572},{"name":"Nambacola","country":"EC","lat":-4.14105,"lon":-79.43063},{"name":"Naranjal","country":"EC","lat":-2.67638,"lon":-79.61735},{"name":"Naranjito","country":"EC","lat":-2.17071,"lon":-79.465},{"name":"Nayón","country":"EC","lat":-0.15817,"lon":-78.43923},{"name":"Nazón","country":"EC","lat":-2.70241,"lon":-78.91014},{"name":"Noboa","country":"EC","lat":-1.41115,"lon":-80.39402},{"name":"Nono","country":"EC","lat":-0.06694,"lon":-78.57732},{"name":"Nueva Loja","country":"EC","lat":0.086,"lon":-76.89528},{"name":"Nueva Tarqui","country":"EC","lat":-3.45864,"lon":-78.66442},{"name":"Nulti","country":"EC","lat":-2.91667,"lon":-78.85},{"name":"Olmedo","country":"EC","lat":-3.93435,"lon":-79.64646},{"name":"Olmedo","country":"EC","lat":-1.39527,"lon":-80.2108},{"name":"Otavalo","country":"EC","lat":0.23457,"lon":-78.26248},{"name":"Oyacachi","country":"EC","lat":-0.21311,"lon":-78.08836},{"name":"Oyambarillo","country":"EC","lat":-0.19516,"lon":-78.33173},{"name":"Pablo Arenas","country":"EC","lat":0.50122,"lon":-78.19166},{"name":"Pacayacu","country":"EC","lat":-0.04061,"lon":-76.58591},{"name":"Paccha","country":"EC","lat":-3.58811,"lon":-79.66553},{"name":"Paccha","country":"EC","lat":-2.89888,"lon":-78.9348},{"name":"Pacto","country":"EC","lat":0.14238,"lon":-78.76658},{"name":"Padre Juan Bautista Aguirre","country":"EC","lat":-1.87691,"lon":-79.86209},{"name":"Paján","country":"EC","lat":-1.55266,"lon":-80.42846},{"name":"Palanda","country":"EC","lat":-4.64953,"lon":-79.1323},{"name":"Palenque","country":"EC","lat":-1.43757,"lon":-79.7569},{"name":"Palestina","country":"EC","lat":-1.93709,"lon":-79.71396},{"name":"Palestina","country":"EC","lat":-1.62825,"lon":-79.97932},{"name":"Pallatanga","country":"EC","lat":-1.99856,"lon":-78.96629},{"name":"Palmira","country":"EC","lat":-2.08155,"lon":-78.73106},{"name":"Palora","country":"EC","lat":-1.70087,"lon":-77.96609},{"name":"Pampanal de Bolívar","country":"EC","lat":1.35251,"lon":-78.8936},{"name":"Pañacocha","country":"EC","lat":-0.45101,"lon":-76.06921},{"name":"Papallacta","country":"EC","lat":-0.37654,"lon":-78.14241},{"name":"Pasaje","country":"EC","lat":-3.32561,"lon":-79.80697},{"name":"Paute","country":"EC","lat":-2.77957,"lon":-78.76155},{"name":"Pedernales","country":"EC","lat":0.07168,"lon":-80.05216},{"name":"Pedro Carbo","country":"EC","lat":-1.81619,"lon":-80.23431},{"name":"Pedro Pablo Gómez","country":"EC","lat":-1.62688,"lon":-80.56084},{"name":"Pedro Vicente Maldonado","country":"EC","lat":0.08527,"lon":-79.05095},{"name":"Pelileo","country":"EC","lat":-1.33057,"lon":-78.54523},{"name":"Pelileo Grande","country":"EC","lat":-1.32969,"lon":-78.52784},{"name":"Penipe","country":"EC","lat":-1.56592,"lon":-78.53159},{"name":"Perucho","country":"EC","lat":0.11012,"lon":-78.42423},{"name":"Piartal","country":"EC","lat":0.56636,"lon":-77.77193},{"name":"Picoazá","country":"EC","lat":-1.03603,"lon":-80.49335},{"name":"Piedras","country":"EC","lat":-3.63663,"lon":-79.91519},{"name":"Píllaro","country":"EC","lat":-1.17381,"lon":-78.55092},{"name":"Pimampiro","country":"EC","lat":0.39093,"lon":-77.94094},{"name":"Pimocha","country":"EC","lat":-1.83349,"lon":-79.60813},{"name":"Piñas","country":"EC","lat":-3.68017,"lon":-79.68169},{"name":"Piñas Grande","country":"EC","lat":-3.66782,"lon":-79.69635},{"name":"Playa de Oro","country":"EC","lat":0.87582,"lon":-78.79493},{"name":"Playas","country":"EC","lat":-2.63199,"lon":-80.38808},{"name":"Pomasqui","country":"EC","lat":-0.0542,"lon":-78.45382},{"name":"Portovelo","country":"EC","lat":-3.71601,"lon":-79.61893},{"name":"Portoviejo","country":"EC","lat":-1.05458,"lon":-80.45445},{"name":"Posorja","country":"EC","lat":-2.70924,"lon":-80.24719},{"name":"Pueblo Nuevo","country":"EC","lat":-1.20888,"lon":-80.06888},{"name":"Pueblo Viejo","country":"EC","lat":-1.55069,"lon":-79.53362},{"name":"Puela","country":"EC","lat":-1.51507,"lon":-78.50744},{"name":"Puembo","country":"EC","lat":-0.17755,"lon":-78.35876},{"name":"Puerto Ayora","country":"EC","lat":-0.74018,"lon":-90.3138},{"name":"Puerto Baquerizo Moreno","country":"EC","lat":-0.90172,"lon":-89.61021},{"name":"Puerto Bolívar","country":"EC","lat":-3.26649,"lon":-79.99749},{"name":"Puerto de Cayo","country":"EC","lat":-1.34858,"lon":-80.73908},{"name":"Puerto Francisco de Orellana","country":"EC","lat":-0.46645,"lon":-76.98719},{"name":"Puerto Jelí","country":"EC","lat":-3.41444,"lon":-79.99503},{"name":"Puerto Libre","country":"EC","lat":0.19132,"lon":-77.48802},{"name":"Puerto Limón","country":"EC","lat":-0.3881,"lon":-79.37325},{"name":"Puerto López","country":"EC","lat":-1.55873,"lon":-80.80931},{"name":"Puerto Napo","country":"EC","lat":-1.04231,"lon":-77.7939},{"name":"Puerto Pechiche","country":"EC","lat":-1.42602,"lon":-79.56037},{"name":"Puerto Quito","country":"EC","lat":0.12123,"lon":-79.25399},{"name":"Puerto Villamil","country":"EC","lat":-0.95542,"lon":-90.96654},{"name":"Pujilí","country":"EC","lat":-0.95759,"lon":-78.69636},{"name":"Pungalá","country":"EC","lat":-1.81726,"lon":-78.59325},{"name":"Punín","country":"EC","lat":-1.76584,"lon":-78.65654},{"name":"Puyo","country":"EC","lat":-1.48369,"lon":-78.00257},{"name":"Quero","country":"EC","lat":-1.38068,"lon":-78.6083},{"name":"Quevedo","country":"EC","lat":-1.02881,"lon":-79.46264},{"name":"Quimiag","country":"EC","lat":-1.658,"lon":-78.56737},{"name":"Quingue","country":"EC","lat":0.71788,"lon":-80.0944},{"name":"Quinsaloma","country":"EC","lat":-1.20601,"lon":-79.31383},{"name":"Quiroga","country":"EC","lat":0.28295,"lon":-78.28492},{"name":"Quisapincha","country":"EC","lat":-1.2349,"lon":-78.68463},{"name":"Quito","country":"EC","lat":-0.22985,"lon":-78.52495},{"name":"Ricaurte","country":"EC","lat":-2.86198,"lon":-78.96435},{"name":"Ricaurte","country":"EC","lat":-1.57147,"lon":-79.46772},{"name":"Ricaurte","country":"EC","lat":-0.58257,"lon":-80.04133},{"name":"Río Verde","country":"EC","lat":1.07282,"lon":-79.41255},{"name":"Riobamba","country":"EC","lat":-1.67098,"lon":-78.64712},{"name":"Ríochico","country":"EC","lat":-0.99506,"lon":-80.41655},{"name":"Rocafuerte","country":"EC","lat":1.06735,"lon":-79.37374},{"name":"Rocafuerte","country":"EC","lat":-0.92447,"lon":-80.45017},{"name":"Rosa Zarate","country":"EC","lat":0.32779,"lon":-79.47407},{"name":"Rumipamba","country":"EC","lat":-0.08423,"lon":-76.98602},{"name":"Sabanilla","country":"EC","lat":-3.96593,"lon":-79.05659},{"name":"Sabanilla","country":"EC","lat":-1.84338,"lon":-80.22248},{"name":"Salango","country":"EC","lat":-1.59239,"lon":-80.84262},{"name":"Salima","country":"EC","lat":0.32441,"lon":-79.96445},{"name":"Salinas","country":"EC","lat":-2.21452,"lon":-80.95151},{"name":"Salinas","country":"EC","lat":0.49444,"lon":-78.13104},{"name":"Salvias","country":"EC","lat":-3.63779,"lon":-79.54828},{"name":"Samborondón","country":"EC","lat":-1.96071,"lon":-79.72566},{"name":"San Andrés","country":"EC","lat":-1.59157,"lon":-78.70243},{"name":"San Antonio","country":"EC","lat":-3.98193,"lon":-79.66496},{"name":"San Antonio","country":"EC","lat":0.33266,"lon":-78.17046},{"name":"San Antonio","country":"EC","lat":-0.28881,"lon":-78.57724},{"name":"San Antonio de Bayushig","country":"EC","lat":-1.54851,"lon":-78.52045},{"name":"San Antonio de Manú","country":"EC","lat":-3.48638,"lon":-79.41077},{"name":"San Bartolomé de Pinllo","country":"EC","lat":-1.29823,"lon":-78.72696},{"name":"San Blas","country":"EC","lat":0.4125,"lon":-78.20507},{"name":"San Carlos","country":"EC","lat":-1.11595,"lon":-79.43625},{"name":"San Felipe de Oña","country":"EC","lat":-3.46986,"lon":-79.15436},{"name":"San Francisco de Chinimbimi","country":"EC","lat":-2.67913,"lon":-78.2145},{"name":"San Francisco de Natabuela","country":"EC","lat":0.3384,"lon":-78.19378},{"name":"San Francisco de Onzole","country":"EC","lat":0.88721,"lon":-79.07775},{"name":"San Francisco del Vergel","country":"EC","lat":-4.67844,"lon":-79.0455},{"name":"San Gabriel","country":"EC","lat":0.59354,"lon":-77.83066},{"name":"San Gerardo de Pacaicaguán","country":"EC","lat":-1.63919,"lon":-78.61637},{"name":"San Gregorio","country":"EC","lat":0.5283,"lon":-79.97049},{"name":"San Isidro","country":"EC","lat":0.60215,"lon":-77.98673},{"name":"San Isidro","country":"EC","lat":-0.379,"lon":-80.18561},{"name":"San Isidro de Patulú","country":"EC","lat":-1.58565,"lon":-78.69001},{"name":"San Jacinto de Bua","country":"EC","lat":-0.14753,"lon":-79.39442},{"name":"San Jacinto de Buena Fé","country":"EC","lat":-0.89409,"lon":-79.48985},{"name":"San José","country":"EC","lat":-3.62781,"lon":-79.65517},{"name":"San José de Ancón","country":"EC","lat":-1.75991,"lon":-80.76901},{"name":"San José de Chaltura","country":"EC","lat":0.35367,"lon":-78.19501},{"name":"San José de Chazo","country":"EC","lat":-1.53032,"lon":-78.55303},{"name":"San José de Quichinche","country":"EC","lat":0.23677,"lon":-78.28883},{"name":"San José del Tambo","country":"EC","lat":-1.95606,"lon":-79.23633},{"name":"San Juan","country":"EC","lat":-1.66667,"lon":-79.76667},{"name":"San Juan","country":"EC","lat":-1.62709,"lon":-79.56001},{"name":"San Juan","country":"EC","lat":-1.63384,"lon":-78.78255},{"name":"San Juan Bosco","country":"EC","lat":-3.11905,"lon":-78.53089},{"name":"San Juan de Ilumán","country":"EC","lat":0.27297,"lon":-78.23363},{"name":"San Juan de Pastocalle","country":"EC","lat":-0.72692,"lon":-78.63548},{"name":"San Lorenzo","country":"EC","lat":-1.67609,"lon":-78.99725},{"name":"San Lorenzo de Esmeraldas","country":"EC","lat":1.28626,"lon":-78.83514},{"name":"San Lucas","country":"EC","lat":-3.73719,"lon":-79.26313},{"name":"San Luis","country":"EC","lat":-1.70937,"lon":-78.64533},{"name":"San Luis de Pambil","country":"EC","lat":-1.23396,"lon":-79.23981},{"name":"San Mateo","country":"EC","lat":-0.95958,"lon":-80.81057},{"name":"San Miguel","country":"EC","lat":-1.04559,"lon":-78.59019},{"name":"San Miguel de Bolívar","country":"EC","lat":-1.70935,"lon":-79.04201},{"name":"San Miguelito","country":"EC","lat":-1.20419,"lon":-78.53825},{"name":"San Pablo de Tenta","country":"EC","lat":-3.5981,"lon":-79.28787},{"name":"San Pedro de La Bendita","country":"EC","lat":-3.94256,"lon":-79.43461},{"name":"San Pedro de Los Cofanes","country":"EC","lat":-0.1379,"lon":-76.85299},{"name":"San Pedro de Suma","country":"EC","lat":-0.21776,"lon":-79.54118},{"name":"San Pedro de Vilcabamba","country":"EC","lat":-4.24269,"lon":-79.22164},{"name":"San Rafael","country":"EC","lat":-0.31166,"lon":-78.45944},{"name":"San Roque","country":"EC","lat":-3.72748,"lon":-79.66866},{"name":"San Roque","country":"EC","lat":0.30201,"lon":-78.23332},{"name":"San Sebastián de Yuluc","country":"EC","lat":-3.37078,"lon":-79.43836},{"name":"San Sebastián del Coca","country":"EC","lat":-0.33909,"lon":-77.00571},{"name":"San Simón","country":"EC","lat":-1.64114,"lon":-78.99012},{"name":"San Vicente","country":"EC","lat":-0.58998,"lon":-80.40704},{"name":"San Vicente","country":"EC","lat":-0.30394,"lon":-76.53565},{"name":"San Vicente de Pusir","country":"EC","lat":0.49348,"lon":-78.04609},{"name":"Sangolquí","country":"EC","lat":-0.33405,"lon":-78.45217},{"name":"Santa Ana de Vuelta Larga","country":"EC","lat":-1.20784,"lon":-80.37059},{"name":"Santa Clara","country":"EC","lat":-1.26399,"lon":-77.88739},{"name":"Santa Elena","country":"EC","lat":-2.22622,"lon":-80.85873},{"name":"Santa Fé","country":"EC","lat":-1.61424,"lon":-79.01211},{"name":"Santa Lucía","country":"EC","lat":-2.18333,"lon":-80},{"name":"Santa Lucía","country":"EC","lat":-1.7158,"lon":-79.98586},{"name":"Santa María del Toachi","country":"EC","lat":-0.64004,"lon":-79.22955},{"name":"Santa Rosa","country":"EC","lat":-3.45571,"lon":-79.9637},{"name":"Santa Rosa","country":"EC","lat":-1.28199,"lon":-78.66371},{"name":"Santa Rosa de Flandes","country":"EC","lat":-2.63689,"lon":-79.64748},{"name":"Santiago","country":"EC","lat":-3.7938,"lon":-79.28192},{"name":"Santiago","country":"EC","lat":-1.69968,"lon":-78.99985},{"name":"Santiago de Méndez","country":"EC","lat":-2.71851,"lon":-78.31936},{"name":"Santo Domingo de los Colorados","country":"EC","lat":-0.25305,"lon":-79.17536},{"name":"Santo Domingo de Onzole","country":"EC","lat":0.79857,"lon":-79.07007},{"name":"Saquisilí","country":"EC","lat":-0.8399,"lon":-78.667},{"name":"Saraguro","country":"EC","lat":-3.62459,"lon":-79.23919},{"name":"Sardinas","country":"EC","lat":-0.38433,"lon":-77.83746},{"name":"Selva Alegre","country":"EC","lat":-3.55121,"lon":-79.34549},{"name":"Selva Alegre","country":"EC","lat":0.93229,"lon":-78.85987},{"name":"Sevilla","country":"EC","lat":0.08516,"lon":-77.12609},{"name":"Sevilla Don Bosco","country":"EC","lat":-2.31577,"lon":-78.10141},{"name":"Shell","country":"EC","lat":-1.50538,"lon":-78.06332},{"name":"Shushufindi","country":"EC","lat":-0.18555,"lon":-76.64491},{"name":"Sibambe","country":"EC","lat":-2.22599,"lon":-78.89088},{"name":"Siete de Julio","country":"EC","lat":-0.18574,"lon":-76.78229},{"name":"Sigchos","country":"EC","lat":-0.7047,"lon":-78.88868},{"name":"Sigsig","country":"EC","lat":-3.05089,"lon":-78.79563},{"name":"Simiatug","country":"EC","lat":-1.29177,"lon":-78.96072},{"name":"Simón Bolívar","country":"EC","lat":-2.18471,"lon":-80.35916},{"name":"Simón Bolívar","country":"EC","lat":-2.00248,"lon":-79.48517},{"name":"Sinaí","country":"EC","lat":-2.09499,"lon":-78.05278},{"name":"Sinincay","country":"EC","lat":-2.85107,"lon":-79.01478},{"name":"Sinsao","country":"EC","lat":-3.66407,"lon":-79.58263},{"name":"Sucre","country":"EC","lat":-1.27987,"lon":-80.41776},{"name":"Sucre","country":"EC","lat":-1.26369,"lon":-78.4947},{"name":"Sucúa","country":"EC","lat":-2.45737,"lon":-78.17102},{"name":"Suscal","country":"EC","lat":-2.43728,"lon":-79.05172},{"name":"Tababela","country":"EC","lat":-0.18627,"lon":-78.34409},{"name":"Tabacundo","country":"EC","lat":0.04782,"lon":-78.2198},{"name":"Taisha","country":"EC","lat":-2.33965,"lon":-77.46031},{"name":"Tambo","country":"EC","lat":-2.50987,"lon":-78.92746},{"name":"Tanicuchí","country":"EC","lat":-0.78135,"lon":-78.63824},{"name":"Taquil","country":"EC","lat":-3.89018,"lon":-79.28906},{"name":"Tarapoa","country":"EC","lat":-0.12425,"lon":-76.3457},{"name":"Tarifa","country":"EC","lat":-1.97887,"lon":-79.75455},{"name":"Tayuza","country":"EC","lat":-2.69826,"lon":-78.23879},{"name":"Telembí","country":"EC","lat":0.80802,"lon":-78.92845},{"name":"Tena","country":"EC","lat":-0.9938,"lon":-77.81286},{"name":"Tendales","country":"EC","lat":-3.12201,"lon":-79.84602},{"name":"Tenguel","country":"EC","lat":-2.99542,"lon":-79.79154},{"name":"Timbiré","country":"EC","lat":0.95905,"lon":-78.86516},{"name":"Tiputini","country":"EC","lat":-0.78774,"lon":-75.5293},{"name":"Tisaleo","country":"EC","lat":-1.34891,"lon":-78.66931},{"name":"Tixán","country":"EC","lat":-2.15196,"lon":-78.80322},{"name":"Toacaso","country":"EC","lat":-0.75734,"lon":-78.68657},{"name":"Tocachi","country":"EC","lat":0.04404,"lon":-78.28913},{"name":"Tonchigüe","country":"EC","lat":0.82829,"lon":-79.94627},{"name":"Tonsupa","country":"EC","lat":0.89018,"lon":-79.81023},{"name":"Torata","country":"EC","lat":-3.6015,"lon":-79.88718},{"name":"Tosagua","country":"EC","lat":-0.78585,"lon":-80.2346},{"name":"Tres Postes","country":"EC","lat":-1.98745,"lon":-79.60451},{"name":"Tulcán","country":"EC","lat":0.81187,"lon":-77.71727},{"name":"Tumbabiro","country":"EC","lat":0.46125,"lon":-78.19168},{"name":"Tumbaco","country":"EC","lat":-0.21477,"lon":-78.40067},{"name":"Tupigachi","country":"EC","lat":0.077,"lon":-78.18108},{"name":"Tutupali","country":"EC","lat":-3.52936,"lon":-78.95075},{"name":"Uimbí","country":"EC","lat":0.95798,"lon":-78.77188},{"name":"Urcuquí","country":"EC","lat":0.41845,"lon":-78.19477},{"name":"Urdaneta","country":"EC","lat":-3.60534,"lon":-79.21076},{"name":"Uzhcurrumi","country":"EC","lat":-3.32313,"lon":-79.59543},{"name":"Vacas Galindo","country":"EC","lat":0.30417,"lon":-78.56715},{"name":"Valdez","country":"EC","lat":1.24917,"lon":-78.98306},{"name":"Valdez","country":"EC","lat":0.98407,"lon":-78.89426},{"name":"Valencia","country":"EC","lat":-0.95312,"lon":-79.35513},{"name":"Valladolid","country":"EC","lat":-4.55137,"lon":-79.13199},{"name":"Valle de La Virgen","country":"EC","lat":-1.7405,"lon":-80.19562},{"name":"Valle Hermoso","country":"EC","lat":-0.08726,"lon":-79.27944},{"name":"Veintiocho de Mayo","country":"EC","lat":-3.63617,"lon":-78.92654},{"name":"Ventanas","country":"EC","lat":-1.44285,"lon":-79.46274},{"name":"Ventura","country":"EC","lat":-2.24811,"lon":-79.12386},{"name":"Viche","country":"EC","lat":0.65848,"lon":-79.54084},{"name":"Vilcabamba","country":"EC","lat":-4.26077,"lon":-79.22265},{"name":"Villa La Unión","country":"EC","lat":-1.70179,"lon":-78.77346},{"name":"Vinces","country":"EC","lat":-1.55637,"lon":-79.75249},{"name":"Wilfrido Loor Moreira","country":"EC","lat":-0.35294,"lon":-79.66033},{"name":"Yaguachi Nuevo","country":"EC","lat":-2.09757,"lon":-79.69261},{"name":"Yamana","country":"EC","lat":-4.00016,"lon":-79.69839},{"name":"Yanayacu","country":"EC","lat":-1.43361,"lon":-78.66487},{"name":"Yantzaza","country":"EC","lat":-3.83299,"lon":-78.76122},{"name":"Yaruquí","country":"EC","lat":-0.16544,"lon":-78.31627},{"name":"Yaruquíes","country":"EC","lat":-1.68908,"lon":-78.67636},{"name":"Yerbero","country":"EC","lat":0.58543,"lon":-79.48398},{"name":"Zambi","country":"EC","lat":-3.91445,"lon":-79.53616},{"name":"Zamora","country":"EC","lat":-4.06685,"lon":-78.95488},{"name":"Zaruma","country":"EC","lat":-3.69227,"lon":-79.61254},{"name":"Zumbahua","country":"EC","lat":-0.96098,"lon":-78.89839},{"name":"Zuña","country":"EC","lat":-2.18781,"lon":-78.35907}]