[{"name":"Äänekoski","country":"FI","lat":62.6,"lon":25.73333},{"name":"Äetsä","country":"FI","lat":61.29494,"lon":22.70459},{"name":"Ähtäri","country":"FI","lat":62.55403,"lon":24.06186},{"name":"Akaa","country":"FI","lat":61.16667,"lon":23.86667},{"name":"Ala-Malmi","country":"FI","lat":60.24818,"lon":25.01332},{"name":"Ala-Pispala","country":"FI","lat":61.50499,"lon":23.70314},{"name":"Alahärmä","country":"FI","lat":63.24831,"lon":22.85493},{"name":"Alajärvi","country":"FI","lat":63,"lon":23.81667},{"name":"Älajärvi","country":"FI","lat":63.00027,"lon":23.81586},{"name":"Alakylä","country":"FI","lat":61.05563,"lon":28.20506},{"name":"Alastaro","country":"FI","lat":60.95,"lon":22.85},{"name":"Alavieska","country":"FI","lat":64.16667,"lon":24.3},{"name":"Alavus","country":"FI","lat":62.58333,"lon":23.61667},{"name":"Alppiharju","country":"FI","lat":60.18909,"lon":24.94879},{"name":"Alppikylä","country":"FI","lat":60.26006,"lon":25.06943},{"name":"Alppila","country":"FI","lat":65.0364,"lon":25.45987},{"name":"Alppila","country":"FI","lat":60.18989,"lon":24.94293},{"name":"Amuri","country":"FI","lat":61.49957,"lon":23.74459},{"name":"Amuri A","country":"FI","lat":61.50094,"lon":23.74435},{"name":"Amuri B","country":"FI","lat":61.4989,"lon":23.74586},{"name":"Anjala","country":"FI","lat":60.68333,"lon":26.83333},{"name":"Arabianranta","country":"FI","lat":60.20727,"lon":24.97956},{"name":"Artjärvi","country":"FI","lat":60.74544,"lon":26.07084},{"name":"Asikkala","country":"FI","lat":61.21667,"lon":25.5},{"name":"Askainen","country":"FI","lat":60.56667,"lon":21.86667},{"name":"Askisto","country":"FI","lat":60.28141,"lon":24.78361},{"name":"Askola","country":"FI","lat":60.53333,"lon":25.6},{"name":"Asola","country":"FI","lat":60.32973,"lon":25.05108},{"name":"Atala","country":"FI","lat":61.50283,"lon":23.90685},{"name":"Aura","country":"FI","lat":60.6471,"lon":22.58755},{"name":"Aurinkolahti","country":"FI","lat":60.20332,"lon":25.1532},{"name":"Auttoinen","country":"FI","lat":61.29901,"lon":25.08887},{"name":"Bennäs","country":"FI","lat":63.6,"lon":22.8},{"name":"Box","country":"FI","lat":60.31048,"lon":25.40002},{"name":"Broby","country":"FI","lat":60.5,"lon":26.71667},{"name":"Dragsfjärd","country":"FI","lat":60.06667,"lon":22.48333},{"name":"East Helsinki","country":"FI","lat":60.21043,"lon":25.08289},{"name":"Eira","country":"FI","lat":60.15646,"lon":24.93704},{"name":"Ekenäs","country":"FI","lat":59.97359,"lon":23.43389},{"name":"Elimäki","country":"FI","lat":60.71667,"lon":26.46667},{"name":"Eno","country":"FI","lat":62.80511,"lon":30.15422},{"name":"Enonkoski","country":"FI","lat":62.08333,"lon":28.93333},{"name":"Enontekiö","country":"FI","lat":68.38573,"lon":23.63215},{"name":"Epilä","country":"FI","lat":61.50808,"lon":23.6679},{"name":"Espoo","country":"FI","lat":60.2052,"lon":24.6522},{"name":"Espoon Keskus","country":"FI","lat":60.20475,"lon":24.65233},{"name":"Espoonlahden keskus","country":"FI","lat":60.14972,"lon":24.65513},{"name":"Espoonlahti","country":"FI","lat":60.15054,"lon":24.65307},{"name":"Etelä-Haaga","country":"FI","lat":60.21347,"lon":24.89536},{"name":"Etelä-Hervanta","country":"FI","lat":61.44422,"lon":23.8565},{"name":"Etelä-Kyttälä","country":"FI","lat":61.49655,"lon":23.76914},{"name":"Etu-Töölö","country":"FI","lat":60.17298,"lon":24.92515},{"name":"Eura","country":"FI","lat":61.13333,"lon":22.13333},{"name":"Eurajoki","country":"FI","lat":61.2,"lon":21.73333},{"name":"Evijärvi","country":"FI","lat":63.36667,"lon":23.48333},{"name":"Finlayson","country":"FI","lat":61.50167,"lon":23.75341},{"name":"Forssa","country":"FI","lat":60.81462,"lon":23.62146},{"name":"Grinddal","country":"FI","lat":60.23348,"lon":24.98087},{"name":"Grundbacka","country":"FI","lat":60.28928,"lon":24.72653},{"name":"Gumböle","country":"FI","lat":60.21948,"lon":24.61684},{"name":"Haaga","country":"FI","lat":60.22132,"lon":24.89759},{"name":"Haapajärvi","country":"FI","lat":63.75,"lon":25.33333},{"name":"Haapavesi","country":"FI","lat":64.13333,"lon":25.36667},{"name":"Hailuoto","country":"FI","lat":65.009,"lon":24.71385},{"name":"Hakali","country":"FI","lat":61.07185,"lon":28.27579},{"name":"Hakkila","country":"FI","lat":60.29238,"lon":25.07346},{"name":"Hakunila","country":"FI","lat":60.27822,"lon":25.10342},{"name":"Hakuninmaa","country":"FI","lat":60.25357,"lon":24.89227},{"name":"Halikko","country":"FI","lat":60.4,"lon":23.08333},{"name":"Hallila","country":"FI","lat":61.4631,"lon":23.82939},{"name":"Halsua","country":"FI","lat":63.46667,"lon":24.16667},{"name":"Hämeenkoski","country":"FI","lat":61.02222,"lon":25.15417},{"name":"Hämeenkylä","country":"FI","lat":60.27124,"lon":24.80009},{"name":"Hämeenkyrö","country":"FI","lat":61.63913,"lon":23.19531},{"name":"Hämeenlinna","country":"FI","lat":60.99596,"lon":24.46434},{"name":"Hämevaara","country":"FI","lat":60.24842,"lon":24.80764},{"name":"Hamina","country":"FI","lat":60.56974,"lon":27.19794},{"name":"Hankasalmi","country":"FI","lat":62.38333,"lon":26.43333},{"name":"Hanko","country":"FI","lat":59.83333,"lon":22.95},{"name":"Harapainen","country":"FI","lat":61.05022,"lon":28.21104},{"name":"Harjavalta","country":"FI","lat":61.31667,"lon":22.13333},{"name":"Hartola","country":"FI","lat":61.58333,"lon":26.01667},{"name":"Hatanpää","country":"FI","lat":61.48293,"lon":23.76253},{"name":"Hauho","country":"FI","lat":61.17255,"lon":24.56303},{"name":"Haukilahti","country":"FI","lat":60.15889,"lon":24.77057},{"name":"Haukiluoma","country":"FI","lat":61.51848,"lon":23.60413},{"name":"Haukipudas","country":"FI","lat":65.17654,"lon":25.35233},{"name":"Haukivuori","country":"FI","lat":62.01753,"lon":27.21906},{"name":"Hausjärvi","country":"FI","lat":60.78333,"lon":24.93333},{"name":"Havukoski","country":"FI","lat":60.32155,"lon":25.07174},{"name":"Heikinlaakso","country":"FI","lat":60.26873,"lon":25.07379},{"name":"Heikkilänkangas","country":"FI","lat":64.96861,"lon":25.61425},{"name":"Heinävesi","country":"FI","lat":62.43333,"lon":28.6},{"name":"Heinola","country":"FI","lat":61.20564,"lon":26.03811},{"name":"Helsinki","country":"FI","lat":60.16952,"lon":24.93545},{"name":"Henttaa","country":"FI","lat":60.19027,"lon":24.72696},{"name":"Hermanni","country":"FI","lat":60.19439,"lon":24.97005},{"name":"Herttoniemen yritysalue","country":"FI","lat":60.19417,"lon":25.04303},{"name":"Herttoniemenranta","country":"FI","lat":60.19065,"lon":25.0369},{"name":"Herttoniemi","country":"FI","lat":60.19471,"lon":25.03535},{"name":"Herukka","country":"FI","lat":65.09712,"lon":25.40485},{"name":"Hervanta","country":"FI","lat":61.44792,"lon":23.85301},{"name":"Hervanta kaakko","country":"FI","lat":61.44576,"lon":23.86724},{"name":"Hervanta koillinen","country":"FI","lat":61.45617,"lon":23.86104},{"name":"Hervanta lounas","country":"FI","lat":61.4402,"lon":23.84479},{"name":"Hervanta luode","country":"FI","lat":61.4507,"lon":23.83526},{"name":"Hervantajärvi","country":"FI","lat":61.43869,"lon":23.87318},{"name":"Hevossalmi","country":"FI","lat":60.1657,"lon":25.04655},{"name":"Hiekkaharju","country":"FI","lat":60.30357,"lon":25.04411},{"name":"Hietalahti","country":"FI","lat":63.0848,"lon":21.61716},{"name":"Hiironen","country":"FI","lat":64.98416,"lon":25.52246},{"name":"Himanka","country":"FI","lat":64.06218,"lon":23.65447},{"name":"Hirvensalmi","country":"FI","lat":61.63333,"lon":26.8},{"name":"Hiukkavaara","country":"FI","lat":65.01585,"lon":25.58402},{"name":"Hollihaka","country":"FI","lat":65.00779,"lon":25.45527},{"name":"Hollola","country":"FI","lat":61.05,"lon":25.43333},{"name":"Hollola","country":"FI","lat":61,"lon":25.5},{"name":"Holvasti","country":"FI","lat":61.48342,"lon":23.92754},{"name":"Honkajoki","country":"FI","lat":61.98333,"lon":22.26667},{"name":"Houtskär","country":"FI","lat":60.22284,"lon":21.37218},{"name":"Höyhtyä","country":"FI","lat":64.99565,"lon":25.49592},{"name":"Huikas","country":"FI","lat":61.4979,"lon":23.83835},{"name":"Huittinen","country":"FI","lat":61.18333,"lon":22.7},{"name":"Humppila","country":"FI","lat":60.93333,"lon":23.36667},{"name":"Hyhky","country":"FI","lat":61.50616,"lon":23.69133},{"name":"Hyrynsalmi","country":"FI","lat":64.66667,"lon":28.53333},{"name":"Hyvinge","country":"FI","lat":60.63333,"lon":24.86667},{"name":"I kaupunginosa","country":"FI","lat":60.45223,"lon":22.28303},{"name":"Ii","country":"FI","lat":65.31735,"lon":25.3731},{"name":"III kaupunginosa","country":"FI","lat":60.44404,"lon":22.26646},{"name":"Iisalmi","country":"FI","lat":63.55915,"lon":27.19067},{"name":"Iitti","country":"FI","lat":60.89488,"lon":26.33869},{"name":"Ikaalinen","country":"FI","lat":61.76951,"lon":23.0658},{"name":"Ikuri","country":"FI","lat":61.51132,"lon":23.59417},{"name":"Ilmajoki","country":"FI","lat":62.73333,"lon":22.56667},{"name":"Ilola","country":"FI","lat":60.32657,"lon":25.01295},{"name":"Ilomantsi","country":"FI","lat":62.67162,"lon":30.93276},{"name":"Imatra","country":"FI","lat":61.17185,"lon":28.75242},{"name":"Inari","country":"FI","lat":68.90596,"lon":27.02881},{"name":"Ingå","country":"FI","lat":60.04587,"lon":24.00459},{"name":"Iniö","country":"FI","lat":60.4,"lon":21.4},{"name":"Intiö","country":"FI","lat":65.01538,"lon":25.49871},{"name":"Isojoki","country":"FI","lat":62.11319,"lon":21.95884},{"name":"Isokyrö","country":"FI","lat":63.01172,"lon":22.33332},{"name":"Itä-Hakkila","country":"FI","lat":60.29243,"lon":25.11397},{"name":"Itä-Pakila","country":"FI","lat":60.24825,"lon":24.95811},{"name":"Itä-Pasila","country":"FI","lat":60.19884,"lon":24.94008},{"name":"Itäkeskus","country":"FI","lat":60.21015,"lon":25.08144},{"name":"Ivalo","country":"FI","lat":68.65986,"lon":27.53891},{"name":"Jaala","country":"FI","lat":61.05251,"lon":26.48117},{"name":"Jääli","country":"FI","lat":65.09296,"lon":25.68518},{"name":"Jakobstad","country":"FI","lat":63.67486,"lon":22.70256},{"name":"Jakomäki","country":"FI","lat":60.2594,"lon":25.07801},{"name":"Jalasjärvi","country":"FI","lat":62.49018,"lon":22.75901},{"name":"Jämijärvi","country":"FI","lat":61.81667,"lon":22.7},{"name":"Jämsä","country":"FI","lat":61.8642,"lon":25.19002},{"name":"Jämsänkoski","country":"FI","lat":61.919,"lon":25.17011},{"name":"Janakkala","country":"FI","lat":60.9,"lon":24.6},{"name":"Jäppilä","country":"FI","lat":62.37899,"lon":27.43372},{"name":"Järvelä","country":"FI","lat":60.86667,"lon":25.28333},{"name":"Järvenpää","country":"FI","lat":60.47369,"lon":25.08992},{"name":"Järvenperä","country":"FI","lat":60.24169,"lon":24.71357},{"name":"Järvensivu","country":"FI","lat":61.48912,"lon":23.80205},{"name":"Jätkäsaari","country":"FI","lat":60.15857,"lon":24.91691},{"name":"Joensuu","country":"FI","lat":62.60118,"lon":29.76316},{"name":"Jokela","country":"FI","lat":60.55413,"lon":24.96296},{"name":"Jokiniemi","country":"FI","lat":60.5665,"lon":26.45833},{"name":"Jokiniemi","country":"FI","lat":60.29826,"lon":25.05677},{"name":"Jokioinen","country":"FI","lat":60.80162,"lon":23.48004},{"name":"Jokipohja","country":"FI","lat":61.47858,"lon":23.80828},{"name":"Jollas","country":"FI","lat":60.1628,"lon":25.07361},{"name":"Joroinen","country":"FI","lat":62.17823,"lon":27.83165},{"name":"Joutsa","country":"FI","lat":61.73333,"lon":26.11667},{"name":"Joutseno","country":"FI","lat":61.11796,"lon":28.50763},{"name":"Juankoski","country":"FI","lat":63.06475,"lon":28.32917},{"name":"Juhannuskylä","country":"FI","lat":61.50239,"lon":23.76935},{"name":"Jurva","country":"FI","lat":62.68333,"lon":21.98333},{"name":"Juuka","country":"FI","lat":63.23333,"lon":29.25},{"name":"Juupajoki","country":"FI","lat":61.79901,"lon":24.36939},{"name":"Juva","country":"FI","lat":61.9,"lon":27.85},{"name":"Jyväskylä","country":"FI","lat":62.24147,"lon":25.72088},{"name":"Kaakinmaa","country":"FI","lat":61.49435,"lon":23.74786},{"name":"Kaakkuri","country":"FI","lat":64.96038,"lon":25.53049},{"name":"Kaarela","country":"FI","lat":60.25174,"lon":24.88111},{"name":"Kaarila","country":"FI","lat":61.5028,"lon":23.65708},{"name":"Kaarina","country":"FI","lat":60.40724,"lon":22.36904},{"name":"Kaartinkaupunki","country":"FI","lat":60.16501,"lon":24.94692},{"name":"Kaavi","country":"FI","lat":62.98333,"lon":28.5},{"name":"Kaijonharju","country":"FI","lat":65.0599,"lon":25.48047},{"name":"Kaitaa","country":"FI","lat":60.14556,"lon":24.68705},{"name":"Kaivoksela","country":"FI","lat":60.26767,"lon":24.86871},{"name":"Kajaani","country":"FI","lat":64.22728,"lon":27.72846},{"name":"Kalajärvi","country":"FI","lat":60.30476,"lon":24.73718},{"name":"Kalajoki","country":"FI","lat":64.25,"lon":23.95},{"name":"Kalasatama","country":"FI","lat":60.18515,"lon":24.97934},{"name":"Kaleva","country":"FI","lat":61.49834,"lon":23.80543},{"name":"Kalevanharju","country":"FI","lat":61.49348,"lon":23.78477},{"name":"Kalevanrinne","country":"FI","lat":61.49334,"lon":23.81034},{"name":"Kalkku","country":"FI","lat":61.49609,"lon":23.57964},{"name":"Kallahti","country":"FI","lat":60.19289,"lon":25.13682},{"name":"Kållby","country":"FI","lat":63.62542,"lon":22.89594},{"name":"Kallio","country":"FI","lat":60.18427,"lon":24.95034},{"name":"Kälviä","country":"FI","lat":63.86067,"lon":23.45289},{"name":"Kalvola","country":"FI","lat":61.10081,"lon":24.12177},{"name":"Kämmenniemi","country":"FI","lat":61.62982,"lon":23.83724},{"name":"Kamppi","country":"FI","lat":60.1676,"lon":24.93038},{"name":"Kangasala","country":"FI","lat":61.46383,"lon":24.07602},{"name":"Kangaslampi","country":"FI","lat":62.29563,"lon":28.25289},{"name":"Kangasniemi","country":"FI","lat":61.99357,"lon":26.64785},{"name":"Kankaanpää","country":"FI","lat":61.8,"lon":22.41667},{"name":"Kannelmäki","country":"FI","lat":60.24181,"lon":24.88575},{"name":"Kannonkoski","country":"FI","lat":62.96667,"lon":25.25},{"name":"Kannus","country":"FI","lat":63.9,"lon":23.9},{"name":"Käpylä","country":"FI","lat":60.21287,"lon":24.94822},{"name":"Karakallio","country":"FI","lat":60.23254,"lon":24.76083},{"name":"Karhula","country":"FI","lat":60.52156,"lon":26.93125},{"name":"Karhusuo","country":"FI","lat":60.22767,"lon":24.62337},{"name":"Karhuvuori","country":"FI","lat":61.04443,"lon":28.24405},{"name":"Karijoki","country":"FI","lat":62.30851,"lon":21.70856},{"name":"Karinaisten Kirkonkylä","country":"FI","lat":60.67089,"lon":22.77345},{"name":"Karis","country":"FI","lat":60.07178,"lon":23.66163},{"name":"Karjalohja","country":"FI","lat":60.24015,"lon":23.71789},{"name":"Karjasilta","country":"FI","lat":64.99906,"lon":25.49051},{"name":"Karkkila","country":"FI","lat":60.53418,"lon":24.20977},{"name":"Kärkölä","country":"FI","lat":60.91667,"lon":25.25},{"name":"Kärkölä","country":"FI","lat":60.61292,"lon":23.94196},{"name":"Kärsämäki","country":"FI","lat":63.96667,"lon":25.76667},{"name":"Karstula","country":"FI","lat":62.86667,"lon":24.78333},{"name":"Karttula","country":"FI","lat":62.8963,"lon":26.97045},{"name":"Karvia","country":"FI","lat":62.2,"lon":22.65},{"name":"Karvia","country":"FI","lat":62.13333,"lon":22.56667},{"name":"Kaskinen","country":"FI","lat":62.38444,"lon":21.22331},{"name":"Katajanokka","country":"FI","lat":60.16587,"lon":24.97133},{"name":"Kauhajoki","country":"FI","lat":62.43333,"lon":22.18333},{"name":"Kauhava","country":"FI","lat":63.10299,"lon":23.07129},{"name":"Kaukajärvi","country":"FI","lat":61.46752,"lon":23.88493},{"name":"Kauklahti","country":"FI","lat":60.19274,"lon":24.60045},{"name":"Kaukovainio","country":"FI","lat":64.99206,"lon":25.518},{"name":"Kauniainen","country":"FI","lat":60.21209,"lon":24.72756},{"name":"Kaupunginkallio","country":"FI","lat":60.19847,"lon":24.64722},{"name":"Kaustinen","country":"FI","lat":63.54878,"lon":23.68845},{"name":"Keimola","country":"FI","lat":60.33833,"lon":24.8164},{"name":"Keitele","country":"FI","lat":63.18333,"lon":26.36667},{"name":"Kello","country":"FI","lat":65.1285,"lon":25.3567},{"name":"Kellokoski","country":"FI","lat":60.53271,"lon":25.10917},{"name":"Kemi","country":"FI","lat":65.73641,"lon":24.56371},{"name":"Kemijärvi","country":"FI","lat":66.71309,"lon":27.43056},{"name":"Keminmaa","country":"FI","lat":65.80158,"lon":24.54483},{"name":"Kempele","country":"FI","lat":64.91314,"lon":25.50339},{"name":"Kerava","country":"FI","lat":60.40338,"lon":25.105},{"name":"Kerimäki","country":"FI","lat":61.91069,"lon":29.28228},{"name":"Kesälahti","country":"FI","lat":61.89752,"lon":29.83494},{"name":"Kestilä","country":"FI","lat":64.35002,"lon":26.27921},{"name":"Keuruu","country":"FI","lat":62.26667,"lon":24.7},{"name":"Kihniö","country":"FI","lat":62.2,"lon":23.18333},{"name":"Kiihtelysvaara","country":"FI","lat":62.49525,"lon":30.25081},{"name":"Kiikala","country":"FI","lat":60.46667,"lon":23.56667},{"name":"Kiikoinen","country":"FI","lat":61.45385,"lon":22.57699},{"name":"Kiiminki","country":"FI","lat":65.13139,"lon":25.79744},{"name":"Kilo","country":"FI","lat":60.21746,"lon":24.78151},{"name":"Kimito","country":"FI","lat":60.16047,"lon":22.729},{"name":"Kimpinen","country":"FI","lat":61.06318,"lon":28.19997},{"name":"Kinnula","country":"FI","lat":63.38333,"lon":24.95},{"name":"Kinnula","country":"FI","lat":63.36667,"lon":24.96667},{"name":"Kirkkonummi","country":"FI","lat":60.12381,"lon":24.43853},{"name":"Kisko","country":"FI","lat":60.23333,"lon":23.48333},{"name":"Kissanmaa","country":"FI","lat":61.49976,"lon":23.81612},{"name":"Kitee","country":"FI","lat":62.1,"lon":30.15},{"name":"Kittilä","country":"FI","lat":67.66474,"lon":24.89356},{"name":"Kiukainen","country":"FI","lat":61.21667,"lon":22.08333},{"name":"Kiuruvesi","country":"FI","lat":63.65,"lon":26.61667},{"name":"Kivenlahti","country":"FI","lat":60.15372,"lon":24.63264},{"name":"Kivijärvi","country":"FI","lat":63.11984,"lon":25.07835},{"name":"Kivikko","country":"FI","lat":60.23483,"lon":25.06016},{"name":"Kiviniemi","country":"FI","lat":64.96795,"lon":25.50016},{"name":"Kivisalmi","country":"FI","lat":61.09058,"lon":28.14551},{"name":"Kivistö","country":"FI","lat":60.32572,"lon":24.83839},{"name":"Klaukkala","country":"FI","lat":60.38244,"lon":24.751},{"name":"Koivistonkylä","country":"FI","lat":61.47084,"lon":23.79141},{"name":"Koivuhaka","country":"FI","lat":60.29836,"lon":25.00379},{"name":"Koivukylä","country":"FI","lat":60.32236,"lon":25.05861},{"name":"Kokemäki","country":"FI","lat":61.25647,"lon":22.35643},{"name":"Kokkola","country":"FI","lat":63.83847,"lon":23.13066},{"name":"Kolari","country":"FI","lat":67.33047,"lon":23.77785},{"name":"Konala","country":"FI","lat":60.23713,"lon":24.84489},{"name":"Konepaja","country":"FI","lat":60.1938,"lon":24.94491},{"name":"Konnevesi","country":"FI","lat":62.61667,"lon":26.31667},{"name":"Kontiolahti","country":"FI","lat":62.76023,"lon":29.84711},{"name":"Kontula","country":"FI","lat":60.23764,"lon":25.08393},{"name":"Koria","country":"FI","lat":60.84614,"lon":26.60755},{"name":"Korkinmäki","country":"FI","lat":61.47239,"lon":23.82719},{"name":"Korpilahti","country":"FI","lat":62.01667,"lon":25.55},{"name":"Korsholm","country":"FI","lat":63.11418,"lon":21.68216},{"name":"Korsnäs","country":"FI","lat":62.78333,"lon":21.2},{"name":"Korso","country":"FI","lat":60.35107,"lon":25.07805},{"name":"Kortesjärvi","country":"FI","lat":63.3,"lon":23.16667},{"name":"Korvenkylä","country":"FI","lat":61.18113,"lon":28.70036},{"name":"Korvensuora","country":"FI","lat":65.03897,"lon":25.57686},{"name":"Koskela","country":"FI","lat":60.21846,"lon":24.96677},{"name":"Koskela","country":"FI","lat":65.04509,"lon":25.44528},{"name":"Koski Tl","country":"FI","lat":60.65,"lon":23.15},{"name":"Kotka","country":"FI","lat":60.4664,"lon":26.94582},{"name":"Kotkavuori","country":"FI","lat":60.1631,"lon":24.88414},{"name":"Koukkuniemi","country":"FI","lat":60.15261,"lon":24.76467},{"name":"Kourula","country":"FI","lat":61.04628,"lon":28.13069},{"name":"Kouvola","country":"FI","lat":60.86667,"lon":26.7},{"name":"Köyliö","country":"FI","lat":61.1191,"lon":22.30976},{"name":"Kristinestad","country":"FI","lat":62.27429,"lon":21.37596},{"name":"Kronoby","country":"FI","lat":63.72859,"lon":23.03387},{"name":"Kruununhaka","country":"FI","lat":60.17174,"lon":24.9566},{"name":"Kruunuvuorenranta","country":"FI","lat":60.16721,"lon":25.01891},{"name":"Kuhmalahden Kirkonkylä","country":"FI","lat":61.5046,"lon":24.56048},{"name":"Kuhmo","country":"FI","lat":64.13333,"lon":29.51667},{"name":"Kuhmoinen","country":"FI","lat":61.56667,"lon":25.18333},{"name":"Kuivaniemi","country":"FI","lat":65.57847,"lon":25.18814},{"name":"Kuivasjärvi","country":"FI","lat":65.06978,"lon":25.49695},{"name":"Kullaa","country":"FI","lat":61.46998,"lon":22.16145},{"name":"Kulosaari","country":"FI","lat":60.18572,"lon":25.00516},{"name":"Kumpula","country":"FI","lat":60.20942,"lon":24.96424},{"name":"Kuninkaala","country":"FI","lat":60.28481,"lon":25.04557},{"name":"Kuninkaantammi","country":"FI","lat":60.26091,"lon":24.8894},{"name":"Kuopio","country":"FI","lat":62.89238,"lon":27.67703},{"name":"Kuortane","country":"FI","lat":62.8,"lon":23.5},{"name":"Kurikka","country":"FI","lat":62.61667,"lon":22.41667},{"name":"Kurkimäki","country":"FI","lat":60.23325,"lon":25.06745},{"name":"Kurttila","country":"FI","lat":60.17806,"lon":24.60311},{"name":"Kuru","country":"FI","lat":61.87558,"lon":23.71948},{"name":"Kustavi","country":"FI","lat":60.54529,"lon":21.3588},{"name":"Kuurinniitty","country":"FI","lat":60.19778,"lon":24.70039},{"name":"Kuusamo","country":"FI","lat":65.96447,"lon":29.18878},{"name":"Kuusimäki","country":"FI","lat":61.05029,"lon":28.14033},{"name":"Kuusjoki","country":"FI","lat":60.51667,"lon":23.2},{"name":"Kylmäkoski","country":"FI","lat":61.154,"lon":23.68858},{"name":"Kylpylä","country":"FI","lat":61.05983,"lon":28.19081},{"name":"Kynsilehto","country":"FI","lat":65.03037,"lon":25.53919},{"name":"Kyrö","country":"FI","lat":60.7,"lon":22.75},{"name":"Kyttälä","country":"FI","lat":61.49841,"lon":23.76942},{"name":"Kyyjärvi","country":"FI","lat":63.03333,"lon":24.56667},{"name":"Laajalahti","country":"FI","lat":60.20076,"lon":24.80352},{"name":"Laajasalo","country":"FI","lat":60.17521,"lon":25.03086},{"name":"Laakso","country":"FI","lat":60.19219,"lon":24.91364},{"name":"Laaksolahti","country":"FI","lat":60.24164,"lon":24.75855},{"name":"Laanila","country":"FI","lat":65.02383,"lon":25.50785},{"name":"Lahti","country":"FI","lat":60.98267,"lon":25.66151},{"name":"Laihia","country":"FI","lat":62.97609,"lon":22.01143},{"name":"Laihia","country":"FI","lat":61.0864,"lon":28.32284},{"name":"Laitila","country":"FI","lat":60.87575,"lon":21.69765},{"name":"Lammi","country":"FI","lat":61.08333,"lon":25.01667},{"name":"Lamminpää","country":"FI","lat":61.51963,"lon":23.62618},{"name":"Längelmäki","country":"FI","lat":61.65,"lon":22.1},{"name":"Länsi-Herttoniemi","country":"FI","lat":60.20744,"lon":25.03981},{"name":"Länsi-Pakila","country":"FI","lat":60.24152,"lon":24.92695},{"name":"Länsi-Pasila","country":"FI","lat":60.19863,"lon":24.92309},{"name":"Länsimäki","country":"FI","lat":60.24633,"lon":25.11775},{"name":"Länsiranta","country":"FI","lat":60.43923,"lon":22.23581},{"name":"Länsisatama","country":"FI","lat":60.15525,"lon":24.91473},{"name":"Lapinjärvi","country":"FI","lat":60.62443,"lon":26.1972},{"name":"Lapinkylä","country":"FI","lat":60.22192,"lon":24.45485},{"name":"Lapinlahti","country":"FI","lat":63.36667,"lon":27.4},{"name":"Lapinniemi","country":"FI","lat":61.51252,"lon":23.77667},{"name":"Lappajärvi","country":"FI","lat":63.2,"lon":23.63333},{"name":"Lappeenranta","country":"FI","lat":61.05871,"lon":28.18871},{"name":"Lappi","country":"FI","lat":61.1,"lon":21.83333},{"name":"Lapua","country":"FI","lat":62.96927,"lon":23.0088},{"name":"Larsmo","country":"FI","lat":63.75388,"lon":22.74728},{"name":"Lassila","country":"FI","lat":60.23189,"lon":24.87734},{"name":"Latokartano","country":"FI","lat":60.22624,"lon":25.02692},{"name":"Latokaski","country":"FI","lat":60.17785,"lon":24.65813},{"name":"Laukaa","country":"FI","lat":62.41407,"lon":25.95194},{"name":"Laurinlahti","country":"FI","lat":60.14564,"lon":24.64307},{"name":"Lauritsala","country":"FI","lat":61.07191,"lon":28.25915},{"name":"Lautiosaari","country":"FI","lat":65.79912,"lon":24.57968},{"name":"Lauttasaari","country":"FI","lat":60.15896,"lon":24.86797},{"name":"Lavia","country":"FI","lat":61.59659,"lon":22.58726},{"name":"Lehtisaari","country":"FI","lat":60.17972,"lon":24.85167},{"name":"Leinola","country":"FI","lat":61.48617,"lon":23.90093},{"name":"Leiri","country":"FI","lat":61.05583,"lon":28.17787},{"name":"Leivonmäki","country":"FI","lat":61.91198,"lon":26.12796},{"name":"Lemi","country":"FI","lat":61.06244,"lon":27.80571},{"name":"Lempäälä","country":"FI","lat":61.31667,"lon":23.75},{"name":"Lemu","country":"FI","lat":60.56667,"lon":21.96667},{"name":"Lentävänniemi","country":"FI","lat":61.52801,"lon":23.70575},{"name":"Leppäkorpi","country":"FI","lat":60.36266,"lon":25.09346},{"name":"Leppävaara","country":"FI","lat":60.21283,"lon":24.81348},{"name":"Leppävirta","country":"FI","lat":62.49009,"lon":27.78262},{"name":"Lestijärvi","country":"FI","lat":63.53333,"lon":24.65},{"name":"Leveri","country":"FI","lat":65.00431,"lon":25.46467},{"name":"Lidmalmen","country":"FI","lat":60.26801,"lon":24.99878},{"name":"Lieksa","country":"FI","lat":63.31667,"lon":30.01667},{"name":"Lieto","country":"FI","lat":60.51032,"lon":22.46176},{"name":"Liisankallio","country":"FI","lat":61.4991,"lon":23.7923},{"name":"Liljendal","country":"FI","lat":60.57346,"lon":26.05257},{"name":"Limingantulli","country":"FI","lat":64.99598,"lon":25.46452},{"name":"Liminka","country":"FI","lat":64.80985,"lon":25.41545},{"name":"Linjat","country":"FI","lat":60.18331,"lon":24.9465},{"name":"Linnainmaa","country":"FI","lat":61.49502,"lon":23.88617},{"name":"Linnanmaa","country":"FI","lat":65.05559,"lon":25.46639},{"name":"Linnoitus","country":"FI","lat":61.06647,"lon":28.18225},{"name":"Lintulampi","country":"FI","lat":61.52696,"lon":23.6706},{"name":"Lintuvaara","country":"FI","lat":60.2344,"lon":24.81348},{"name":"Liperi","country":"FI","lat":62.53333,"lon":29.36667},{"name":"Lippajärvi","country":"FI","lat":60.23052,"lon":24.71623},{"name":"Lohja","country":"FI","lat":60.24859,"lon":24.06534},{"name":"Lohtaja","country":"FI","lat":64.02472,"lon":23.50482},{"name":"Loimaa","country":"FI","lat":60.84972,"lon":23.0561},{"name":"Loppi","country":"FI","lat":60.71667,"lon":24.45},{"name":"Lovisa","country":"FI","lat":60.45659,"lon":26.22505},{"name":"Luhanka","country":"FI","lat":61.79682,"lon":25.70457},{"name":"Lukonmäki","country":"FI","lat":61.46873,"lon":23.84583},{"name":"Lumijoki","country":"FI","lat":64.83744,"lon":25.18607},{"name":"Luopioinen","country":"FI","lat":61.36293,"lon":24.66781},{"name":"Luumäki","country":"FI","lat":60.92618,"lon":27.58135},{"name":"Luvia","country":"FI","lat":61.36375,"lon":21.62556},{"name":"Maaninka","country":"FI","lat":63.15523,"lon":27.29939},{"name":"Maikkula","country":"FI","lat":64.98357,"lon":25.5686},{"name":"Malax","country":"FI","lat":62.94225,"lon":21.57311},{"name":"Malmin lentokenttä","country":"FI","lat":60.25131,"lon":25.04402},{"name":"Malminkartano","country":"FI","lat":60.24739,"lon":24.86163},{"name":"Mankkaa","country":"FI","lat":60.19424,"lon":24.76996},{"name":"Mäntsälä","country":"FI","lat":60.63333,"lon":25.31667},{"name":"Mänttä","country":"FI","lat":62.03014,"lon":24.62791},{"name":"Mäntyharju","country":"FI","lat":61.41667,"lon":26.88333},{"name":"Mäntylä","country":"FI","lat":64.98228,"lon":25.49665},{"name":"Marjaniemi","country":"FI","lat":60.2018,"lon":25.08275},{"name":"Martinlaakso","country":"FI","lat":60.27409,"lon":24.85065},{"name":"Martinniemi","country":"FI","lat":65.21241,"lon":25.30941},{"name":"Martti","country":"FI","lat":60.44164,"lon":22.25444},{"name":"Marttila","country":"FI","lat":60.58333,"lon":22.9},{"name":"Masku","country":"FI","lat":60.57082,"lon":22.09883},{"name":"Matari","country":"FI","lat":60.3394,"lon":25.08865},{"name":"Matinkylä","country":"FI","lat":60.15885,"lon":24.74241},{"name":"Maunula","country":"FI","lat":60.22873,"lon":24.93081},{"name":"Maununneva","country":"FI","lat":60.25028,"lon":24.90595},{"name":"Meilahti","country":"FI","lat":60.18982,"lon":24.89717},{"name":"Mellilä","country":"FI","lat":60.76667,"lon":22.95},{"name":"Mellunkylä","country":"FI","lat":60.23355,"lon":25.09947},{"name":"Mellunmäki","country":"FI","lat":60.23751,"lon":25.11552},{"name":"Meri-Rastila","country":"FI","lat":60.19972,"lon":25.11857},{"name":"Merijärvi","country":"FI","lat":64.3,"lon":24.45},{"name":"Merikarvia","country":"FI","lat":61.85839,"lon":21.50035},{"name":"Merimasku","country":"FI","lat":60.48333,"lon":21.86667},{"name":"Metsälä","country":"FI","lat":60.22298,"lon":24.94034},{"name":"Metsola","country":"FI","lat":60.34848,"lon":25.09003},{"name":"Miehikkälä","country":"FI","lat":60.66667,"lon":27.7},{"name":"Mietoinen","country":"FI","lat":60.63333,"lon":21.93333},{"name":"Mikkeli","country":"FI","lat":61.68857,"lon":27.27227},{"name":"Mikkola","country":"FI","lat":60.34075,"lon":25.09981},{"name":"Monninkylä","country":"FI","lat":60.49533,"lon":25.53979},{"name":"Mouhijärvi","country":"FI","lat":61.5,"lon":23.01667},{"name":"Muhos","country":"FI","lat":64.80798,"lon":25.99314},{"name":"Muhos","country":"FI","lat":64.76667,"lon":26.1},{"name":"Multia","country":"FI","lat":62.41667,"lon":24.78333},{"name":"Multisilta","country":"FI","lat":61.43829,"lon":23.75143},{"name":"Munkkiniemi","country":"FI","lat":60.19861,"lon":24.87772},{"name":"Munkkisaari","country":"FI","lat":60.157,"lon":24.92792},{"name":"Munkkivuori","country":"FI","lat":60.2058,"lon":24.87597},{"name":"Muonio","country":"FI","lat":67.95546,"lon":23.68258},{"name":"Muotiala","country":"FI","lat":61.47732,"lon":23.81992},{"name":"Muurala","country":"FI","lat":60.2127,"lon":24.64251},{"name":"Muurame","country":"FI","lat":62.13333,"lon":25.66667},{"name":"Muurla","country":"FI","lat":60.35,"lon":23.28333},{"name":"Myllymäki","country":"FI","lat":60.9616,"lon":28.0304},{"name":"Myllyoja","country":"FI","lat":65.01908,"lon":25.55286},{"name":"Myllypuro","country":"FI","lat":60.22207,"lon":25.06741},{"name":"Myllytulli","country":"FI","lat":65.01578,"lon":25.48313},{"name":"Mynämäki","country":"FI","lat":60.67915,"lon":21.99274},{"name":"Myrskylä","country":"FI","lat":60.66965,"lon":25.8475},{"name":"Myyrmäki","country":"FI","lat":60.26711,"lon":24.84713},{"name":"Naantali","country":"FI","lat":60.46744,"lon":22.02428},{"name":"Nagu","country":"FI","lat":60.19375,"lon":21.90972},{"name":"Nakkila","country":"FI","lat":61.36667,"lon":22},{"name":"Nalkala","country":"FI","lat":61.4951,"lon":23.75802},{"name":"Närpes","country":"FI","lat":62.47283,"lon":21.33707},{"name":"Nastola","country":"FI","lat":60.94797,"lon":25.92882},{"name":"Nekala","country":"FI","lat":61.48417,"lon":23.79296},{"name":"Nickby","country":"FI","lat":60.38333,"lon":25.28333},{"name":"Niemenmäki","country":"FI","lat":60.204,"lon":24.88481},{"name":"Niemenranta","country":"FI","lat":61.5217,"lon":23.68926},{"name":"Niemi","country":"FI","lat":61.5272,"lon":23.68841},{"name":"Niipperi","country":"FI","lat":60.28647,"lon":24.73967},{"name":"Niittykumpu","country":"FI","lat":60.17093,"lon":24.76421},{"name":"Nikinmäki","country":"FI","lat":60.34071,"lon":25.13878},{"name":"Nilsiä","country":"FI","lat":63.20746,"lon":28.08222},{"name":"Nivala","country":"FI","lat":63.91667,"lon":24.96667},{"name":"Nivavaara","country":"FI","lat":66.53333,"lon":25.83333},{"name":"Nokia","country":"FI","lat":61.46667,"lon":23.5},{"name":"Noormarkku","country":"FI","lat":61.59274,"lon":21.86846},{"name":"Nousiainen","country":"FI","lat":60.60416,"lon":22.07926},{"name":"Nöykkiö","country":"FI","lat":60.16073,"lon":24.66808},{"name":"Nuijamaa","country":"FI","lat":60.96011,"lon":28.55104},{"name":"Nurmes","country":"FI","lat":63.54205,"lon":29.13965},{"name":"Nurmijärven kirkonkylä","country":"FI","lat":60.4596,"lon":24.80629},{"name":"Nurmijärvi","country":"FI","lat":60.46407,"lon":24.8073},{"name":"Nykarleby","country":"FI","lat":63.52277,"lon":22.53073},{"name":"Oitti","country":"FI","lat":60.78333,"lon":25.03333},{"name":"Ojakkala","country":"FI","lat":60.36881,"lon":24.38425},{"name":"Olari","country":"FI","lat":60.17239,"lon":24.72713},{"name":"Olkahinen","country":"FI","lat":61.52526,"lon":23.94325},{"name":"Oravais","country":"FI","lat":63.30135,"lon":22.37821},{"name":"Orimattila","country":"FI","lat":60.80487,"lon":25.72964},{"name":"Oripää","country":"FI","lat":60.85,"lon":22.68333},{"name":"Orivesi","country":"FI","lat":61.67766,"lon":24.3572},{"name":"Osmonmäki","country":"FI","lat":61.50557,"lon":23.77937},{"name":"Otaniemi","country":"FI","lat":60.18395,"lon":24.82786},{"name":"Oulainen","country":"FI","lat":64.26667,"lon":24.8},{"name":"Oulu","country":"FI","lat":65.01236,"lon":25.46816},{"name":"Oulunkylä","country":"FI","lat":60.22924,"lon":24.96403},{"name":"Oulunsalo","country":"FI","lat":64.93456,"lon":25.41121},{"name":"Oulunsuu","country":"FI","lat":65.0086,"lon":25.52759},{"name":"Outokumpu","country":"FI","lat":62.72685,"lon":29.01592},{"name":"Padasjoki","country":"FI","lat":61.35,"lon":25.28333},{"name":"Paimio","country":"FI","lat":60.45671,"lon":22.68694},{"name":"Päiväkumpu","country":"FI","lat":60.32727,"lon":25.10479},{"name":"Pajamäki","country":"FI","lat":60.21779,"lon":24.85872},{"name":"Pakila","country":"FI","lat":60.24327,"lon":24.94867},{"name":"Pakkala","country":"FI","lat":60.28613,"lon":24.95733},{"name":"Pälkäne","country":"FI","lat":61.33424,"lon":24.27197},{"name":"Pallo","country":"FI","lat":61.0651,"lon":28.16809},{"name":"Paloheinä","country":"FI","lat":60.25361,"lon":24.92832},{"name":"Paltamo","country":"FI","lat":64.41667,"lon":27.83333},{"name":"Pappila","country":"FI","lat":61.49609,"lon":23.86908},{"name":"Pargas","country":"FI","lat":60.30672,"lon":22.30097},{"name":"Parikkala","country":"FI","lat":61.55,"lon":29.5},{"name":"Parkano","country":"FI","lat":62.01667,"lon":23.01667},{"name":"Parola","country":"FI","lat":61.04624,"lon":24.35463},{"name":"Pasila","country":"FI","lat":60.19897,"lon":24.93218},{"name":"Pateniemi","country":"FI","lat":65.07936,"lon":25.40889},{"name":"Patola","country":"FI","lat":60.23265,"lon":24.95373},{"name":"Pedersöre","country":"FI","lat":63.65,"lon":22.68333},{"name":"Pelkosenniemi","country":"FI","lat":67.11083,"lon":27.51056},{"name":"Pello","country":"FI","lat":66.77364,"lon":23.96255},{"name":"Peltola","country":"FI","lat":65.01324,"lon":25.51437},{"name":"Peltola","country":"FI","lat":61.05471,"lon":28.19457},{"name":"Peltolammi","country":"FI","lat":61.45352,"lon":23.74771},{"name":"Perho","country":"FI","lat":63.21667,"lon":24.41667},{"name":"Pernå","country":"FI","lat":60.44869,"lon":26.03187},{"name":"Perniö","country":"FI","lat":60.2,"lon":23.13333},{"name":"Pertteli","country":"FI","lat":60.43333,"lon":23.26667},{"name":"Pertunmaa","country":"FI","lat":61.5,"lon":26.48333},{"name":"Petäjävesi","country":"FI","lat":62.25,"lon":25.2},{"name":"Petsamo","country":"FI","lat":61.50722,"lon":23.79656},{"name":"Pieksämäki","country":"FI","lat":62.3,"lon":27.13333},{"name":"Pielavesi","country":"FI","lat":63.23333,"lon":26.75},{"name":"Pihlajamäki","country":"FI","lat":60.23593,"lon":25.01132},{"name":"Pihlajisto","country":"FI","lat":60.23102,"lon":25.00134},{"name":"Pihtipudas","country":"FI","lat":63.38333,"lon":25.56667},{"name":"Piikkiö","country":"FI","lat":60.42481,"lon":22.51601},{"name":"Piippola","country":"FI","lat":64.16667,"lon":25.96667},{"name":"Pikku-Huopalahti","country":"FI","lat":60.20499,"lon":24.89545},{"name":"Pirkkala","country":"FI","lat":61.46125,"lon":23.63228},{"name":"Pispala","country":"FI","lat":61.50434,"lon":23.7083},{"name":"Pitäjänmäen yritysalue","country":"FI","lat":60.2216,"lon":24.87232},{"name":"Pitäjänmäki","country":"FI","lat":60.22287,"lon":24.86103},{"name":"Pohja","country":"FI","lat":60.09626,"lon":23.52757},{"name":"Pohjois-Haaga","country":"FI","lat":60.22694,"lon":24.89605},{"name":"Pohjois-Hervanta","country":"FI","lat":61.45347,"lon":23.84744},{"name":"Pohjois-Kyttälä","country":"FI","lat":61.50011,"lon":23.7686},{"name":"Pohjois-Tapiola","country":"FI","lat":60.18694,"lon":24.797},{"name":"Pohtola","country":"FI","lat":61.5373,"lon":23.67579},{"name":"Pokkinen","country":"FI","lat":65.01306,"lon":25.47253},{"name":"Polvijärvi","country":"FI","lat":62.85,"lon":29.36667},{"name":"Pomarkku","country":"FI","lat":61.69348,"lon":22.00862},{"name":"Pori","country":"FI","lat":61.48333,"lon":21.78333},{"name":"Pornainen","country":"FI","lat":60.47581,"lon":25.3749},{"name":"Port Arthur","country":"FI","lat":60.44736,"lon":22.24247},{"name":"Porvoo","country":"FI","lat":60.39233,"lon":25.66507},{"name":"Posio","country":"FI","lat":66.10856,"lon":28.17186},{"name":"Pöytyä","country":"FI","lat":60.76667,"lon":22.66667},{"name":"Pudasjärvi","country":"FI","lat":65.38333,"lon":26.91667},{"name":"Puistola","country":"FI","lat":60.27115,"lon":25.04703},{"name":"Pukinmäki","country":"FI","lat":60.2448,"lon":24.989},{"name":"Pukkila","country":"FI","lat":60.644,"lon":25.5821},{"name":"Pulkkila","country":"FI","lat":64.26667,"lon":25.86667},{"name":"Punavuori","country":"FI","lat":60.16137,"lon":24.93673},{"name":"Punkaharju","country":"FI","lat":61.75883,"lon":29.38843},{"name":"Punkalaidun","country":"FI","lat":61.11667,"lon":23.1},{"name":"Puolanka","country":"FI","lat":64.86667,"lon":27.66667},{"name":"Puolivälinkangas","country":"FI","lat":65.04162,"lon":25.48493},{"name":"Puotila","country":"FI","lat":60.21165,"lon":25.10829},{"name":"Puotinharju","country":"FI","lat":60.21283,"lon":25.0787},{"name":"Puumala","country":"FI","lat":61.52728,"lon":28.17495},{"name":"Pyhäjärvi","country":"FI","lat":67.0701,"lon":27.21763},{"name":"Pyhäjärvi","country":"FI","lat":63.68125,"lon":25.9812},{"name":"Pyhäjoki","country":"FI","lat":64.46667,"lon":24.23333},{"name":"Pyhäntä","country":"FI","lat":64.1,"lon":26.31667},{"name":"Pyhäranta","country":"FI","lat":60.95,"lon":21.45},{"name":"Pyhäsalmi","country":"FI","lat":63.68333,"lon":25.98333},{"name":"Pyhäselkä","country":"FI","lat":62.43333,"lon":29.96667},{"name":"Pyhtää","country":"FI","lat":60.49349,"lon":26.54346},{"name":"Pylkönmäki","country":"FI","lat":62.66667,"lon":24.8},{"name":"Pyykösjärvi","country":"FI","lat":65.04256,"lon":25.49583},{"name":"Pyynikinrinne","country":"FI","lat":61.49641,"lon":23.74145},{"name":"Raahe","country":"FI","lat":64.68333,"lon":24.48333},{"name":"Rääkkylä","country":"FI","lat":62.31667,"lon":29.61667},{"name":"Rahola","country":"FI","lat":61.49805,"lon":23.63863},{"name":"Raisio","country":"FI","lat":60.48592,"lon":22.16895},{"name":"Rajakylä","country":"FI","lat":60.24952,"lon":25.09586},{"name":"Rajakylä","country":"FI","lat":65.06553,"lon":25.42116},{"name":"Raksila","country":"FI","lat":65.00904,"lon":25.49326},{"name":"Rantaperkiö","country":"FI","lat":61.47033,"lon":23.75559},{"name":"Rantasalmi","country":"FI","lat":62.06667,"lon":28.3},{"name":"Rantsila","country":"FI","lat":64.50613,"lon":25.66449},{"name":"Ranua","country":"FI","lat":65.91667,"lon":26.53333},{"name":"Rastila","country":"FI","lat":60.2103,"lon":25.1182},{"name":"Ratina","country":"FI","lat":61.49319,"lon":23.7651},{"name":"Rauma","country":"FI","lat":61.12724,"lon":21.51127},{"name":"Rautalampi","country":"FI","lat":62.63333,"lon":26.83333},{"name":"Rautavaara","country":"FI","lat":63.48333,"lon":28.3},{"name":"Rautjärvi","country":"FI","lat":61.43459,"lon":29.37151},{"name":"Reimarla","country":"FI","lat":60.2279,"lon":24.85262},{"name":"Reisjärvi","country":"FI","lat":63.61667,"lon":24.9},{"name":"Rekola","country":"FI","lat":60.33086,"lon":25.0732},{"name":"Renko","country":"FI","lat":60.89563,"lon":24.28785},{"name":"Replot","country":"FI","lat":63.22882,"lon":21.41691},{"name":"Riihimäki","country":"FI","lat":60.73769,"lon":24.77726},{"name":"Ristiina","country":"FI","lat":61.50579,"lon":27.24643},{"name":"Ristijärvi","country":"FI","lat":64.5,"lon":28.21667},{"name":"Ristimäki","country":"FI","lat":61.50377,"lon":23.64187},{"name":"Ristinarkku","country":"FI","lat":61.48986,"lon":23.8496},{"name":"Ristinummi","country":"FI","lat":63.09192,"lon":21.72297},{"name":"Roihuvuori","country":"FI","lat":60.20174,"lon":25.06007},{"name":"Rovaniemi","country":"FI","lat":66.5,"lon":25.71667},{"name":"Röykkä","country":"FI","lat":60.48767,"lon":24.64937},{"name":"Ruoholahti","country":"FI","lat":60.1628,"lon":24.91592},{"name":"Ruokolahti","country":"FI","lat":61.28333,"lon":28.83333},{"name":"Ruotsinpyhtää","country":"FI","lat":60.5268,"lon":26.46203},{"name":"Ruotula","country":"FI","lat":61.50239,"lon":23.83698},{"name":"Ruovesi","country":"FI","lat":61.98575,"lon":24.05714},{"name":"Ruskeasanta","country":"FI","lat":60.31263,"lon":25.00857},{"name":"Ruskeasuo","country":"FI","lat":60.20093,"lon":24.90523},{"name":"Rusko","country":"FI","lat":60.53333,"lon":22.21667},{"name":"Ruukki","country":"FI","lat":64.66667,"lon":25.1},{"name":"Rymättylä","country":"FI","lat":60.37658,"lon":21.94184},{"name":"Ryydynpohja","country":"FI","lat":61.52703,"lon":23.6576},{"name":"Saarenkylä","country":"FI","lat":61.6494,"lon":29.75186},{"name":"Saarenkylä","country":"FI","lat":66.51923,"lon":25.7674},{"name":"Saarijärvi","country":"FI","lat":62.70486,"lon":25.25396},{"name":"Sahalahti","country":"FI","lat":61.4746,"lon":24.32652},{"name":"Säkylä","country":"FI","lat":61.03333,"lon":22.33333},{"name":"Salla","country":"FI","lat":66.83333,"lon":28.66667},{"name":"Salo","country":"FI","lat":60.38333,"lon":23.13333},{"name":"Sammatti","country":"FI","lat":60.31991,"lon":23.82085},{"name":"Sammonlahti","country":"FI","lat":61.0493,"lon":28.12135},{"name":"Samppalinna","country":"FI","lat":60.44492,"lon":22.27018},{"name":"Sandsund","country":"FI","lat":63.64759,"lon":22.72977},{"name":"Santalahti","country":"FI","lat":61.50717,"lon":23.71345},{"name":"Särkisalo","country":"FI","lat":60.11389,"lon":22.95},{"name":"Sastamala","country":"FI","lat":61.34942,"lon":22.90928},{"name":"Saukkola","country":"FI","lat":60.38333,"lon":23.98333},{"name":"Saunalahti","country":"FI","lat":60.16312,"lon":24.62012},{"name":"Sauvo","country":"FI","lat":60.34306,"lon":22.69642},{"name":"Savitaipale","country":"FI","lat":61.2,"lon":27.7},{"name":"Savonlinna","country":"FI","lat":61.8699,"lon":28.87999},{"name":"Savonranta","country":"FI","lat":62.18333,"lon":29.2},{"name":"Savukoski","country":"FI","lat":67.2925,"lon":28.15806},{"name":"Säynätsalo","country":"FI","lat":62.14025,"lon":25.76948},{"name":"Seinäjoki","country":"FI","lat":62.79446,"lon":22.82822},{"name":"Sepänkylä","country":"FI","lat":60.20443,"lon":24.73366},{"name":"Sibbo","country":"FI","lat":60.37752,"lon":25.26906},{"name":"Sievi","country":"FI","lat":63.9,"lon":24.5},{"name":"Siikainen","country":"FI","lat":61.87703,"lon":21.81945},{"name":"Siikajoki","country":"FI","lat":64.81455,"lon":24.75924},{"name":"Siikajoki","country":"FI","lat":64.66435,"lon":25.09939},{"name":"Siilinjärvi","country":"FI","lat":63.08333,"lon":27.66667},{"name":"Siltamäki","country":"FI","lat":60.27815,"lon":24.98335},{"name":"Simo","country":"FI","lat":65.66667,"lon":25.05},{"name":"Simonkylä","country":"FI","lat":60.30995,"lon":25.03012},{"name":"Simpele","country":"FI","lat":61.43333,"lon":29.36667},{"name":"Siuntio","country":"FI","lat":60.13862,"lon":24.22715},{"name":"Skinnarila","country":"FI","lat":61.0637,"lon":28.10057},{"name":"Smedsby","country":"FI","lat":63.11667,"lon":21.7},{"name":"Sodankylä","country":"FI","lat":67.41667,"lon":26.6},{"name":"Soini","country":"FI","lat":62.86667,"lon":24.21667},{"name":"Somero","country":"FI","lat":60.61667,"lon":23.53333},{"name":"Sonkajärvi","country":"FI","lat":63.66667,"lon":27.51667},{"name":"Sörnäinen","country":"FI","lat":60.18643,"lon":24.96506},{"name":"Sotkamo","country":"FI","lat":64.13333,"lon":28.41667},{"name":"Soukka","country":"FI","lat":60.14155,"lon":24.67134},{"name":"Sulkava","country":"FI","lat":61.78691,"lon":28.37299},{"name":"Sumiainen","country":"FI","lat":62.65736,"lon":26.04642},{"name":"Suodenniemi","country":"FI","lat":61.5581,"lon":22.78526},{"name":"Suolahti","country":"FI","lat":62.56421,"lon":25.85363},{"name":"Suomusjärvi","country":"FI","lat":60.35,"lon":23.65},{"name":"Suomussalmi","country":"FI","lat":64.88685,"lon":28.90778},{"name":"Suonenjoki","country":"FI","lat":62.61667,"lon":27.13333},{"name":"Suurmetsä","country":"FI","lat":60.26961,"lon":25.05395},{"name":"Suutarila","country":"FI","lat":60.27996,"lon":25.01759},{"name":"Sysmä","country":"FI","lat":61.5,"lon":25.68333},{"name":"Taavetti","country":"FI","lat":60.91667,"lon":27.56667},{"name":"Taipalsaari","country":"FI","lat":61.15,"lon":28.05},{"name":"Taivalkoski","country":"FI","lat":65.56667,"lon":28.25},{"name":"Taivassalo","country":"FI","lat":60.56085,"lon":21.61639},{"name":"Taka-Töölö","country":"FI","lat":60.18434,"lon":24.91948},{"name":"Takahuhti","country":"FI","lat":61.49721,"lon":23.85423},{"name":"Talinranta","country":"FI","lat":60.20737,"lon":24.85652},{"name":"Talvikangas","country":"FI","lat":65.042,"lon":25.59695},{"name":"Tammela","country":"FI","lat":60.81035,"lon":23.76823},{"name":"Tammela","country":"FI","lat":61.50232,"lon":23.77961},{"name":"Tammela A","country":"FI","lat":61.50388,"lon":23.77963},{"name":"Tammela B","country":"FI","lat":61.50034,"lon":23.77968},{"name":"Tammerkoski","country":"FI","lat":61.49914,"lon":23.75661},{"name":"Tammisalo","country":"FI","lat":60.19226,"lon":25.06671},{"name":"Tammisto","country":"FI","lat":60.27429,"lon":24.95888},{"name":"Tampella","country":"FI","lat":61.50366,"lon":23.76592},{"name":"Tampere","country":"FI","lat":61.49911,"lon":23.78712},{"name":"Tapanila","country":"FI","lat":60.26456,"lon":25.02157},{"name":"Tapaninkylä","country":"FI","lat":60.2638,"lon":24.99556},{"name":"Tapaninvainio","country":"FI","lat":60.25995,"lon":24.98242},{"name":"Tapiola","country":"FI","lat":60.17636,"lon":24.8085},{"name":"Tapulikaupunki","country":"FI","lat":60.27519,"lon":25.02163},{"name":"Tarvasjoki","country":"FI","lat":60.58333,"lon":22.73333},{"name":"Tasanne","country":"FI","lat":61.51845,"lon":23.92676},{"name":"Taskila","country":"FI","lat":65.05295,"lon":25.43086},{"name":"Teeriniemi","country":"FI","lat":63.09705,"lon":21.6959},{"name":"Tervakoski","country":"FI","lat":60.81412,"lon":24.62594},{"name":"Tervo","country":"FI","lat":62.95,"lon":26.75},{"name":"Tervola","country":"FI","lat":66.08333,"lon":24.8},{"name":"Tesomajärvi","country":"FI","lat":61.50664,"lon":23.61792},{"name":"Teuva","country":"FI","lat":62.4819,"lon":21.74156},{"name":"Tikkurila","country":"FI","lat":60.29349,"lon":25.03758},{"name":"Tirilä","country":"FI","lat":61.05766,"lon":28.2443},{"name":"Tohloppi","country":"FI","lat":61.51086,"lon":23.62805},{"name":"Tohmajärvi","country":"FI","lat":62.18333,"lon":30.38333},{"name":"Toholampi","country":"FI","lat":63.76667,"lon":24.25},{"name":"Toijala","country":"FI","lat":61.1678,"lon":23.83819},{"name":"Toivakka","country":"FI","lat":62.1,"lon":26.08333},{"name":"Toppila","country":"FI","lat":65.03843,"lon":25.44331},{"name":"Tornio","country":"FI","lat":65.84811,"lon":24.14662},{"name":"Torpparinmäki","country":"FI","lat":60.26109,"lon":24.95229},{"name":"Toukola","country":"FI","lat":60.20639,"lon":24.97124},{"name":"Töysä","country":"FI","lat":62.62803,"lon":23.81828},{"name":"Tuira","country":"FI","lat":65.02607,"lon":25.47064},{"name":"Tulli","country":"FI","lat":61.49704,"lon":23.7798},{"name":"Tullisaari","country":"FI","lat":60.17989,"lon":25.03552},{"name":"Tuomarinkylä","country":"FI","lat":60.25659,"lon":24.9672},{"name":"Turenki","country":"FI","lat":60.91667,"lon":24.63333},{"name":"Turku","country":"FI","lat":60.45148,"lon":22.26869},{"name":"Turun satama","country":"FI","lat":60.4352,"lon":22.2229},{"name":"Tuulos","country":"FI","lat":61.15,"lon":24.8},{"name":"Tuupovaara","country":"FI","lat":62.48372,"lon":30.62731},{"name":"Tuusniemi","country":"FI","lat":62.81667,"lon":28.5},{"name":"Tuusula","country":"FI","lat":60.40368,"lon":25.02638},{"name":"Tykki","country":"FI","lat":61.04888,"lon":28.18691},{"name":"Tyrnävä","country":"FI","lat":64.76469,"lon":25.6523},{"name":"Ullanlinna","country":"FI","lat":60.15753,"lon":24.94892},{"name":"Ullava","country":"FI","lat":63.6,"lon":24.08333},{"name":"Ulvila","country":"FI","lat":61.42844,"lon":21.87103},{"name":"Uppby","country":"FI","lat":60.1767,"lon":25.05358},{"name":"Urheilupuisto","country":"FI","lat":60.44267,"lon":22.26326},{"name":"Urjala","country":"FI","lat":61.08333,"lon":23.53333},{"name":"Utajärvi","country":"FI","lat":64.7625,"lon":26.41944},{"name":"Utsjoki","country":"FI","lat":69.90864,"lon":27.02843},{"name":"Uurainen","country":"FI","lat":62.5,"lon":25.45},{"name":"Uus-Lavola","country":"FI","lat":61.04258,"lon":28.102},{"name":"Uusikaupunki","country":"FI","lat":60.80043,"lon":21.40841},{"name":"Uusikylä","country":"FI","lat":61.49544,"lon":23.82888},{"name":"Vaala","country":"FI","lat":64.56667,"lon":26.83333},{"name":"Vaara","country":"FI","lat":65.01063,"lon":25.48248},{"name":"Vaarala","country":"FI","lat":60.26226,"lon":25.09303},{"name":"Vaasa","country":"FI","lat":63.096,"lon":21.61577},{"name":"Vähäkyrö","country":"FI","lat":63.05635,"lon":22.10584},{"name":"Vahto","country":"FI","lat":60.6,"lon":22.3},{"name":"Välivainio","country":"FI","lat":65.03354,"lon":25.47815},{"name":"Valkeakoski","country":"FI","lat":61.26421,"lon":24.03122},{"name":"Vallila","country":"FI","lat":60.19453,"lon":24.95712},{"name":"Vallinoja","country":"FI","lat":60.36554,"lon":25.07371},{"name":"Valtimo","country":"FI","lat":63.66667,"lon":28.8},{"name":"Vammala","country":"FI","lat":61.33333,"lon":22.9},{"name":"Vampula","country":"FI","lat":61.01667,"lon":22.7},{"name":"Vanha munkkiniemi","country":"FI","lat":60.19801,"lon":24.87604},{"name":"Vanha Ruskeasuo","country":"FI","lat":60.20247,"lon":24.90648},{"name":"Vanha-Mankkaa","country":"FI","lat":60.19112,"lon":24.77589},{"name":"Vanha-Nuuksio-Nupuri","country":"FI","lat":60.24084,"lon":24.59855},{"name":"Vanhakartano","country":"FI","lat":60.25936,"lon":24.73649},{"name":"Vanhatulli","country":"FI","lat":65.00806,"lon":25.4693},{"name":"Vantaa","country":"FI","lat":60.29414,"lon":25.04099},{"name":"Vantaanlaakso","country":"FI","lat":60.29002,"lon":24.87762},{"name":"Vanttila","country":"FI","lat":60.18653,"lon":24.62054},{"name":"Vapaala","country":"FI","lat":60.26285,"lon":24.82515},{"name":"Varisto","country":"FI","lat":60.26983,"lon":24.81751},{"name":"Varkaus","country":"FI","lat":62.31533,"lon":27.873},{"name":"Varpaisjärvi","country":"FI","lat":63.35932,"lon":27.75506},{"name":"Vartioharju","country":"FI","lat":60.224,"lon":25.11037},{"name":"Vartiokylä","country":"FI","lat":60.21799,"lon":25.09569},{"name":"Vartiovuori","country":"FI","lat":60.44668,"lon":22.27761},{"name":"Värttö","country":"FI","lat":65.01816,"lon":25.51738},{"name":"Väståboland","country":"FI","lat":60.29972,"lon":22.3004},{"name":"Västanfjärd","country":"FI","lat":60.05,"lon":22.68333},{"name":"Vattuniemi","country":"FI","lat":60.15031,"lon":24.88248},{"name":"Vehmaa","country":"FI","lat":60.68333,"lon":21.66667},{"name":"Vehmainen","country":"FI","lat":61.47674,"lon":23.91827},{"name":"Vehmersalmi","country":"FI","lat":62.76101,"lon":28.02853},{"name":"Veikkari","country":"FI","lat":60.60965,"lon":24.81241},{"name":"Veisu","country":"FI","lat":61.46995,"lon":23.80908},{"name":"Velkua","country":"FI","lat":60.46667,"lon":21.66667},{"name":"Veräjämäki","country":"FI","lat":60.22745,"lon":24.97484},{"name":"Veromies","country":"FI","lat":60.29842,"lon":24.96343},{"name":"Vesala","country":"FI","lat":60.23998,"lon":25.10307},{"name":"Vesanto","country":"FI","lat":62.93333,"lon":26.41667},{"name":"Vesilahti","country":"FI","lat":61.31667,"lon":23.61667},{"name":"Veteli","country":"FI","lat":63.47839,"lon":23.78285},{"name":"VI kaupunginosa","country":"FI","lat":60.45486,"lon":22.27043},{"name":"Vieremä","country":"FI","lat":63.75,"lon":27.01667},{"name":"Viertola","country":"FI","lat":60.29139,"lon":25.01009},{"name":"Vierumäki","country":"FI","lat":60.35918,"lon":25.03741},{"name":"Vihanti","country":"FI","lat":64.48472,"lon":24.99157},{"name":"Viherlaakso","country":"FI","lat":60.22877,"lon":24.74078},{"name":"Vihti","country":"FI","lat":60.41699,"lon":24.31965},{"name":"VII kaupunginosa","country":"FI","lat":60.45073,"lon":22.25917},{"name":"Viiala","country":"FI","lat":61.21023,"lon":23.76738},{"name":"Viiala","country":"FI","lat":61.47631,"lon":23.85641},{"name":"Viikin Tiedepuisto","country":"FI","lat":60.22498,"lon":25.01408},{"name":"Viikinranta","country":"FI","lat":60.21894,"lon":24.98728},{"name":"Viikki","country":"FI","lat":60.22183,"lon":25.02386},{"name":"Viinikka","country":"FI","lat":61.48793,"lon":23.78214},{"name":"Viitasaari","country":"FI","lat":63.06667,"lon":25.86667},{"name":"Viljakkala","country":"FI","lat":61.70601,"lon":23.26688},{"name":"Villilä","country":"FI","lat":61.4942,"lon":23.61563},{"name":"Vilppula","country":"FI","lat":62.02121,"lon":24.50483},{"name":"Vimpeli","country":"FI","lat":63.16187,"lon":23.81922},{"name":"Vinkkilä","country":"FI","lat":60.68333,"lon":21.71667},{"name":"Virojoki","country":"FI","lat":60.5794,"lon":27.70354},{"name":"Virolahti","country":"FI","lat":60.51667,"lon":27.68306},{"name":"Virrat","country":"FI","lat":62.24759,"lon":23.78004},{"name":"Virtasalmi","country":"FI","lat":62.12695,"lon":27.46276},{"name":"Voisalmi","country":"FI","lat":61.08179,"lon":28.15023},{"name":"Vörå","country":"FI","lat":63.13607,"lon":22.25223},{"name":"Vuokatti","country":"FI","lat":64.14466,"lon":28.28196},{"name":"Vuolijoki","country":"FI","lat":64.18538,"lon":26.99547},{"name":"Vuores","country":"FI","lat":61.431,"lon":23.81184},{"name":"Vuosaari","country":"FI","lat":60.20963,"lon":25.14195},{"name":"Westend","country":"FI","lat":60.16378,"lon":24.79842},{"name":"Ylä-Malmi","country":"FI","lat":60.25425,"lon":25.00858},{"name":"Ylä-Pispala","country":"FI","lat":61.50152,"lon":23.71763},{"name":"Ylämaa","country":"FI","lat":60.8,"lon":28},{"name":"Yläne","country":"FI","lat":60.88333,"lon":22.41667},{"name":"Ylästö","country":"FI","lat":60.28417,"lon":24.9139},{"name":"Yli-Ii","country":"FI","lat":65.37181,"lon":25.8458},{"name":"Yli-maaria","country":"FI","lat":60.55015,"lon":22.3089},{"name":"Ylihärmä","country":"FI","lat":63.15,"lon":22.78333},{"name":"Ylikiiminki","country":"FI","lat":65.08333,"lon":26.25},{"name":"Ylitornio","country":"FI","lat":66.30893,"lon":23.67734},{"name":"Ylivieska","country":"FI","lat":64.08333,"lon":24.55},{"name":"Ylöjärvi","country":"FI","lat":61.55632,"lon":23.59606},{"name":"Ypäjä","country":"FI","lat":60.8,"lon":23.28333},{"name":"Ytteresse","country":"FI","lat":63.62209,"lon":22.99456}]