[{"name":"Colonia","country":"FM","lat":9.51638,"lon":138.12167},{"name":"Eauripik","country":"FM","lat":6.687,"lon":143.0375},{"name":"Elato","country":"FM","lat":7.502,"lon":146.166},{"name":"Ettal","country":"FM","lat":5.584,"lon":153.586},{"name":"Fais","country":"FM","lat":9.766,"lon":140.52},{"name":"Fananu","country":"FM","lat":8.55811,"lon":151.90922},{"name":"Faraulep","country":"FM","lat":8.588,"lon":144.508},{"name":"Houk","country":"FM","lat":6.6894,"lon":149.29908},{"name":"Ifalik","country":"FM","lat":7.25,"lon":144.4445},{"name":"Kapingamarangi","country":"FM","lat":1.07861,"lon":154.80752},{"name":"Kolonia","country":"FM","lat":6.964,"lon":158.2062},{"name":"Kolonia Town","country":"FM","lat":6.964,"lon":158.206},{"name":"Kuttu","country":"FM","lat":5.453,"lon":153.4575},{"name":"Lamotrek","country":"FM","lat":7.491,"lon":146.305},{"name":"Lelu","country":"FM","lat":5.33359,"lon":163.02248},{"name":"Losap","country":"FM","lat":6.894,"lon":152.74},{"name":"Lukunor","country":"FM","lat":5.507,"lon":153.8205},{"name":"Madolenihm Municipality Government","country":"FM","lat":6.83493,"lon":158.2987},{"name":"Makur","country":"FM","lat":8.985,"lon":150.1275},{"name":"Malem","country":"FM","lat":5.28599,"lon":163.02609},{"name":"Moch","country":"FM","lat":5.4918,"lon":153.54},{"name":"Mokil","country":"FM","lat":6.69281,"lon":159.76283},{"name":"Murilo","country":"FM","lat":8.69242,"lon":152.33934},{"name":"Namoluk","country":"FM","lat":5.924,"lon":153.152},{"name":"Nema","country":"FM","lat":6.98922,"lon":152.57377},{"name":"Ngatik","country":"FM","lat":5.78849,"lon":157.15954},{"name":"Ngulu","country":"FM","lat":8.45,"lon":137.484},{"name":"Nomwin","country":"FM","lat":8.43,"lon":151.748},{"name":"Nukuoro","country":"FM","lat":3.83619,"lon":154.97143},{"name":"Oneop","country":"FM","lat":5.5066,"lon":153.7105},{"name":"Onou","country":"FM","lat":8.799,"lon":150.2915},{"name":"Onoun","country":"FM","lat":8.575,"lon":149.687},{"name":"Palikir - National Government Center","country":"FM","lat":6.92477,"lon":158.16109},{"name":"Piis","country":"FM","lat":6.834,"lon":152.701},{"name":"Pingelap","country":"FM","lat":6.20589,"lon":160.70327},{"name":"Pisaras","country":"FM","lat":8.569,"lon":150.4195},{"name":"Polowat","country":"FM","lat":7.35661,"lon":149.19908},{"name":"Pulap","country":"FM","lat":7.6366,"lon":149.42878},{"name":"Rumung","country":"FM","lat":9.622,"lon":138.154},{"name":"Ruo","country":"FM","lat":8.609,"lon":152.2455},{"name":"Satawal","country":"FM","lat":7.382,"lon":147.0322},{"name":"Satowan","country":"FM","lat":5.334,"lon":153.738},{"name":"Sorol","country":"FM","lat":8.1435,"lon":140.394},{"name":"Ta","country":"FM","lat":5.2842,"lon":153.648},{"name":"Tafunsak","country":"FM","lat":5.3671,"lon":162.98532},{"name":"Tamatam","country":"FM","lat":7.53868,"lon":149.41428},{"name":"Tofol","country":"FM","lat":5.32479,"lon":163.00781},{"name":"Tonoas Municipal Building","country":"FM","lat":7.37597,"lon":151.88433},{"name":"Unanu","country":"FM","lat":8.75,"lon":150.341},{"name":"Utwe","country":"FM","lat":5.27486,"lon":162.97656},{"name":"Weno","country":"FM","lat":7.44648,"lon":151.84135}]