[{"name":"Abbaretz","country":"FR","lat":47.55254,"lon":-1.53301},{"name":"Abbeville","country":"FR","lat":50.10521,"lon":1.83547},{"name":"Abeilhan","country":"FR","lat":43.4499,"lon":3.29488},{"name":"Abilly","country":"FR","lat":46.93333,"lon":0.73333},{"name":"Ablain-Saint-Nazaire","country":"FR","lat":50.3932,"lon":2.7088},{"name":"Ableiges","country":"FR","lat":49.08932,"lon":1.98154},{"name":"Ablis","country":"FR","lat":48.5172,"lon":1.83624},{"name":"Ablon","country":"FR","lat":49.39214,"lon":0.29584},{"name":"Ablon-sur-Seine","country":"FR","lat":48.72732,"lon":2.42686},{"name":"Abondance","country":"FR","lat":46.27874,"lon":6.72105},{"name":"Abondant","country":"FR","lat":48.7859,"lon":1.44006},{"name":"Abreschviller","country":"FR","lat":48.63698,"lon":7.09607},{"name":"Abrest","country":"FR","lat":46.09859,"lon":3.44461},{"name":"Abscon","country":"FR","lat":50.33333,"lon":3.3},{"name":"Abzac","country":"FR","lat":45.01611,"lon":-0.12883},{"name":"Achenheim","country":"FR","lat":48.5807,"lon":7.62803},{"name":"Achères","country":"FR","lat":48.96115,"lon":2.06882},{"name":"Achères-la-Forêt","country":"FR","lat":48.35458,"lon":2.57035},{"name":"Achicourt","country":"FR","lat":50.27429,"lon":2.75779},{"name":"Achiet-le-Grand","country":"FR","lat":50.13067,"lon":2.78119},{"name":"Acigné","country":"FR","lat":48.13538,"lon":-1.5337},{"name":"Acquigny","country":"FR","lat":49.1735,"lon":1.1765},{"name":"Afa","country":"FR","lat":41.98396,"lon":8.79833},{"name":"Agde","country":"FR","lat":43.31083,"lon":3.47583},{"name":"Agen","country":"FR","lat":44.20199,"lon":0.62055},{"name":"Agneaux","country":"FR","lat":49.11905,"lon":-1.1061},{"name":"Agnetz","country":"FR","lat":49.38118,"lon":2.38621},{"name":"Agny","country":"FR","lat":50.25914,"lon":2.76002},{"name":"Agon-Coutainville","country":"FR","lat":49.04167,"lon":-1.575},{"name":"Agonac","country":"FR","lat":45.29256,"lon":0.74968},{"name":"Ahetze","country":"FR","lat":43.40561,"lon":-1.57138},{"name":"Ahuillé","country":"FR","lat":48.02076,"lon":-0.87071},{"name":"Ahun","country":"FR","lat":46.08578,"lon":2.04489},{"name":"Ahuy","country":"FR","lat":47.36944,"lon":5.02089},{"name":"Aiffres","country":"FR","lat":46.28873,"lon":-0.41466},{"name":"Aiglemont","country":"FR","lat":49.78031,"lon":4.76483},{"name":"Aigné","country":"FR","lat":48.06719,"lon":0.11926},{"name":"Aigre","country":"FR","lat":45.89151,"lon":0.00824},{"name":"Aigrefeuille-sur-Maine","country":"FR","lat":47.08008,"lon":-1.40419},{"name":"Aigueblanche","country":"FR","lat":45.50455,"lon":6.50184},{"name":"Aiguefonde","country":"FR","lat":43.49419,"lon":2.31651},{"name":"Aigueperse","country":"FR","lat":46.02255,"lon":3.20228},{"name":"Aigues-Mortes","country":"FR","lat":43.56683,"lon":4.19068},{"name":"Aigues-Vives","country":"FR","lat":43.7397,"lon":4.17976},{"name":"Aiguillon","country":"FR","lat":44.29919,"lon":0.33943},{"name":"Aigurande","country":"FR","lat":46.43397,"lon":1.83026},{"name":"Aillant-sur-Tholon","country":"FR","lat":47.87426,"lon":3.35049},{"name":"Aillevillers-et-Lyaumont","country":"FR","lat":47.92033,"lon":6.33775},{"name":"Ailly-sur-Noye","country":"FR","lat":49.75707,"lon":2.36367},{"name":"Ailly-sur-Somme","country":"FR","lat":49.92886,"lon":2.19615},{"name":"Aimargues","country":"FR","lat":43.68536,"lon":4.20774},{"name":"Aime","country":"FR","lat":45.55559,"lon":6.65042},{"name":"Ainay-le-Château","country":"FR","lat":46.71125,"lon":2.69238},{"name":"Airaines","country":"FR","lat":49.96826,"lon":1.94266},{"name":"Aire-sur-l'Adour","country":"FR","lat":43.70251,"lon":-0.26276},{"name":"Aire-sur-la-Lys","country":"FR","lat":50.63871,"lon":2.39876},{"name":"Airvault","country":"FR","lat":46.82698,"lon":-0.13791},{"name":"Aiserey","country":"FR","lat":47.17229,"lon":5.1626},{"name":"Aiton","country":"FR","lat":45.56123,"lon":6.25955},{"name":"Aix-en-Othe","country":"FR","lat":48.22391,"lon":3.73425},{"name":"Aix-en-Provence","country":"FR","lat":43.5283,"lon":5.44973},{"name":"Aix-les-Bains","country":"FR","lat":45.69173,"lon":5.90863},{"name":"Aix-Noulette","country":"FR","lat":50.42568,"lon":2.70554},{"name":"Aixe-sur-Vienne","country":"FR","lat":45.79663,"lon":1.13581},{"name":"Aizenay","country":"FR","lat":46.74048,"lon":-1.60911},{"name":"Ajaccio","country":"FR","lat":41.91886,"lon":8.73812},{"name":"Ajain","country":"FR","lat":46.20707,"lon":1.99711},{"name":"Alata","country":"FR","lat":41.97636,"lon":8.74208},{"name":"Alba-la-Romaine","country":"FR","lat":44.55537,"lon":4.59846},{"name":"Albens","country":"FR","lat":45.78786,"lon":5.94528},{"name":"Albert","country":"FR","lat":50.00091,"lon":2.65096},{"name":"Albertville","country":"FR","lat":45.67452,"lon":6.39061},{"name":"Albi","country":"FR","lat":43.9298,"lon":2.148},{"name":"Albias","country":"FR","lat":44.08983,"lon":1.449},{"name":"Albigny-sur-Saône","country":"FR","lat":45.86667,"lon":4.83333},{"name":"Albitreccia","country":"FR","lat":41.86301,"lon":8.94262},{"name":"Alby-sur-Chéran","country":"FR","lat":45.81667,"lon":6.01667},{"name":"Alençon","country":"FR","lat":48.43476,"lon":0.09311},{"name":"Alénya","country":"FR","lat":42.63978,"lon":2.98127},{"name":"Aléria","country":"FR","lat":42.10431,"lon":9.51265},{"name":"Alès","country":"FR","lat":44.12489,"lon":4.08082},{"name":"Alfortville","country":"FR","lat":48.80575,"lon":2.4204},{"name":"Algolsheim","country":"FR","lat":48.00629,"lon":7.55945},{"name":"Algrange","country":"FR","lat":49.36276,"lon":6.05094},{"name":"Alignan-du-Vent","country":"FR","lat":43.4702,"lon":3.34148},{"name":"Alissas","country":"FR","lat":44.71253,"lon":4.62936},{"name":"Alixan","country":"FR","lat":44.97426,"lon":5.0285},{"name":"Alizay","country":"FR","lat":49.32158,"lon":1.17854},{"name":"Allaire","country":"FR","lat":47.63726,"lon":-2.16514},{"name":"Allan","country":"FR","lat":44.49713,"lon":4.79068},{"name":"Allanche","country":"FR","lat":45.22907,"lon":2.93449},{"name":"Allassac","country":"FR","lat":45.2584,"lon":1.4755},{"name":"Allauch","country":"FR","lat":43.33573,"lon":5.48201},{"name":"Allègre","country":"FR","lat":45.19959,"lon":3.71174},{"name":"Alleins","country":"FR","lat":43.70387,"lon":5.16203},{"name":"Allennes-les-Marais","country":"FR","lat":50.53754,"lon":2.95361},{"name":"Allevard","country":"FR","lat":45.39449,"lon":6.07519},{"name":"Allex","country":"FR","lat":44.76765,"lon":4.89837},{"name":"Allières-et-Risset","country":"FR","lat":45.09934,"lon":5.67924},{"name":"Allinges","country":"FR","lat":46.33547,"lon":6.4635},{"name":"Allonne","country":"FR","lat":49.40863,"lon":2.11427},{"name":"Allonnes","country":"FR","lat":47.96744,"lon":0.16023},{"name":"Allonnes","country":"FR","lat":47.29339,"lon":0.02277},{"name":"Allonzier-la-Caille","country":"FR","lat":46.00117,"lon":6.11865},{"name":"Allouagne","country":"FR","lat":50.53167,"lon":2.51194},{"name":"Alsting","country":"FR","lat":49.18175,"lon":6.99255},{"name":"Althen-des-Paluds","country":"FR","lat":44.00405,"lon":4.95861},{"name":"Altkirch","country":"FR","lat":47.62417,"lon":7.23954},{"name":"Altorf","country":"FR","lat":48.52166,"lon":7.52787},{"name":"Alzonne","country":"FR","lat":43.25379,"lon":2.17577},{"name":"Amancy","country":"FR","lat":46.07294,"lon":6.3289},{"name":"Amanlis","country":"FR","lat":48.00627,"lon":-1.47642},{"name":"Amanvillers","country":"FR","lat":49.16784,"lon":6.04367},{"name":"Ambarès-et-Lagrave","country":"FR","lat":44.92737,"lon":-0.49141},{"name":"Ambazac","country":"FR","lat":45.95733,"lon":1.39975},{"name":"Ambérieu-en-Bugey","country":"FR","lat":45.95932,"lon":5.3516},{"name":"Ambérieux-en-Dombes","country":"FR","lat":45.99894,"lon":4.90126},{"name":"Ambert","country":"FR","lat":45.54944,"lon":3.74164},{"name":"Ambès","country":"FR","lat":45.01127,"lon":-0.53219},{"name":"Ambierle","country":"FR","lat":46.10558,"lon":3.89323},{"name":"Ambillou","country":"FR","lat":47.451,"lon":0.4473},{"name":"Amblainville","country":"FR","lat":49.20443,"lon":2.12242},{"name":"Ambleny","country":"FR","lat":49.38079,"lon":3.18447},{"name":"Ambleteuse","country":"FR","lat":50.81041,"lon":1.60876},{"name":"Amboise","country":"FR","lat":47.41249,"lon":0.98266},{"name":"Ambon","country":"FR","lat":47.55416,"lon":-2.55655},{"name":"Ambrières-les-Vallées","country":"FR","lat":48.40214,"lon":-0.63108},{"name":"Ambronay","country":"FR","lat":46.00467,"lon":5.36273},{"name":"Amfreville","country":"FR","lat":49.25,"lon":-0.23333},{"name":"Amfreville-la-Mi-Voie","country":"FR","lat":49.40755,"lon":1.13871},{"name":"Amiens","country":"FR","lat":49.9,"lon":2.3},{"name":"Amilly","country":"FR","lat":48.44333,"lon":1.39349},{"name":"Amilly","country":"FR","lat":47.97281,"lon":2.77186},{"name":"Ammerschwihr","country":"FR","lat":48.12548,"lon":7.28282},{"name":"Amnéville","country":"FR","lat":49.25671,"lon":6.13414},{"name":"Amou","country":"FR","lat":43.59292,"lon":-0.74714},{"name":"Amplepuis","country":"FR","lat":45.9726,"lon":4.3303},{"name":"Ampuis","country":"FR","lat":45.48925,"lon":4.81001},{"name":"Ancenis","country":"FR","lat":47.36667,"lon":-1.16667},{"name":"Ancerville","country":"FR","lat":48.63574,"lon":5.02091},{"name":"Ancône","country":"FR","lat":44.58107,"lon":4.72711},{"name":"Ancy-le-Franc","country":"FR","lat":47.77586,"lon":4.16361},{"name":"Ancy-sur-Moselle","country":"FR","lat":49.05689,"lon":6.05775},{"name":"Andance","country":"FR","lat":45.24059,"lon":4.79916},{"name":"Andancette","country":"FR","lat":45.24858,"lon":4.8086},{"name":"Andard","country":"FR","lat":47.45659,"lon":-0.39752},{"name":"Andé","country":"FR","lat":49.23163,"lon":1.24088},{"name":"Andelnans","country":"FR","lat":47.60267,"lon":6.86621},{"name":"Andernos-les-Bains","country":"FR","lat":44.74572,"lon":-1.10355},{"name":"Andeville","country":"FR","lat":49.26078,"lon":2.16427},{"name":"Andilly","country":"FR","lat":49.00935,"lon":2.3024},{"name":"Andilly","country":"FR","lat":46.2533,"lon":-1.02736},{"name":"Andlau","country":"FR","lat":48.38607,"lon":7.41697},{"name":"Andolsheim","country":"FR","lat":48.06179,"lon":7.41637},{"name":"Andouillé","country":"FR","lat":48.17686,"lon":-0.78434},{"name":"Andres","country":"FR","lat":50.86556,"lon":1.92094},{"name":"Andrest","country":"FR","lat":43.31683,"lon":0.0612},{"name":"Andrésy","country":"FR","lat":48.98235,"lon":2.05687},{"name":"Andrezé","country":"FR","lat":47.17155,"lon":-0.95239},{"name":"Andrézieux-Bouthéon","country":"FR","lat":45.52625,"lon":4.26021},{"name":"Anduze","country":"FR","lat":44.055,"lon":3.98495},{"name":"Anet","country":"FR","lat":48.85642,"lon":1.43981},{"name":"Anetz","country":"FR","lat":47.38059,"lon":-1.10583},{"name":"Angers","country":"FR","lat":47.47156,"lon":-0.55202},{"name":"Angerville","country":"FR","lat":48.31354,"lon":1.99935},{"name":"Angerville-l'Orcher","country":"FR","lat":49.58833,"lon":0.28191},{"name":"Angervilliers","country":"FR","lat":48.59263,"lon":2.06541},{"name":"Angevillers","country":"FR","lat":49.38815,"lon":6.0443},{"name":"Angicourt","country":"FR","lat":49.31175,"lon":2.50419},{"name":"Angles","country":"FR","lat":46.40818,"lon":-1.40362},{"name":"Anglet","country":"FR","lat":43.48921,"lon":-1.51921},{"name":"Angoulême","country":"FR","lat":45.64997,"lon":0.15345},{"name":"Angoulins","country":"FR","lat":46.10526,"lon":-1.10713},{"name":"Angres","country":"FR","lat":50.40572,"lon":2.76054},{"name":"Angresse","country":"FR","lat":43.65862,"lon":-1.37242},{"name":"Angy","country":"FR","lat":49.32975,"lon":2.32854},{"name":"Anhiers","country":"FR","lat":50.40737,"lon":3.15512},{"name":"Aniane","country":"FR","lat":43.68561,"lon":3.5863},{"name":"Aniche","country":"FR","lat":50.32995,"lon":3.25346},{"name":"Anizy-le-Château","country":"FR","lat":49.50678,"lon":3.45119},{"name":"Annay","country":"FR","lat":50.46303,"lon":2.88122},{"name":"Annecy","country":"FR","lat":45.90878,"lon":6.12565},{"name":"Annecy-le-Vieux","country":"FR","lat":45.91971,"lon":6.14393},{"name":"Annemasse","country":"FR","lat":46.19439,"lon":6.23775},{"name":"Annequin","country":"FR","lat":50.50525,"lon":2.72019},{"name":"Annesse-et-Beaulieu","country":"FR","lat":45.16416,"lon":0.57193},{"name":"Annet-sur-Marne","country":"FR","lat":48.92669,"lon":2.71959},{"name":"Anneyron","country":"FR","lat":45.2722,"lon":4.88626},{"name":"Annezin","country":"FR","lat":50.53192,"lon":2.61785},{"name":"Annoeullin","country":"FR","lat":50.52925,"lon":2.9318},{"name":"Annonay","country":"FR","lat":45.23992,"lon":4.6707},{"name":"Annot","country":"FR","lat":43.96528,"lon":6.66879},{"name":"Anor","country":"FR","lat":49.98999,"lon":4.10049},{"name":"Anould","country":"FR","lat":48.18526,"lon":6.94597},{"name":"Ansauvillers","country":"FR","lat":49.56523,"lon":2.38742},{"name":"Anse","country":"FR","lat":45.93553,"lon":4.71933},{"name":"Ansouis","country":"FR","lat":43.73771,"lon":5.46356},{"name":"Anstaing","country":"FR","lat":50.60473,"lon":3.19079},{"name":"Anthy-sur-Léman","country":"FR","lat":46.35534,"lon":6.42735},{"name":"Antibes","country":"FR","lat":43.58127,"lon":7.12487},{"name":"Antigny","country":"FR","lat":46.61989,"lon":-0.7692},{"name":"Antonne","country":"FR","lat":45.2126,"lon":0.82983},{"name":"Antony","country":"FR","lat":48.75329,"lon":2.29668},{"name":"Antrain","country":"FR","lat":48.46037,"lon":-1.48463},{"name":"Antran","country":"FR","lat":46.85489,"lon":0.54141},{"name":"Anzin","country":"FR","lat":50.37201,"lon":3.50387},{"name":"Anzin-Saint-Aubin","country":"FR","lat":50.31313,"lon":2.74732},{"name":"Aoste","country":"FR","lat":45.59423,"lon":5.60712},{"name":"Aouste-sur-Sye","country":"FR","lat":44.71813,"lon":5.05422},{"name":"Appietto","country":"FR","lat":42.01426,"lon":8.76855},{"name":"Appoigny","country":"FR","lat":47.87467,"lon":3.52524},{"name":"Apprieu","country":"FR","lat":45.39591,"lon":5.49993},{"name":"Apremont","country":"FR","lat":46.75009,"lon":-1.74082},{"name":"Apt","country":"FR","lat":43.87638,"lon":5.39635},{"name":"Arâches-la-Frasse","country":"FR","lat":46.04297,"lon":6.63145},{"name":"Aramon","country":"FR","lat":43.89113,"lon":4.68058},{"name":"Arbent","country":"FR","lat":46.29221,"lon":5.6789},{"name":"Arbois","country":"FR","lat":46.90311,"lon":5.77454},{"name":"Arbonne","country":"FR","lat":43.4322,"lon":-1.55149},{"name":"Arbonne-la-Forêt","country":"FR","lat":48.41405,"lon":2.56677},{"name":"Arbouans","country":"FR","lat":47.49944,"lon":6.79505},{"name":"Arbus","country":"FR","lat":43.33314,"lon":-0.50562},{"name":"Arc-et-Senans","country":"FR","lat":47.03127,"lon":5.77027},{"name":"Arc-lès-Gray","country":"FR","lat":47.45701,"lon":5.58547},{"name":"Arc-sur-Tille","country":"FR","lat":47.34349,"lon":5.18666},{"name":"Arcachon","country":"FR","lat":44.66126,"lon":-1.17255},{"name":"Arcangues","country":"FR","lat":43.43684,"lon":-1.52138},{"name":"Arcey","country":"FR","lat":47.52258,"lon":6.66222},{"name":"Archamps","country":"FR","lat":46.13195,"lon":6.12551},{"name":"Arches","country":"FR","lat":48.11856,"lon":6.52806},{"name":"Archettes","country":"FR","lat":48.1232,"lon":6.53723},{"name":"Archigny","country":"FR","lat":46.67323,"lon":0.65218},{"name":"Arcis-sur-Aube","country":"FR","lat":48.53387,"lon":4.14085},{"name":"Arçonnay","country":"FR","lat":48.39716,"lon":0.08743},{"name":"Arcueil","country":"FR","lat":48.79993,"lon":2.33256},{"name":"Ardentes","country":"FR","lat":46.74191,"lon":1.83428},{"name":"Ardin","country":"FR","lat":46.47417,"lon":-0.5577},{"name":"Ardres","country":"FR","lat":50.85786,"lon":1.98168},{"name":"Arenc","country":"FR","lat":43.31583,"lon":5.36698},{"name":"Arenthon","country":"FR","lat":46.10697,"lon":6.33316},{"name":"Arès","country":"FR","lat":44.76576,"lon":-1.13421},{"name":"Arette","country":"FR","lat":43.09529,"lon":-0.71711},{"name":"Argancy","country":"FR","lat":49.19543,"lon":6.20157},{"name":"Argeles","country":"FR","lat":42.54714,"lon":3.02253},{"name":"Argelès-Gazost","country":"FR","lat":43.00271,"lon":-0.09914},{"name":"Argeliers","country":"FR","lat":43.3118,"lon":2.91016},{"name":"Argences","country":"FR","lat":49.12635,"lon":-0.16644},{"name":"Argent-sur-Sauldre","country":"FR","lat":47.55847,"lon":2.4441},{"name":"Argentan","country":"FR","lat":48.74441,"lon":-0.02023},{"name":"Argentat","country":"FR","lat":45.09325,"lon":1.93778},{"name":"Argenteuil","country":"FR","lat":48.94788,"lon":2.24744},{"name":"Argenton-les-Vallées","country":"FR","lat":46.9852,"lon":-0.44988},{"name":"Argenton-sur-Creuse","country":"FR","lat":46.58997,"lon":1.51981},{"name":"Argentré","country":"FR","lat":48.08435,"lon":-0.64106},{"name":"Argentré-du-Plessis","country":"FR","lat":48.05697,"lon":-1.14601},{"name":"Arinthod","country":"FR","lat":46.39339,"lon":5.56616},{"name":"Arlanc","country":"FR","lat":45.41389,"lon":3.72528},{"name":"Arles","country":"FR","lat":42.45654,"lon":2.63457},{"name":"Arles","country":"FR","lat":43.67681,"lon":4.63031},{"name":"Arleux","country":"FR","lat":50.28037,"lon":3.10448},{"name":"Armbouts-Cappel","country":"FR","lat":50.97682,"lon":2.35352},{"name":"Armenonville-les-Gâtineaux","country":"FR","lat":48.54365,"lon":1.6475},{"name":"Armentières","country":"FR","lat":50.68568,"lon":2.88214},{"name":"Armentières-en-Brie","country":"FR","lat":48.97775,"lon":3.02073},{"name":"Armissan","country":"FR","lat":43.18778,"lon":3.0966},{"name":"Armoy","country":"FR","lat":46.35079,"lon":6.51703},{"name":"Arnac-la-Poste","country":"FR","lat":46.26609,"lon":1.37338},{"name":"Arnac-Pompadour","country":"FR","lat":45.40975,"lon":1.36993},{"name":"Arnage","country":"FR","lat":47.92619,"lon":0.18726},{"name":"Arnas","country":"FR","lat":46.02361,"lon":4.7083},{"name":"Arnay-le-Duc","country":"FR","lat":47.13202,"lon":4.48595},{"name":"Arnèke","country":"FR","lat":50.83219,"lon":2.40943},{"name":"Arnières-sur-Iton","country":"FR","lat":48.99678,"lon":1.10384},{"name":"Arnouville","country":"FR","lat":48.98333,"lon":2.41667},{"name":"Aron","country":"FR","lat":48.29745,"lon":-0.55862},{"name":"Arpajon","country":"FR","lat":48.58875,"lon":2.24672},{"name":"Arpajon-sur-Cère","country":"FR","lat":44.90391,"lon":2.45664},{"name":"Arques","country":"FR","lat":50.73375,"lon":2.30237},{"name":"Arques-la-Bataille","country":"FR","lat":49.88122,"lon":1.12875},{"name":"Arradon","country":"FR","lat":47.62616,"lon":-2.82288},{"name":"Arras","country":"FR","lat":50.29301,"lon":2.78186},{"name":"Arrou","country":"FR","lat":48.09768,"lon":1.12851},{"name":"Ars-en-Ré","country":"FR","lat":46.20799,"lon":-1.51595},{"name":"Ars-sur-Formans","country":"FR","lat":45.99491,"lon":4.81986},{"name":"Ars-sur-Moselle","country":"FR","lat":49.07791,"lon":6.0742},{"name":"Arsac","country":"FR","lat":44.99725,"lon":-0.68892},{"name":"Art-sur-Meurthe","country":"FR","lat":48.6575,"lon":6.26708},{"name":"Artannes-sur-Indre","country":"FR","lat":47.27451,"lon":0.60036},{"name":"Artas","country":"FR","lat":45.53717,"lon":5.16352},{"name":"Artemare","country":"FR","lat":45.87441,"lon":5.69366},{"name":"Artenay","country":"FR","lat":48.08246,"lon":1.88098},{"name":"Arthaz-Pont-Notre-Dame","country":"FR","lat":46.15941,"lon":6.26598},{"name":"Arthès","country":"FR","lat":43.95592,"lon":2.20796},{"name":"Arthez-de-Béarn","country":"FR","lat":43.46455,"lon":-0.61535},{"name":"Arthon","country":"FR","lat":46.69361,"lon":1.69857},{"name":"Arthon-en-Retz","country":"FR","lat":47.11655,"lon":-1.9392},{"name":"Artiguelouve","country":"FR","lat":43.31754,"lon":-0.47557},{"name":"Artigues-près-Bordeaux","country":"FR","lat":44.85887,"lon":-0.49718},{"name":"Artix","country":"FR","lat":43.39667,"lon":-0.57256},{"name":"Artres","country":"FR","lat":50.29482,"lon":3.54013},{"name":"Arudy","country":"FR","lat":43.1064,"lon":-0.43333},{"name":"Arvert","country":"FR","lat":45.7406,"lon":-1.12793},{"name":"Arveyres","country":"FR","lat":44.88399,"lon":-0.284},{"name":"Arzano","country":"FR","lat":47.90116,"lon":-3.4404},{"name":"Arzens","country":"FR","lat":43.19947,"lon":2.20962},{"name":"Arzon","country":"FR","lat":47.54943,"lon":-2.89588},{"name":"Ascain","country":"FR","lat":43.34595,"lon":-1.62118},{"name":"Aschères-le-Marché","country":"FR","lat":48.11008,"lon":2.00725},{"name":"Asnières-sur-Nouère","country":"FR","lat":45.71075,"lon":0.04729},{"name":"Asnières-sur-Oise","country":"FR","lat":49.13369,"lon":2.35551},{"name":"Asnières-sur-Seine","country":"FR","lat":48.91667,"lon":2.28333},{"name":"Aspach","country":"FR","lat":47.64234,"lon":7.23353},{"name":"Aspach-le-Bas","country":"FR","lat":47.76135,"lon":7.15104},{"name":"Aspach-le-Haut","country":"FR","lat":47.77653,"lon":7.13145},{"name":"Aspet","country":"FR","lat":43.01487,"lon":0.80088},{"name":"Aspiran","country":"FR","lat":43.56586,"lon":3.45031},{"name":"Aspremont","country":"FR","lat":43.78342,"lon":7.24406},{"name":"Assas","country":"FR","lat":43.70278,"lon":3.9},{"name":"Assat","country":"FR","lat":43.24923,"lon":-0.30018},{"name":"Assérac","country":"FR","lat":47.42925,"lon":-2.39062},{"name":"Asson","country":"FR","lat":43.1407,"lon":-0.25562},{"name":"Astaffort","country":"FR","lat":44.06337,"lon":0.6512},{"name":"Athée-sur-Cher","country":"FR","lat":47.32023,"lon":0.91659},{"name":"Athies-sous-Laon","country":"FR","lat":49.57369,"lon":3.68417},{"name":"Athis-de-l'Orne","country":"FR","lat":48.81667,"lon":-0.5},{"name":"Athis-Mons","country":"FR","lat":48.70522,"lon":2.39147},{"name":"Attainville","country":"FR","lat":49.05779,"lon":2.34497},{"name":"Attiches","country":"FR","lat":50.5222,"lon":3.06222},{"name":"Attichy","country":"FR","lat":49.41121,"lon":3.04949},{"name":"Attignat","country":"FR","lat":46.28562,"lon":5.16164},{"name":"Attigny","country":"FR","lat":49.47846,"lon":4.57803},{"name":"Atur","country":"FR","lat":45.14086,"lon":0.74701},{"name":"Aubagne","country":"FR","lat":43.29276,"lon":5.57067},{"name":"Aubais","country":"FR","lat":43.75524,"lon":4.14733},{"name":"Aube-sur-Rîle","country":"FR","lat":48.7392,"lon":0.55161},{"name":"Aubenas","country":"FR","lat":44.61975,"lon":4.39033},{"name":"Auberchicourt","country":"FR","lat":50.33333,"lon":3.23333},{"name":"Aubergenville","country":"FR","lat":48.95996,"lon":1.85467},{"name":"Auberives-sur-Varèze","country":"FR","lat":45.4208,"lon":4.81914},{"name":"Aubers","country":"FR","lat":50.59543,"lon":2.82666},{"name":"Aubervilliers","country":"FR","lat":48.91667,"lon":2.38333},{"name":"Aubevoye","country":"FR","lat":49.17097,"lon":1.33537},{"name":"Aubie","country":"FR","lat":45.01934,"lon":-0.40642},{"name":"Aubière","country":"FR","lat":45.75082,"lon":3.11078},{"name":"Aubiet","country":"FR","lat":43.64607,"lon":0.78385},{"name":"Aubignan","country":"FR","lat":44.09971,"lon":5.02526},{"name":"Aubigné-Racan","country":"FR","lat":47.69096,"lon":0.26726},{"name":"Aubigny","country":"FR","lat":46.59805,"lon":-1.45409},{"name":"Aubigny-au-Bac","country":"FR","lat":50.2637,"lon":3.16448},{"name":"Aubigny-en-Artois","country":"FR","lat":50.35,"lon":2.58333},{"name":"Aubigny-sur-Nère","country":"FR","lat":47.48819,"lon":2.43895},{"name":"Aubin","country":"FR","lat":44.52809,"lon":2.24439},{"name":"Aubord","country":"FR","lat":43.75698,"lon":4.31301},{"name":"Auboué","country":"FR","lat":49.21198,"lon":5.97663},{"name":"Aubry-du-Hainaut","country":"FR","lat":50.36667,"lon":3.46667},{"name":"Aubusson","country":"FR","lat":45.95486,"lon":2.16724},{"name":"Auby","country":"FR","lat":50.41457,"lon":3.05396},{"name":"Aucamville","country":"FR","lat":43.67053,"lon":1.42766},{"name":"Auch","country":"FR","lat":43.64561,"lon":0.58856},{"name":"Auchel","country":"FR","lat":50.50345,"lon":2.47346},{"name":"Auchy-lès-Hesdin","country":"FR","lat":50.40114,"lon":2.10145},{"name":"Auchy-les-Mines","country":"FR","lat":50.51349,"lon":2.78283},{"name":"Audenge","country":"FR","lat":44.68368,"lon":-1.01344},{"name":"Audierne","country":"FR","lat":48.0164,"lon":-4.53838},{"name":"Audincourt","country":"FR","lat":47.48327,"lon":6.85341},{"name":"Audruicq","country":"FR","lat":50.87795,"lon":2.07975},{"name":"Audun-le-Roman","country":"FR","lat":49.36977,"lon":5.89545},{"name":"Audun-le-Tiche","country":"FR","lat":49.47217,"lon":5.9555},{"name":"Auffargis","country":"FR","lat":48.70049,"lon":1.88696},{"name":"Auffay","country":"FR","lat":49.71881,"lon":1.09911},{"name":"Augan","country":"FR","lat":47.9191,"lon":-2.27947},{"name":"Augny","country":"FR","lat":49.0611,"lon":6.1182},{"name":"Augy","country":"FR","lat":47.7664,"lon":3.61051},{"name":"Aulnat","country":"FR","lat":45.79929,"lon":3.16743},{"name":"Aulnay","country":"FR","lat":46.0209,"lon":-0.34677},{"name":"Aulnay-sous-Bois","country":"FR","lat":48.93814,"lon":2.49402},{"name":"Aulnay-sur-Mauldre","country":"FR","lat":48.9295,"lon":1.84113},{"name":"Aulnois-sous-Laon","country":"FR","lat":49.61429,"lon":3.60547},{"name":"Aulnoy-lez-Valenciennes","country":"FR","lat":50.33333,"lon":3.53333},{"name":"Aulnoye-Aymeries","country":"FR","lat":50.20141,"lon":3.83844},{"name":"Ault","country":"FR","lat":50.10404,"lon":1.45},{"name":"Aumale","country":"FR","lat":49.76985,"lon":1.75587},{"name":"Aumetz","country":"FR","lat":49.41787,"lon":5.94418},{"name":"Aumont-Aubrac","country":"FR","lat":44.72237,"lon":3.28385},{"name":"Aunay-sous-Auneau","country":"FR","lat":48.4414,"lon":1.81094},{"name":"Aunay-sur-Odon","country":"FR","lat":49.02012,"lon":-0.63238},{"name":"Auneau","country":"FR","lat":48.46361,"lon":1.77263},{"name":"Auneuil","country":"FR","lat":49.37026,"lon":1.99712},{"name":"Aups","country":"FR","lat":43.62841,"lon":6.22477},{"name":"Auray","country":"FR","lat":47.66692,"lon":-2.98421},{"name":"Aurec-sur-Loire","country":"FR","lat":45.36908,"lon":4.20161},{"name":"Aureilhan","country":"FR","lat":43.24372,"lon":0.09593},{"name":"Aureille","country":"FR","lat":43.70821,"lon":4.94728},{"name":"Auriac-sur-Vendinelle","country":"FR","lat":43.52379,"lon":1.82661},{"name":"Auribeau-sur-Siagne","country":"FR","lat":43.60063,"lon":6.90992},{"name":"Aurignac","country":"FR","lat":43.21722,"lon":0.88168},{"name":"Aurillac","country":"FR","lat":44.92539,"lon":2.43983},{"name":"Auriol","country":"FR","lat":43.37161,"lon":5.6341},{"name":"Aussillon","country":"FR","lat":43.49897,"lon":2.36313},{"name":"Aussonne","country":"FR","lat":43.68392,"lon":1.31926},{"name":"Auterive","country":"FR","lat":43.35079,"lon":1.47464},{"name":"Authie","country":"FR","lat":49.20615,"lon":-0.43191},{"name":"Authon-du-Perche","country":"FR","lat":48.19615,"lon":0.89189},{"name":"Autrans","country":"FR","lat":45.17605,"lon":5.54271},{"name":"Autry-le-Châtel","country":"FR","lat":47.59886,"lon":2.602},{"name":"Autun","country":"FR","lat":46.95104,"lon":4.29869},{"name":"Auvers-le-Hamon","country":"FR","lat":47.90181,"lon":-0.35195},{"name":"Auvers-Saint-Georges","country":"FR","lat":48.49276,"lon":2.22045},{"name":"Auvers-sur-Oise","country":"FR","lat":49.07158,"lon":2.16978},{"name":"Auvillar","country":"FR","lat":44.06946,"lon":0.89965},{"name":"Auxerre","country":"FR","lat":47.7996,"lon":3.57033},{"name":"Auxi-le-Château","country":"FR","lat":50.23101,"lon":2.11593},{"name":"Auxon-Dessous","country":"FR","lat":47.3,"lon":5.95},{"name":"Auxonne","country":"FR","lat":47.19255,"lon":5.38726},{"name":"Auxy","country":"FR","lat":46.9494,"lon":4.4044},{"name":"Auzances","country":"FR","lat":46.02859,"lon":2.50073},{"name":"Auzat-la-Combelle","country":"FR","lat":45.45224,"lon":3.31825},{"name":"Auzebosc","country":"FR","lat":49.59565,"lon":0.7285},{"name":"Auzeville-Tolosane","country":"FR","lat":43.52822,"lon":1.48321},{"name":"Auzielle","country":"FR","lat":43.54203,"lon":1.56589},{"name":"Auzouer-en-Touraine","country":"FR","lat":47.5423,"lon":0.92067},{"name":"Availles-Limouzine","country":"FR","lat":46.12112,"lon":0.65529},{"name":"Avallon","country":"FR","lat":47.49002,"lon":3.90832},{"name":"Avanne-Aveney","country":"FR","lat":47.2,"lon":5.96667},{"name":"Avanton","country":"FR","lat":46.66295,"lon":0.30327},{"name":"Aveize","country":"FR","lat":45.68243,"lon":4.47786},{"name":"Aveizieux","country":"FR","lat":45.565,"lon":4.37071},{"name":"Avelin","country":"FR","lat":50.53968,"lon":3.08222},{"name":"Avensan","country":"FR","lat":45.03632,"lon":-0.75751},{"name":"Avermes","country":"FR","lat":46.58774,"lon":3.3072},{"name":"Avesnelles","country":"FR","lat":50.11782,"lon":3.94674},{"name":"Avesnes-le-Comte","country":"FR","lat":50.27767,"lon":2.52957},{"name":"Avesnes-le-Sec","country":"FR","lat":50.251,"lon":3.37768},{"name":"Avesnes-les-Aubert","country":"FR","lat":50.2,"lon":3.38333},{"name":"Avesnes-sur-Helpe","country":"FR","lat":50.12372,"lon":3.9257},{"name":"Avessac","country":"FR","lat":47.65341,"lon":-1.9895},{"name":"Avèze","country":"FR","lat":43.97165,"lon":3.6002},{"name":"Avignon","country":"FR","lat":43.94834,"lon":4.80892},{"name":"Avignonet-Lauragais","country":"FR","lat":43.36672,"lon":1.78619},{"name":"Avilly-Saint-Léonard","country":"FR","lat":49.19449,"lon":2.54148},{"name":"Avion","country":"FR","lat":50.41038,"lon":2.83053},{"name":"Aviron","country":"FR","lat":49.05,"lon":1.11667},{"name":"Avize","country":"FR","lat":48.97352,"lon":4.01438},{"name":"Avoine","country":"FR","lat":47.20533,"lon":0.18253},{"name":"Avon","country":"FR","lat":48.40219,"lon":2.72022},{"name":"Avord","country":"FR","lat":47.03514,"lon":2.65295},{"name":"Avranches","country":"FR","lat":48.68436,"lon":-1.35686},{"name":"Avrechy","country":"FR","lat":49.44796,"lon":2.4271},{"name":"Avrillé","country":"FR","lat":47.50663,"lon":-0.58955},{"name":"Avrillé","country":"FR","lat":46.46921,"lon":-1.4927},{"name":"Ax-les-Thermes","country":"FR","lat":42.72016,"lon":1.83937},{"name":"Ay","country":"FR","lat":49.05457,"lon":4.00343},{"name":"Ay-sur-Moselle","country":"FR","lat":49.24326,"lon":6.20627},{"name":"Aydat","country":"FR","lat":45.66022,"lon":2.97316},{"name":"Aydoilles","country":"FR","lat":48.21026,"lon":6.57389},{"name":"Ayguemorte-les-Graves","country":"FR","lat":44.71091,"lon":-0.47645},{"name":"Ayguesvives","country":"FR","lat":43.43733,"lon":1.59771},{"name":"Ayron","country":"FR","lat":46.66004,"lon":0.07501},{"name":"Ayse","country":"FR","lat":46.08135,"lon":6.4455},{"name":"Aytré","country":"FR","lat":46.13417,"lon":-1.11826},{"name":"Azay-le-Brûlé","country":"FR","lat":46.40117,"lon":-0.24711},{"name":"Azay-le-Ferron","country":"FR","lat":46.85097,"lon":1.07084},{"name":"Azay-le-Rideau","country":"FR","lat":47.26405,"lon":0.47132},{"name":"Azay-sur-Cher","country":"FR","lat":47.34966,"lon":0.84562},{"name":"Azé","country":"FR","lat":47.85141,"lon":0.99829},{"name":"Azé","country":"FR","lat":47.8222,"lon":-0.68333},{"name":"Azille","country":"FR","lat":43.27843,"lon":2.65935},{"name":"Baccarat","country":"FR","lat":48.44984,"lon":6.73946},{"name":"Bachant","country":"FR","lat":50.2154,"lon":3.86835},{"name":"Bachy","country":"FR","lat":50.55079,"lon":3.25976},{"name":"Bacqueville-en-Caux","country":"FR","lat":49.78761,"lon":0.99927},{"name":"Baden","country":"FR","lat":47.6185,"lon":-2.9199},{"name":"Badonviller","country":"FR","lat":48.50116,"lon":6.89218},{"name":"Bagard","country":"FR","lat":44.07281,"lon":4.05137},{"name":"Bâgé-la-Ville","country":"FR","lat":46.31567,"lon":4.94086},{"name":"Bages","country":"FR","lat":42.60603,"lon":2.89348},{"name":"Bagnac-sur-Célé","country":"FR","lat":44.66667,"lon":2.16667},{"name":"Bagneaux-sur-Loing","country":"FR","lat":48.2331,"lon":2.70675},{"name":"Bagnères-de-Bigorre","country":"FR","lat":43.06497,"lon":0.14876},{"name":"Bagnères-de-Luchon","country":"FR","lat":42.79079,"lon":0.59341},{"name":"Bagneux","country":"FR","lat":48.79565,"lon":2.30796},{"name":"Bagnoles-de-l'Orne","country":"FR","lat":48.5572,"lon":-0.41383},{"name":"Bagnolet","country":"FR","lat":48.86667,"lon":2.41667},{"name":"Bagnols-en-Forêt","country":"FR","lat":43.53752,"lon":6.69814},{"name":"Bagnols-sur-Cèze","country":"FR","lat":44.16259,"lon":4.61974},{"name":"Baguer-Morvan","country":"FR","lat":48.52475,"lon":-1.77454},{"name":"Baguer-Pican","country":"FR","lat":48.55252,"lon":-1.69927},{"name":"Baho","country":"FR","lat":42.70084,"lon":2.8222},{"name":"Baignes-Sainte-Radegonde","country":"FR","lat":45.38451,"lon":-0.23625},{"name":"Baillargues","country":"FR","lat":43.66126,"lon":4.01283},{"name":"Baille","country":"FR","lat":43.2877,"lon":5.39804},{"name":"Bailleau-l'Évêque","country":"FR","lat":48.4896,"lon":1.39665},{"name":"Bailleau-le-Pin","country":"FR","lat":48.36698,"lon":1.32948},{"name":"Baillet-en-France","country":"FR","lat":49.06187,"lon":2.2988},{"name":"Bailleul","country":"FR","lat":50.73592,"lon":2.73594},{"name":"Bailleul-Sir-Berthoult","country":"FR","lat":50.33752,"lon":2.85129},{"name":"Bailleul-sur-Thérain","country":"FR","lat":49.38526,"lon":2.22279},{"name":"Bailleval","country":"FR","lat":49.34605,"lon":2.45695},{"name":"Bailly","country":"FR","lat":48.84168,"lon":2.07673},{"name":"Bailly-Carrois","country":"FR","lat":48.58029,"lon":2.99047},{"name":"Bailly-Romainvilliers","country":"FR","lat":48.84729,"lon":2.82352},{"name":"Bain-de-Bretagne","country":"FR","lat":47.84687,"lon":-1.68579},{"name":"Baincthun","country":"FR","lat":50.70994,"lon":1.68075},{"name":"Bains","country":"FR","lat":45.00956,"lon":3.77503},{"name":"Bains-les-Bains","country":"FR","lat":48.00113,"lon":6.26492},{"name":"Bains-sur-Oust","country":"FR","lat":47.70335,"lon":-2.07199},{"name":"Bainville-sur-Madon","country":"FR","lat":48.58725,"lon":6.0958},{"name":"Bais","country":"FR","lat":48.25334,"lon":-0.36549},{"name":"Bais","country":"FR","lat":48.01071,"lon":-1.29047},{"name":"Baisieux","country":"FR","lat":50.60841,"lon":3.25251},{"name":"Baixas","country":"FR","lat":42.75005,"lon":2.80911},{"name":"Balagny-sur-Thérain","country":"FR","lat":49.29605,"lon":2.33645},{"name":"Balan","country":"FR","lat":49.68881,"lon":4.96478},{"name":"Balan","country":"FR","lat":45.83416,"lon":5.0993},{"name":"Balaruc-le-Vieux","country":"FR","lat":43.4614,"lon":3.6853},{"name":"Balaruc-les-Bains","country":"FR","lat":43.4417,"lon":3.6778},{"name":"Balazé","country":"FR","lat":48.16923,"lon":-1.1924},{"name":"Balbigny","country":"FR","lat":45.81913,"lon":4.1903},{"name":"Baldersheim","country":"FR","lat":47.80136,"lon":7.38078},{"name":"Ballainvilliers","country":"FR","lat":48.67481,"lon":2.30057},{"name":"Ballaison","country":"FR","lat":46.29842,"lon":6.32765},{"name":"Ballan-Miré","country":"FR","lat":47.34057,"lon":0.61466},{"name":"Ballancourt-sur-Essonne","country":"FR","lat":48.52525,"lon":2.38604},{"name":"Ballon","country":"FR","lat":48.1755,"lon":0.23488},{"name":"Ballots","country":"FR","lat":47.89494,"lon":-1.04738},{"name":"Balma","country":"FR","lat":43.61111,"lon":1.49944},{"name":"Balzac","country":"FR","lat":45.70893,"lon":0.14599},{"name":"Ban-de-Laveline","country":"FR","lat":48.24498,"lon":7.06593},{"name":"Bandol","country":"FR","lat":43.14247,"lon":5.74718},{"name":"Bannalec","country":"FR","lat":47.93236,"lon":-3.69835},{"name":"Bantzenheim","country":"FR","lat":47.82452,"lon":7.51445},{"name":"Banyuls de la Marenda","country":"FR","lat":42.48375,"lon":3.12897},{"name":"Banyuls-dels-Aspres","country":"FR","lat":42.56611,"lon":2.86607},{"name":"Bapaume","country":"FR","lat":50.10379,"lon":2.84966},{"name":"Bar-le-Duc","country":"FR","lat":48.77275,"lon":5.16108},{"name":"Bar-sur-Aube","country":"FR","lat":48.23315,"lon":4.7064},{"name":"Bar-sur-Seine","country":"FR","lat":48.11295,"lon":4.37656},{"name":"Baraqueville","country":"FR","lat":44.27655,"lon":2.43184},{"name":"Barbaste","country":"FR","lat":44.1693,"lon":0.28603},{"name":"Barbâtre","country":"FR","lat":46.94359,"lon":-2.17981},{"name":"Barbazan-Debat","country":"FR","lat":43.1958,"lon":0.1206},{"name":"Barbechat","country":"FR","lat":47.2775,"lon":-1.28524},{"name":"Barbentane","country":"FR","lat":43.89939,"lon":4.74756},{"name":"Barberaz","country":"FR","lat":45.56179,"lon":5.94306},{"name":"Barbezieux-Saint-Hilaire","country":"FR","lat":45.47265,"lon":-0.15218},{"name":"Barbizon","country":"FR","lat":48.44346,"lon":2.60313},{"name":"Barby","country":"FR","lat":45.5681,"lon":5.97966},{"name":"Barcelonne-du-Gers","country":"FR","lat":43.70334,"lon":-0.23632},{"name":"Barcelonnette","country":"FR","lat":44.38691,"lon":6.65179},{"name":"Bardos","country":"FR","lat":43.47511,"lon":-1.20354},{"name":"Barentin","country":"FR","lat":49.54533,"lon":0.95515},{"name":"Barenton","country":"FR","lat":48.60027,"lon":-0.83258},{"name":"Bargemon","country":"FR","lat":43.61899,"lon":6.54957},{"name":"Barjac","country":"FR","lat":44.30841,"lon":4.34774},{"name":"Barjols","country":"FR","lat":43.55805,"lon":6.00752},{"name":"Barjouville","country":"FR","lat":48.41002,"lon":1.47639},{"name":"Barlin","country":"FR","lat":50.45238,"lon":2.61955},{"name":"Barneville-Carteret","country":"FR","lat":49.38333,"lon":-1.75},{"name":"Barneville-Plage","country":"FR","lat":49.36786,"lon":-1.76512},{"name":"Barr","country":"FR","lat":48.40755,"lon":7.44873},{"name":"Barraux","country":"FR","lat":45.43176,"lon":5.97964},{"name":"Barsac","country":"FR","lat":44.60777,"lon":-0.31673},{"name":"Bart","country":"FR","lat":47.48861,"lon":6.7709},{"name":"Bartenheim","country":"FR","lat":47.63364,"lon":7.47951},{"name":"Bas-en-Basset","country":"FR","lat":45.30599,"lon":4.10912},{"name":"Bassan","country":"FR","lat":43.41126,"lon":3.25312},{"name":"Basse-Goulaine","country":"FR","lat":47.2151,"lon":-1.46598},{"name":"Basse-Ham","country":"FR","lat":49.38626,"lon":6.2418},{"name":"Bassens","country":"FR","lat":45.57555,"lon":5.939},{"name":"Bassens","country":"FR","lat":44.90353,"lon":-0.517},{"name":"Bassillac","country":"FR","lat":45.19086,"lon":0.81332},{"name":"Bassussarry","country":"FR","lat":43.44658,"lon":-1.51181},{"name":"Bastia","country":"FR","lat":42.70219,"lon":9.45123},{"name":"Batilly","country":"FR","lat":49.17372,"lon":5.96869},{"name":"Battenheim","country":"FR","lat":47.81999,"lon":7.3817},{"name":"Batz-sur-Mer","country":"FR","lat":47.27732,"lon":-2.48048},{"name":"Baud","country":"FR","lat":47.8759,"lon":-3.01926},{"name":"Baugé-en-Anjou","country":"FR","lat":47.54447,"lon":-0.10653},{"name":"Baugy","country":"FR","lat":47.08181,"lon":2.72848},{"name":"Baule","country":"FR","lat":47.81084,"lon":1.67259},{"name":"Baulne","country":"FR","lat":48.49303,"lon":2.3623},{"name":"Baulon","country":"FR","lat":47.98519,"lon":-1.93198},{"name":"Baume-les-Dames","country":"FR","lat":47.35295,"lon":6.36117},{"name":"Bauné","country":"FR","lat":47.49954,"lon":-0.31906},{"name":"Bauvin","country":"FR","lat":50.51714,"lon":2.89404},{"name":"Bavans","country":"FR","lat":47.48528,"lon":6.73324},{"name":"Bavay","country":"FR","lat":50.29828,"lon":3.79372},{"name":"Bavent","country":"FR","lat":49.22996,"lon":-0.18675},{"name":"Bavilliers","country":"FR","lat":47.62235,"lon":6.83543},{"name":"Bayard-sur-Marne","country":"FR","lat":48.5541,"lon":5.0768},{"name":"Bayeux","country":"FR","lat":49.27732,"lon":-0.7039},{"name":"Bayon","country":"FR","lat":48.47425,"lon":6.31631},{"name":"Bayonne","country":"FR","lat":43.49316,"lon":-1.473},{"name":"Bazainville","country":"FR","lat":48.80435,"lon":1.66732},{"name":"Bazancourt","country":"FR","lat":49.36562,"lon":4.17051},{"name":"Bazas","country":"FR","lat":44.43161,"lon":-0.21337},{"name":"Bazeilles","country":"FR","lat":49.6765,"lon":4.97752},{"name":"Bazemont","country":"FR","lat":48.92726,"lon":1.86651},{"name":"Bazet","country":"FR","lat":43.29081,"lon":0.07146},{"name":"Baziège","country":"FR","lat":43.45494,"lon":1.61386},{"name":"Bazoches-les-Gallerandes","country":"FR","lat":48.1654,"lon":2.04319},{"name":"Bazoges-en-Pareds","country":"FR","lat":46.65697,"lon":-0.9183},{"name":"Bazouges-la-Pérouse","country":"FR","lat":48.42614,"lon":-1.57439},{"name":"Bazouges-sur-le-Loir","country":"FR","lat":47.68928,"lon":-0.16883},{"name":"Beaucaire","country":"FR","lat":43.80806,"lon":4.64417},{"name":"Beaucamps-le-Vieux","country":"FR","lat":49.84642,"lon":1.78272},{"name":"Beaucé","country":"FR","lat":48.33852,"lon":-1.15722},{"name":"Beauchamp","country":"FR","lat":49.01667,"lon":2.2},{"name":"Beauchamps","country":"FR","lat":50.01202,"lon":1.51764},{"name":"Beauchastel","country":"FR","lat":44.82587,"lon":4.80305},{"name":"Beaucourt","country":"FR","lat":47.48878,"lon":6.92214},{"name":"Beaucouzé","country":"FR","lat":47.47514,"lon":-0.63219},{"name":"Beaucroissant","country":"FR","lat":45.34276,"lon":5.47102},{"name":"Beaufay","country":"FR","lat":48.14715,"lon":0.36192},{"name":"Beaufort","country":"FR","lat":45.71915,"lon":6.57331},{"name":"Beaufort-en-Vallée","country":"FR","lat":47.44006,"lon":-0.21655},{"name":"Beaugency","country":"FR","lat":47.78019,"lon":1.62705},{"name":"Beaujeu","country":"FR","lat":46.15428,"lon":4.58826},{"name":"Beaulieu","country":"FR","lat":43.72861,"lon":4.02194},{"name":"Beaulieu-lès-Loches","country":"FR","lat":47.12526,"lon":1.01585},{"name":"Beaulieu-sous-la-Roche","country":"FR","lat":46.67706,"lon":-1.61073},{"name":"Beaulieu-sur-Dordogne","country":"FR","lat":44.97832,"lon":1.83834},{"name":"Beaulieu-sur-Layon","country":"FR","lat":47.31094,"lon":-0.59017},{"name":"Beaulieu-sur-Mer","country":"FR","lat":43.70692,"lon":7.33135},{"name":"Beaulon","country":"FR","lat":46.60156,"lon":3.67314},{"name":"Beaumes-de-Venise","country":"FR","lat":44.12227,"lon":5.03065},{"name":"Beaumetz-lès-Loges","country":"FR","lat":50.23897,"lon":2.65818},{"name":"Beaumont","country":"FR","lat":46.73696,"lon":0.42967},{"name":"Beaumont","country":"FR","lat":46.10403,"lon":6.12074},{"name":"Beaumont","country":"FR","lat":45.75165,"lon":3.08294},{"name":"Beaumont-de-Lomagne","country":"FR","lat":43.88303,"lon":0.98768},{"name":"Beaumont-de-Pertuis","country":"FR","lat":43.73737,"lon":5.68959},{"name":"Beaumont-du-Gâtinais","country":"FR","lat":48.1386,"lon":2.47913},{"name":"Beaumont-du-Périgord","country":"FR","lat":44.76988,"lon":0.76728},{"name":"Beaumont-en-Véron","country":"FR","lat":47.19397,"lon":0.18436},{"name":"Beaumont-Hague","country":"FR","lat":49.66387,"lon":-1.83822},{"name":"Beaumont-la-Ronce","country":"FR","lat":47.56948,"lon":0.67017},{"name":"Beaumont-le-Roger","country":"FR","lat":49.07839,"lon":0.78081},{"name":"Beaumont-lès-Valence","country":"FR","lat":44.86203,"lon":4.94309},{"name":"Beaumont-Monteux","country":"FR","lat":45.0198,"lon":4.91883},{"name":"Beaumont-sur-Lèze","country":"FR","lat":43.38056,"lon":1.35733},{"name":"Beaumont-sur-Oise","country":"FR","lat":49.14232,"lon":2.28705},{"name":"Beaumont-sur-Sarthe","country":"FR","lat":48.22747,"lon":0.12923},{"name":"Beaune","country":"FR","lat":47.02413,"lon":4.83887},{"name":"Beaune-la-Rolande","country":"FR","lat":48.07124,"lon":2.4314},{"name":"Beaupréau","country":"FR","lat":47.20214,"lon":-0.99471},{"name":"Beaupuy","country":"FR","lat":44.53549,"lon":0.149},{"name":"Beaupuy","country":"FR","lat":43.64713,"lon":1.55517},{"name":"Beauquesne","country":"FR","lat":50.08526,"lon":2.39276},{"name":"Beaurains","country":"FR","lat":50.26599,"lon":2.79467},{"name":"Beaurainville","country":"FR","lat":50.42432,"lon":1.89938},{"name":"Beaurepaire","country":"FR","lat":46.91047,"lon":-1.08936},{"name":"Beaurepaire","country":"FR","lat":45.33658,"lon":5.04878},{"name":"Beaurevoir","country":"FR","lat":49.99714,"lon":3.30855},{"name":"Beausemblant","country":"FR","lat":45.21706,"lon":4.83241},{"name":"Beausoleil","country":"FR","lat":43.74311,"lon":7.4225},{"name":"Beautiran","country":"FR","lat":44.70366,"lon":-0.45234},{"name":"Beautor","country":"FR","lat":49.65214,"lon":3.34475},{"name":"Beauvais","country":"FR","lat":49.43333,"lon":2.08333},{"name":"Beauval","country":"FR","lat":50.10789,"lon":2.33269},{"name":"Beauvallon","country":"FR","lat":44.85593,"lon":4.90756},{"name":"Beauvoir-de-Marc","country":"FR","lat":45.52009,"lon":5.07906},{"name":"Beauvoir-sur-Mer","country":"FR","lat":46.91506,"lon":-2.04085},{"name":"Beauvoir-sur-Niort","country":"FR","lat":46.18198,"lon":-0.47396},{"name":"Beauvois-en-Cambrésis","country":"FR","lat":50.13735,"lon":3.3787},{"name":"Beauvoisin","country":"FR","lat":43.71869,"lon":4.32298},{"name":"Beauzac","country":"FR","lat":45.25913,"lon":4.09874},{"name":"Beauzelle","country":"FR","lat":43.66713,"lon":1.37518},{"name":"Bécon-les-Granits","country":"FR","lat":47.50255,"lon":-0.80162},{"name":"Bédarieux","country":"FR","lat":43.61602,"lon":3.15892},{"name":"Bédarrides","country":"FR","lat":44.04022,"lon":4.89819},{"name":"Bédée","country":"FR","lat":48.17999,"lon":-1.94469},{"name":"Bédoin","country":"FR","lat":44.12432,"lon":5.1804},{"name":"Bégaar","country":"FR","lat":43.82363,"lon":-0.84904},{"name":"Béganne","country":"FR","lat":47.59622,"lon":-2.24125},{"name":"Bégard","country":"FR","lat":48.62766,"lon":-3.30178},{"name":"Bègles","country":"FR","lat":44.80759,"lon":-0.55144},{"name":"Bégrolles-en-Mauges","country":"FR","lat":47.14102,"lon":-0.93991},{"name":"Behren-lès-Forbach","country":"FR","lat":49.16949,"lon":6.93933},{"name":"Beignon","country":"FR","lat":47.97062,"lon":-2.17155},{"name":"Bel-Air","country":"FR","lat":48.84169,"lon":2.40489},{"name":"Bélâbre","country":"FR","lat":46.55121,"lon":1.15791},{"name":"Belberaud","country":"FR","lat":43.50768,"lon":1.56907},{"name":"Belbeuf","country":"FR","lat":49.38766,"lon":1.14245},{"name":"Belcodène","country":"FR","lat":43.42612,"lon":5.58878},{"name":"Bélesta","country":"FR","lat":42.90396,"lon":1.93412},{"name":"Belfort","country":"FR","lat":47.64218,"lon":6.85385},{"name":"Belgentier","country":"FR","lat":43.24535,"lon":5.99933},{"name":"Béligneux","country":"FR","lat":45.86775,"lon":5.12747},{"name":"Belin-Béliet","country":"FR","lat":44.5,"lon":-0.78333},{"name":"Bellac","country":"FR","lat":46.1221,"lon":1.04927},{"name":"Bellaing","country":"FR","lat":50.36811,"lon":3.42515},{"name":"Belle de Mai","country":"FR","lat":43.31184,"lon":5.38541},{"name":"Belle-Isle-en-Terre","country":"FR","lat":48.54477,"lon":-3.39583},{"name":"Belle-Plagne","country":"FR","lat":45.50932,"lon":6.70685},{"name":"Bellegarde","country":"FR","lat":47.98333,"lon":2.43333},{"name":"Bellegarde","country":"FR","lat":43.75401,"lon":4.51372},{"name":"Bellegarde-en-Forez","country":"FR","lat":45.64469,"lon":4.29721},{"name":"Bellegarde-sur-Valserine","country":"FR","lat":46.10787,"lon":5.82421},{"name":"Bellême","country":"FR","lat":48.37329,"lon":0.57005},{"name":"Bellenaves","country":"FR","lat":46.20045,"lon":3.07995},{"name":"Belleneuve","country":"FR","lat":47.36224,"lon":5.26393},{"name":"Bellengreville","country":"FR","lat":49.12425,"lon":-0.20961},{"name":"Bellerive-sur-Allier","country":"FR","lat":46.11652,"lon":3.40406},{"name":"Belleu","country":"FR","lat":49.35917,"lon":3.33556},{"name":"Bellevaux","country":"FR","lat":46.25875,"lon":6.53351},{"name":"Belleville","country":"FR","lat":46.10867,"lon":4.7492},{"name":"Belleville","country":"FR","lat":48.81817,"lon":6.10294},{"name":"Belleville-sur-Loire","country":"FR","lat":47.5,"lon":2.85},{"name":"Belleville-sur-Meuse","country":"FR","lat":49.17863,"lon":5.3719},{"name":"Belleville-sur-Vie","country":"FR","lat":46.7829,"lon":-1.4307},{"name":"Belley","country":"FR","lat":45.75917,"lon":5.68813},{"name":"Bellignat","country":"FR","lat":46.24237,"lon":5.62843},{"name":"Belligné","country":"FR","lat":47.46774,"lon":-1.0278},{"name":"Belloy-en-France","country":"FR","lat":49.08837,"lon":2.37159},{"name":"Belmont-de-la-Loire","country":"FR","lat":46.16596,"lon":4.34737},{"name":"Belmont-sur-Rance","country":"FR","lat":43.81812,"lon":2.7543},{"name":"Belpech","country":"FR","lat":43.19817,"lon":1.75201},{"name":"Belsunce","country":"FR","lat":43.29834,"lon":5.3766},{"name":"Belvès","country":"FR","lat":44.77635,"lon":1.00721},{"name":"Belz","country":"FR","lat":47.67643,"lon":-3.1701},{"name":"Bénéjacq","country":"FR","lat":43.1919,"lon":-0.21343},{"name":"Bénesse-Maremne","country":"FR","lat":43.63474,"lon":-1.36174},{"name":"Benet","country":"FR","lat":46.36776,"lon":-0.59756},{"name":"Benfeld","country":"FR","lat":48.37062,"lon":7.5937},{"name":"Béning-lès-Saint-Avold","country":"FR","lat":49.13504,"lon":6.83902},{"name":"Bennecourt","country":"FR","lat":49.04148,"lon":1.55469},{"name":"Bennwihr","country":"FR","lat":48.14456,"lon":7.32445},{"name":"Bénodet","country":"FR","lat":47.87531,"lon":-4.1058},{"name":"Bénouville","country":"FR","lat":49.24151,"lon":-0.28246},{"name":"Benquet","country":"FR","lat":43.82967,"lon":-0.50171},{"name":"Bérat","country":"FR","lat":43.37772,"lon":1.17589},{"name":"Berck","country":"FR","lat":50.4,"lon":1.6},{"name":"Berck-Plage","country":"FR","lat":50.40704,"lon":1.56446},{"name":"Bercy","country":"FR","lat":48.83828,"lon":2.38167},{"name":"Bergerac","country":"FR","lat":44.85157,"lon":0.48171},{"name":"Bergheim","country":"FR","lat":48.2054,"lon":7.36299},{"name":"Bergholtz","country":"FR","lat":47.9167,"lon":7.24651},{"name":"Bergues","country":"FR","lat":50.96882,"lon":2.43242},{"name":"Berlaimont","country":"FR","lat":50.20155,"lon":3.81343},{"name":"Bernardswiller","country":"FR","lat":48.45035,"lon":7.46238},{"name":"Bernaville","country":"FR","lat":50.13232,"lon":2.163},{"name":"Bernay","country":"FR","lat":49.08888,"lon":0.59858},{"name":"Berné","country":"FR","lat":47.9953,"lon":-3.39208},{"name":"Bernes-sur-Oise","country":"FR","lat":49.16128,"lon":2.3},{"name":"Berneval-le-Grand","country":"FR","lat":49.95328,"lon":1.18755},{"name":"Bernières-sur-Mer","country":"FR","lat":49.33057,"lon":-0.42299},{"name":"Bernin","country":"FR","lat":45.26772,"lon":5.86457},{"name":"Bernis","country":"FR","lat":43.76557,"lon":4.28619},{"name":"Berre-l'Étang","country":"FR","lat":43.47809,"lon":5.17044},{"name":"Berre-les-Alpes","country":"FR","lat":43.83052,"lon":7.32877},{"name":"Berric","country":"FR","lat":47.63244,"lon":-2.52499},{"name":"Berrien","country":"FR","lat":48.40342,"lon":-3.7518},{"name":"Berrwiller","country":"FR","lat":47.84984,"lon":7.21922},{"name":"Bersée","country":"FR","lat":50.47978,"lon":3.14765},{"name":"Berson","country":"FR","lat":45.10803,"lon":-0.58684},{"name":"Berstett","country":"FR","lat":48.679,"lon":7.65721},{"name":"Berteaucourt-les-Dames","country":"FR","lat":50.04697,"lon":2.1575},{"name":"Berthecourt","country":"FR","lat":49.35097,"lon":2.22471},{"name":"Bertrange","country":"FR","lat":49.31368,"lon":6.19208},{"name":"Bertry","country":"FR","lat":50.08718,"lon":3.44298},{"name":"Béruges","country":"FR","lat":46.56715,"lon":0.20735},{"name":"Besançon","country":"FR","lat":47.24878,"lon":6.01815},{"name":"Besné","country":"FR","lat":47.39738,"lon":-2.09137},{"name":"Bessan","country":"FR","lat":43.36138,"lon":3.4219},{"name":"Bessancourt","country":"FR","lat":49.03765,"lon":2.20936},{"name":"Bessay-sur-Allier","country":"FR","lat":46.44199,"lon":3.36257},{"name":"Besse-et-Saint-Anastaise","country":"FR","lat":45.51667,"lon":2.93333},{"name":"Bessé-sur-Braye","country":"FR","lat":47.83355,"lon":0.74962},{"name":"Besse-sur-Issole","country":"FR","lat":43.34892,"lon":6.17656},{"name":"Bessèges","country":"FR","lat":44.29174,"lon":4.1004},{"name":"Bessenay","country":"FR","lat":45.77661,"lon":4.55441},{"name":"Bessières","country":"FR","lat":43.79861,"lon":1.60624},{"name":"Bessines","country":"FR","lat":46.30207,"lon":-0.51628},{"name":"Bessines-sur-Gartempe","country":"FR","lat":46.10888,"lon":1.36831},{"name":"Béthencourt-sur-Mer","country":"FR","lat":50.07756,"lon":1.50348},{"name":"Bétheny","country":"FR","lat":49.28498,"lon":4.05495},{"name":"Béthisy-Saint-Martin","country":"FR","lat":49.2948,"lon":2.81743},{"name":"Béthisy-Saint-Pierre","country":"FR","lat":49.30482,"lon":2.79636},{"name":"Bethoncourt","country":"FR","lat":47.53512,"lon":6.80504},{"name":"Béthune","country":"FR","lat":50.52965,"lon":2.64003},{"name":"Betschdorf","country":"FR","lat":48.89825,"lon":7.90196},{"name":"Bettancourt-la-Ferrée","country":"FR","lat":48.64898,"lon":4.96971},{"name":"Betton","country":"FR","lat":48.1827,"lon":-1.6448},{"name":"Betz","country":"FR","lat":49.15558,"lon":2.95584},{"name":"Beure","country":"FR","lat":47.2069,"lon":6.00548},{"name":"Beuville","country":"FR","lat":49.24364,"lon":-0.32585},{"name":"Beuvillers","country":"FR","lat":49.12961,"lon":0.25492},{"name":"Beuvrages","country":"FR","lat":50.38414,"lon":3.4942},{"name":"Beuvry","country":"FR","lat":50.51674,"lon":2.68541},{"name":"Beuzec-Cap-Sizun","country":"FR","lat":48.07556,"lon":-4.51189},{"name":"Beuzeville","country":"FR","lat":49.34483,"lon":0.34254},{"name":"Beuzeville-la-Grenier","country":"FR","lat":49.59157,"lon":0.42684},{"name":"Béville-le-Comte","country":"FR","lat":48.43558,"lon":1.71305},{"name":"Beychac","country":"FR","lat":44.87747,"lon":-0.40277},{"name":"Beynat","country":"FR","lat":45.12444,"lon":1.72323},{"name":"Beynes","country":"FR","lat":48.85626,"lon":1.87261},{"name":"Beynost","country":"FR","lat":45.83569,"lon":4.9991},{"name":"Bezannes","country":"FR","lat":49.22339,"lon":3.98892},{"name":"Béziers","country":"FR","lat":43.34122,"lon":3.21402},{"name":"Bezons","country":"FR","lat":48.92426,"lon":2.2128},{"name":"Bezouce","country":"FR","lat":43.8819,"lon":4.49034},{"name":"Bézu-Saint-Éloi","country":"FR","lat":49.29524,"lon":1.70404},{"name":"Biache-Saint-Vaast","country":"FR","lat":50.30869,"lon":2.94777},{"name":"Biard","country":"FR","lat":46.57726,"lon":0.30554},{"name":"Biarritz","country":"FR","lat":43.48055,"lon":-1.55684},{"name":"Biars-sur-Cère","country":"FR","lat":44.92831,"lon":1.8465},{"name":"Bias","country":"FR","lat":44.41595,"lon":0.66933},{"name":"Bidache","country":"FR","lat":43.48317,"lon":-1.1413},{"name":"Bidart","country":"FR","lat":43.43698,"lon":-1.59294},{"name":"Bienville","country":"FR","lat":48.57582,"lon":5.04579},{"name":"Bierne","country":"FR","lat":50.96232,"lon":2.40963},{"name":"Biesheim","country":"FR","lat":48.04118,"lon":7.54474},{"name":"Biesles","country":"FR","lat":48.08597,"lon":5.29409},{"name":"Biéville-Beuville","country":"FR","lat":49.24293,"lon":-0.32762},{"name":"Bièvres","country":"FR","lat":48.75772,"lon":2.21881},{"name":"Biganos","country":"FR","lat":44.64425,"lon":-0.97841},{"name":"Bignan","country":"FR","lat":47.87889,"lon":-2.77432},{"name":"Bignoux","country":"FR","lat":46.59969,"lon":0.46943},{"name":"Biguglia","country":"FR","lat":42.62692,"lon":9.42018},{"name":"Bihorel","country":"FR","lat":49.45468,"lon":1.1223},{"name":"Bilieu","country":"FR","lat":45.44809,"lon":5.54268},{"name":"Billère","country":"FR","lat":43.30264,"lon":-0.39733},{"name":"Billom","country":"FR","lat":45.72267,"lon":3.33869},{"name":"Billy-Berclau","country":"FR","lat":50.51783,"lon":2.86613},{"name":"Billy-Montigny","country":"FR","lat":50.41711,"lon":2.90286},{"name":"Billy-sur-Aisne","country":"FR","lat":49.35632,"lon":3.38357},{"name":"Binic","country":"FR","lat":48.60498,"lon":-2.82428},{"name":"Bining","country":"FR","lat":49.03729,"lon":7.25273},{"name":"Biol","country":"FR","lat":45.4914,"lon":5.3855},{"name":"Biot","country":"FR","lat":43.62852,"lon":7.0953},{"name":"Biscarrosse","country":"FR","lat":44.39454,"lon":-1.16721},{"name":"Bischheim","country":"FR","lat":48.61612,"lon":7.75343},{"name":"Bischoffsheim","country":"FR","lat":48.48703,"lon":7.48967},{"name":"Bischwiller","country":"FR","lat":48.76826,"lon":7.85406},{"name":"Bitche","country":"FR","lat":49.05232,"lon":7.42992},{"name":"Bitschwiller-lès-Thann","country":"FR","lat":47.82969,"lon":7.07911},{"name":"Biviers","country":"FR","lat":45.23333,"lon":5.8},{"name":"Bizanet","country":"FR","lat":43.16498,"lon":2.87046},{"name":"Bizanos","country":"FR","lat":43.28753,"lon":-0.35164},{"name":"Bize-Minervois","country":"FR","lat":43.31843,"lon":2.87078},{"name":"Blacé","country":"FR","lat":46.03152,"lon":4.64448},{"name":"Blaesheim","country":"FR","lat":48.50648,"lon":7.60923},{"name":"Blagnac","country":"FR","lat":43.63675,"lon":1.38971},{"name":"Blagny","country":"FR","lat":49.62167,"lon":5.19194},{"name":"Blain","country":"FR","lat":47.47563,"lon":-1.76449},{"name":"Blaincourt-lès-Précy","country":"FR","lat":49.23333,"lon":2.35},{"name":"Blainville-Crevon","country":"FR","lat":49.50395,"lon":1.29952},{"name":"Blainville-sur-Mer","country":"FR","lat":49.06599,"lon":-1.5834},{"name":"Blainville-sur-Orne","country":"FR","lat":49.22913,"lon":-0.30061},{"name":"Blaison-Gohier","country":"FR","lat":47.39951,"lon":-0.37723},{"name":"Blamont","country":"FR","lat":47.38513,"lon":6.848},{"name":"Blancafort","country":"FR","lat":47.53219,"lon":2.52981},{"name":"Blangy-sur-Bresle","country":"FR","lat":49.93211,"lon":1.62514},{"name":"Blanquefort","country":"FR","lat":44.91065,"lon":-0.63758},{"name":"Blanzat","country":"FR","lat":45.82975,"lon":3.07794},{"name":"Blanzy","country":"FR","lat":46.70012,"lon":4.38833},{"name":"Blaringhem","country":"FR","lat":50.6911,"lon":2.40321},{"name":"Blausasc","country":"FR","lat":43.80572,"lon":7.36477},{"name":"Blauzac","country":"FR","lat":43.96305,"lon":4.36749},{"name":"Blavozy","country":"FR","lat":45.0572,"lon":3.97993},{"name":"Blaye","country":"FR","lat":45.12764,"lon":-0.66225},{"name":"Blaye-les-Mines","country":"FR","lat":44.03072,"lon":2.13129},{"name":"Blendecques","country":"FR","lat":50.71843,"lon":2.28601},{"name":"Bléneau","country":"FR","lat":47.7,"lon":2.95},{"name":"Blénod-lès-Pont-à-Mousson","country":"FR","lat":48.88487,"lon":6.04844},{"name":"Blénod-lès-Toul","country":"FR","lat":48.59882,"lon":5.83685},{"name":"Blérancourt","country":"FR","lat":49.51667,"lon":3.15},{"name":"Bléré","country":"FR","lat":47.32738,"lon":0.99186},{"name":"Bletterans","country":"FR","lat":46.74673,"lon":5.45444},{"name":"Bliesbruck","country":"FR","lat":49.11543,"lon":7.18112},{"name":"Bligny-lès-Beaune","country":"FR","lat":46.98631,"lon":4.8262},{"name":"Blodelsheim","country":"FR","lat":47.88538,"lon":7.53635},{"name":"Blois","country":"FR","lat":47.59432,"lon":1.32912},{"name":"Blonville-sur-Mer","country":"FR","lat":49.33709,"lon":0.02709},{"name":"Blotzheim","country":"FR","lat":47.6026,"lon":7.49654},{"name":"Bobigny","country":"FR","lat":48.90982,"lon":2.45012},{"name":"Bodilis","country":"FR","lat":48.52986,"lon":-4.11658},{"name":"Boé","country":"FR","lat":44.1602,"lon":0.6281},{"name":"Boëge","country":"FR","lat":46.20711,"lon":6.40428},{"name":"Boeil-Bezing","country":"FR","lat":43.22154,"lon":-0.2667},{"name":"Boën-sur-Lignon","country":"FR","lat":45.75114,"lon":4.00725},{"name":"Bœrsch","country":"FR","lat":48.47656,"lon":7.43998},{"name":"Boeschepe","country":"FR","lat":50.8,"lon":2.7},{"name":"Bohain-en-Vermandois","country":"FR","lat":49.9873,"lon":3.453},{"name":"Bohars","country":"FR","lat":48.42917,"lon":-4.51424},{"name":"Boigny-sur-Bionne","country":"FR","lat":47.93333,"lon":2.01667},{"name":"Bois-Colombes","country":"FR","lat":48.91936,"lon":2.27485},{"name":"Bois-d'Amont","country":"FR","lat":46.5328,"lon":6.1375},{"name":"Bois-d'Arcy","country":"FR","lat":48.79966,"lon":2.02325},{"name":"Bois-de-Céné","country":"FR","lat":46.93769,"lon":-1.8861},{"name":"Bois-Grenier","country":"FR","lat":50.64985,"lon":2.87409},{"name":"Bois-Guillaume","country":"FR","lat":49.4602,"lon":1.12219},{"name":"Bois-le-Roi","country":"FR","lat":48.47348,"lon":2.70464},{"name":"Boiscommun","country":"FR","lat":48.03576,"lon":2.38333},{"name":"Boisgervilly","country":"FR","lat":48.16688,"lon":-2.06436},{"name":"Boismé","country":"FR","lat":46.77472,"lon":-0.43573},{"name":"Boisseron","country":"FR","lat":43.75795,"lon":4.0797},{"name":"Boisset","country":"FR","lat":44.0476,"lon":4.00908},{"name":"Boisseuil","country":"FR","lat":45.77003,"lon":1.33124},{"name":"Boissise-le-Roi","country":"FR","lat":48.52479,"lon":2.56971},{"name":"Boissy-le-Châtel","country":"FR","lat":48.82073,"lon":3.13651},{"name":"Boissy-le-Cutté","country":"FR","lat":48.4702,"lon":2.28326},{"name":"Boissy-Saint-Léger","country":"FR","lat":48.75149,"lon":2.51163},{"name":"Boissy-sous-Saint-Yon","country":"FR","lat":48.55379,"lon":2.21212},{"name":"Bolbec","country":"FR","lat":49.57321,"lon":0.47339},{"name":"Bollène","country":"FR","lat":44.28124,"lon":4.74891},{"name":"Bollezeele","country":"FR","lat":50.86687,"lon":2.34751},{"name":"Bollwiller","country":"FR","lat":47.85832,"lon":7.26179},{"name":"Bologne","country":"FR","lat":48.20005,"lon":5.14209},{"name":"Bompas","country":"FR","lat":42.73099,"lon":2.93325},{"name":"Bon-Encontre","country":"FR","lat":44.186,"lon":0.67134},{"name":"Bon-Secours","country":"FR","lat":43.31923,"lon":5.38426},{"name":"Bonchamp-lès-Laval","country":"FR","lat":48.07379,"lon":-0.70195},{"name":"Bondoufle","country":"FR","lat":48.61294,"lon":2.37775},{"name":"Bondues","country":"FR","lat":50.70196,"lon":3.09497},{"name":"Bondy","country":"FR","lat":48.9018,"lon":2.48931},{"name":"Bonifacio","country":"FR","lat":41.38723,"lon":9.15667},{"name":"Bonnac-la-Côte","country":"FR","lat":45.94146,"lon":1.28471},{"name":"Bonnat","country":"FR","lat":46.32781,"lon":1.90417},{"name":"Bonne","country":"FR","lat":46.17207,"lon":6.32443},{"name":"Bonnefamille","country":"FR","lat":45.59956,"lon":5.12489},{"name":"Bonnelles","country":"FR","lat":48.61816,"lon":2.02922},{"name":"Bonnemain","country":"FR","lat":48.46675,"lon":-1.76731},{"name":"Bonnes","country":"FR","lat":46.60451,"lon":0.5954},{"name":"Bonnétable","country":"FR","lat":48.17902,"lon":0.4258},{"name":"Bonneuil-Matours","country":"FR","lat":46.6819,"lon":0.56968},{"name":"Bonneuil-sur-Marne","country":"FR","lat":48.7695,"lon":2.4793},{"name":"Bonneval","country":"FR","lat":48.18312,"lon":1.38524},{"name":"Bonneveine","country":"FR","lat":43.25,"lon":5.38333},{"name":"Bonneville","country":"FR","lat":46.0802,"lon":6.40726},{"name":"Bonnières-sur-Seine","country":"FR","lat":49.03525,"lon":1.5783},{"name":"Bonnieux","country":"FR","lat":43.82396,"lon":5.30759},{"name":"Bonny-sur-Loire","country":"FR","lat":47.56172,"lon":2.83933},{"name":"Bono","country":"FR","lat":47.6404,"lon":-2.94986},{"name":"Bons-en-Chablais","country":"FR","lat":46.26486,"lon":6.37129},{"name":"Bonson","country":"FR","lat":45.52291,"lon":4.2127},{"name":"Boofzheim","country":"FR","lat":48.33186,"lon":7.68071},{"name":"Boos","country":"FR","lat":49.38849,"lon":1.20348},{"name":"Boran-sur-Oise","country":"FR","lat":49.16715,"lon":2.35803},{"name":"Bordeaux","country":"FR","lat":44.84044,"lon":-0.5805},{"name":"Bordes","country":"FR","lat":43.23572,"lon":-0.28233},{"name":"Bords","country":"FR","lat":45.89697,"lon":-0.7952},{"name":"Borel","country":"FR","lat":43.36486,"lon":5.36681},{"name":"Borgo","country":"FR","lat":42.55488,"lon":9.42636},{"name":"Bormes-les-Mimosas","country":"FR","lat":43.15169,"lon":6.3422},{"name":"Bornel","country":"FR","lat":49.1982,"lon":2.20912},{"name":"Bort-les-Orgues","country":"FR","lat":45.3998,"lon":2.49579},{"name":"Bosc-le-Hard","country":"FR","lat":49.62734,"lon":1.17483},{"name":"Bosdarros","country":"FR","lat":43.20996,"lon":-0.36168},{"name":"Bosmie-l'Aiguille","country":"FR","lat":45.75,"lon":1.2},{"name":"Bouafle","country":"FR","lat":48.96463,"lon":1.9012},{"name":"Bouaye","country":"FR","lat":47.14343,"lon":-1.68902},{"name":"Bouc-Bel-Air","country":"FR","lat":43.45217,"lon":5.413},{"name":"Boucau","country":"FR","lat":43.5277,"lon":-1.46556},{"name":"Bouchain","country":"FR","lat":50.28519,"lon":3.31491},{"name":"Bouchemaine","country":"FR","lat":47.42234,"lon":-0.60888},{"name":"Boué","country":"FR","lat":50.01141,"lon":3.69608},{"name":"Bouffémont","country":"FR","lat":49.04377,"lon":2.29796},{"name":"Boufféré","country":"FR","lat":46.96179,"lon":-1.33965},{"name":"Bougival","country":"FR","lat":48.86223,"lon":2.14148},{"name":"Bouguenais","country":"FR","lat":47.17941,"lon":-1.62468},{"name":"Bouillargues","country":"FR","lat":43.80013,"lon":4.42753},{"name":"Bouillé-Loretz","country":"FR","lat":47.07911,"lon":-0.27178},{"name":"Bouilly","country":"FR","lat":48.19674,"lon":4.00011},{"name":"Bouin","country":"FR","lat":46.97417,"lon":-1.99846},{"name":"Boujan-sur-Libron","country":"FR","lat":43.37082,"lon":3.24749},{"name":"Boulange","country":"FR","lat":49.38229,"lon":5.95},{"name":"Boulay-Moselle","country":"FR","lat":49.18333,"lon":6.5},{"name":"Boulazac","country":"FR","lat":45.11667,"lon":0.75},{"name":"Boulbon","country":"FR","lat":43.86232,"lon":4.69391},{"name":"Bouleurs","country":"FR","lat":48.88181,"lon":2.90728},{"name":"Bouliac","country":"FR","lat":44.8193,"lon":-0.50265},{"name":"Boulieu-lès-Annonay","country":"FR","lat":45.27065,"lon":4.66645},{"name":"Bouligny","country":"FR","lat":49.29189,"lon":5.74248},{"name":"Boulleret","country":"FR","lat":47.42419,"lon":2.87343},{"name":"Bouloc","country":"FR","lat":43.78163,"lon":1.40522},{"name":"Boulogne-Billancourt","country":"FR","lat":48.83545,"lon":2.24128},{"name":"Boulogne-sur-Gesse","country":"FR","lat":43.28825,"lon":0.64797},{"name":"Boulogne-sur-Mer","country":"FR","lat":50.72485,"lon":1.61373},{"name":"Bouloire","country":"FR","lat":47.97375,"lon":0.5477},{"name":"Boult-sur-Suippe","country":"FR","lat":49.37149,"lon":4.14632},{"name":"Bouray-sur-Juine","country":"FR","lat":48.51981,"lon":2.30001},{"name":"Bourbon-l'Archambault","country":"FR","lat":46.58324,"lon":3.05652},{"name":"Bourbon-Lancy","country":"FR","lat":46.62214,"lon":3.76953},{"name":"Bourbonne-les-Bains","country":"FR","lat":47.95305,"lon":5.74801},{"name":"Bourbourg","country":"FR","lat":50.94783,"lon":2.19576},{"name":"Bourbriac","country":"FR","lat":48.47511,"lon":-3.18745},{"name":"Bourcefranc-le-Chapus","country":"FR","lat":45.85,"lon":-1.15},{"name":"Bourg","country":"FR","lat":45.04062,"lon":-0.55893},{"name":"Bourg de Joué-sur-Erdre","country":"FR","lat":47.49596,"lon":-1.42047},{"name":"Bourg-Achard","country":"FR","lat":49.35322,"lon":0.81623},{"name":"Bourg-Argental","country":"FR","lat":45.29899,"lon":4.5683},{"name":"Bourg-Blanc","country":"FR","lat":48.49875,"lon":-4.50621},{"name":"Bourg-de-Péage","country":"FR","lat":45.03151,"lon":5.04993},{"name":"Bourg-de-Thizy","country":"FR","lat":46.03371,"lon":4.29904},{"name":"Bourg-des-Comptes","country":"FR","lat":47.92955,"lon":-1.74298},{"name":"Bourg-en-Bresse","country":"FR","lat":46.20574,"lon":5.2258},{"name":"Bourg-la-Reine","country":"FR","lat":48.77888,"lon":2.31781},{"name":"Bourg-lès-Valence","country":"FR","lat":44.94703,"lon":4.89463},{"name":"Bourg-Saint-Andéol","country":"FR","lat":44.37338,"lon":4.64413},{"name":"Bourg-Saint-Maurice","country":"FR","lat":45.61463,"lon":6.76845},{"name":"Bourganeuf","country":"FR","lat":45.95369,"lon":1.75574},{"name":"Bourgbarré","country":"FR","lat":47.99508,"lon":-1.61529},{"name":"Bourges","country":"FR","lat":47.08333,"lon":2.4},{"name":"Bourghelles","country":"FR","lat":50.56501,"lon":3.24447},{"name":"Bourgneuf","country":"FR","lat":46.16676,"lon":-1.02444},{"name":"Bourgneuf-en-Retz","country":"FR","lat":47.04294,"lon":-1.95292},{"name":"Bourgogne","country":"FR","lat":49.34962,"lon":4.07111},{"name":"Bourgoin-Jallieu","country":"FR","lat":45.58611,"lon":5.27361},{"name":"Bourgtheroulde-Infreville","country":"FR","lat":49.3,"lon":0.88333},{"name":"Bourguébus","country":"FR","lat":49.12187,"lon":-0.29786},{"name":"Bourgueil","country":"FR","lat":47.28333,"lon":0.16612},{"name":"Bourlon","country":"FR","lat":50.17692,"lon":3.11425},{"name":"Bournezeau","country":"FR","lat":46.6356,"lon":-1.17222},{"name":"Bournoncle-Saint-Pierre","country":"FR","lat":45.34351,"lon":3.3183},{"name":"Bourogne","country":"FR","lat":47.56307,"lon":6.91654},{"name":"Bourron-Marlotte","country":"FR","lat":48.34051,"lon":2.70041},{"name":"Bourth","country":"FR","lat":48.76846,"lon":0.80911},{"name":"Bousbecque","country":"FR","lat":50.77123,"lon":3.08459},{"name":"Bousies","country":"FR","lat":50.15097,"lon":3.61752},{"name":"Boussac","country":"FR","lat":46.34836,"lon":2.22027},{"name":"Boussay","country":"FR","lat":47.04389,"lon":-1.18697},{"name":"Bousse","country":"FR","lat":49.27786,"lon":6.19672},{"name":"Boussières","country":"FR","lat":47.15866,"lon":5.90314},{"name":"Boussois","country":"FR","lat":50.28907,"lon":4.04117},{"name":"Boussy-Saint-Antoine","country":"FR","lat":48.69101,"lon":2.5306},{"name":"Bout-du-Pont-de-Larn","country":"FR","lat":43.50072,"lon":2.40417},{"name":"Boutiers-Saint-Trojan","country":"FR","lat":45.71297,"lon":-0.29912},{"name":"Boutigny-sur-Essonne","country":"FR","lat":48.43333,"lon":2.38333},{"name":"Bouttencourt","country":"FR","lat":49.93725,"lon":1.63431},{"name":"Bouvesse-Quirieu","country":"FR","lat":45.7931,"lon":5.41496},{"name":"Bouvignies","country":"FR","lat":50.43627,"lon":3.24361},{"name":"Bouvigny-Boyeffles","country":"FR","lat":50.42146,"lon":2.67209},{"name":"Bouville","country":"FR","lat":49.56193,"lon":0.89514},{"name":"Bouvron","country":"FR","lat":47.41774,"lon":-1.84938},{"name":"Bouxières-aux-Chênes","country":"FR","lat":48.77215,"lon":6.26152},{"name":"Bouxières-aux-Dames","country":"FR","lat":48.75441,"lon":6.16294},{"name":"Bouxwiller","country":"FR","lat":48.82495,"lon":7.48117},{"name":"Bouzigues","country":"FR","lat":43.44843,"lon":3.65761},{"name":"Bouzillé","country":"FR","lat":47.3375,"lon":-1.11143},{"name":"Bouzonville","country":"FR","lat":49.29188,"lon":6.53386},{"name":"Bouzy-la-Forêt","country":"FR","lat":47.8512,"lon":2.37773},{"name":"Boves","country":"FR","lat":49.84645,"lon":2.39605},{"name":"Boyard-Ville","country":"FR","lat":45.96717,"lon":-1.24289},{"name":"Boynes","country":"FR","lat":48.11822,"lon":2.36006},{"name":"Bozel","country":"FR","lat":45.44288,"lon":6.64896},{"name":"Bozouls","country":"FR","lat":44.47202,"lon":2.72534},{"name":"Bracieux","country":"FR","lat":47.54895,"lon":1.5412},{"name":"Brain-sur-Allonnes","country":"FR","lat":47.30263,"lon":0.06574},{"name":"Braine","country":"FR","lat":49.34261,"lon":3.53262},{"name":"Brains","country":"FR","lat":47.16915,"lon":-1.72283},{"name":"Bram","country":"FR","lat":43.24376,"lon":2.11341},{"name":"Brandérion","country":"FR","lat":47.79384,"lon":-3.19449},{"name":"Brando","country":"FR","lat":42.76667,"lon":9.45},{"name":"Branges","country":"FR","lat":46.64441,"lon":5.18465},{"name":"Branne","country":"FR","lat":44.83053,"lon":-0.18663},{"name":"Branoux-les-Taillades","country":"FR","lat":44.22056,"lon":3.99019},{"name":"Brantôme","country":"FR","lat":45.36409,"lon":0.64927},{"name":"Bras","country":"FR","lat":43.47163,"lon":5.95486},{"name":"Brasles","country":"FR","lat":49.0481,"lon":3.43},{"name":"Brasparts","country":"FR","lat":48.30129,"lon":-3.95546},{"name":"Brassac","country":"FR","lat":43.63,"lon":2.4984},{"name":"Brassac-les-Mines","country":"FR","lat":45.41407,"lon":3.329},{"name":"Braud-et-Saint-Louis","country":"FR","lat":45.24781,"lon":-0.62576},{"name":"Brax","country":"FR","lat":44.20282,"lon":0.5513},{"name":"Brax","country":"FR","lat":43.61793,"lon":1.23957},{"name":"Bray-Dunes","country":"FR","lat":51.07786,"lon":2.51673},{"name":"Bray-en-Val","country":"FR","lat":47.82856,"lon":2.36644},{"name":"Bray-sur-Seine","country":"FR","lat":48.41371,"lon":3.23852},{"name":"Bray-sur-Somme","country":"FR","lat":49.94085,"lon":2.71847},{"name":"Brazey-en-Plaine","country":"FR","lat":47.13784,"lon":5.21538},{"name":"Bréal-sous-Montfort","country":"FR","lat":48.04798,"lon":-1.86716},{"name":"Bréauté","country":"FR","lat":49.62805,"lon":0.40005},{"name":"Brebières","country":"FR","lat":50.33333,"lon":3.01667},{"name":"Brécé","country":"FR","lat":48.10904,"lon":-1.48308},{"name":"Brécey","country":"FR","lat":48.72413,"lon":-1.16647},{"name":"Brech","country":"FR","lat":47.72075,"lon":-2.99708},{"name":"Bréhal","country":"FR","lat":48.89915,"lon":-1.51225},{"name":"Bréhand","country":"FR","lat":48.40257,"lon":-2.57375},{"name":"Breil-sur-Roya","country":"FR","lat":43.93755,"lon":7.51472},{"name":"Brêmes","country":"FR","lat":50.85483,"lon":1.97687},{"name":"Brenouille","country":"FR","lat":49.30551,"lon":2.54437},{"name":"Brens","country":"FR","lat":43.88725,"lon":1.90716},{"name":"Bresles","country":"FR","lat":49.41044,"lon":2.25024},{"name":"Bressols","country":"FR","lat":43.96807,"lon":1.33753},{"name":"Bressuire","country":"FR","lat":46.84158,"lon":-0.49042},{"name":"Brest","country":"FR","lat":48.39029,"lon":-4.48628},{"name":"Breteil","country":"FR","lat":48.1452,"lon":-1.89864},{"name":"Bretenoux","country":"FR","lat":44.91513,"lon":1.83814},{"name":"Breteuil","country":"FR","lat":48.83333,"lon":0.91667},{"name":"Breteuil","country":"FR","lat":49.63357,"lon":2.29509},{"name":"Bretignolles-sur-Mer","country":"FR","lat":46.62774,"lon":-1.85675},{"name":"Brétigny-sur-Orge","country":"FR","lat":48.61135,"lon":2.30593},{"name":"Bretoncelles","country":"FR","lat":48.43122,"lon":0.88775},{"name":"Brette-les-Pins","country":"FR","lat":47.91158,"lon":0.33637},{"name":"Bretteville","country":"FR","lat":49.6544,"lon":-1.52884},{"name":"Bretteville-du-Grand-Caux","country":"FR","lat":49.66667,"lon":0.4},{"name":"Bretteville-l'Orgueilleuse","country":"FR","lat":49.21189,"lon":-0.51428},{"name":"Bretteville-sur-Laize","country":"FR","lat":49.04466,"lon":-0.32639},{"name":"Bretteville-sur-Odon","country":"FR","lat":49.16627,"lon":-0.41662},{"name":"Breuil-le-Sec","country":"FR","lat":49.37135,"lon":2.45084},{"name":"Breuil-le-Vert","country":"FR","lat":49.36176,"lon":2.43633},{"name":"Breuil-Magné","country":"FR","lat":45.98387,"lon":-0.95885},{"name":"Breuillet","country":"FR","lat":48.57064,"lon":2.17424},{"name":"Breuillet","country":"FR","lat":45.69155,"lon":-1.0548},{"name":"Breuilpont","country":"FR","lat":48.96398,"lon":1.42919},{"name":"Breuschwickersheim","country":"FR","lat":48.58007,"lon":7.60159},{"name":"Bréval","country":"FR","lat":48.94545,"lon":1.53309},{"name":"Bréviandes","country":"FR","lat":48.25693,"lon":4.09531},{"name":"Brézé","country":"FR","lat":47.17266,"lon":-0.06132},{"name":"Brézins","country":"FR","lat":45.35213,"lon":5.30539},{"name":"Brezolles","country":"FR","lat":48.69033,"lon":1.07404},{"name":"Briançon","country":"FR","lat":44.89978,"lon":6.64201},{"name":"Briare","country":"FR","lat":47.63343,"lon":2.7438},{"name":"Briatexte","country":"FR","lat":43.75237,"lon":1.90879},{"name":"Bricquebec","country":"FR","lat":49.47008,"lon":-1.63254},{"name":"Bricy","country":"FR","lat":47.99847,"lon":1.77937},{"name":"Brie","country":"FR","lat":45.73812,"lon":0.24077},{"name":"Brie-Comte-Robert","country":"FR","lat":48.69247,"lon":2.6109},{"name":"Brié-et-Angonnes","country":"FR","lat":45.12418,"lon":5.78374},{"name":"Briec","country":"FR","lat":48.10184,"lon":-3.99915},{"name":"Brienne-le-Château","country":"FR","lat":48.39319,"lon":4.52637},{"name":"Briennon","country":"FR","lat":46.15127,"lon":4.0769},{"name":"Brienon-sur-Armançon","country":"FR","lat":47.99009,"lon":3.61628},{"name":"Briey","country":"FR","lat":49.2492,"lon":5.93975},{"name":"Brignais","country":"FR","lat":45.67383,"lon":4.75418},{"name":"Brignoles","country":"FR","lat":43.4058,"lon":6.06172},{"name":"Brigueuil","country":"FR","lat":45.95342,"lon":0.86032},{"name":"Briis-sous-Forges","country":"FR","lat":48.62399,"lon":2.12112},{"name":"Brindas","country":"FR","lat":45.72111,"lon":4.69349},{"name":"Brinon-sur-Sauldre","country":"FR","lat":47.566,"lon":2.25647},{"name":"Briollay","country":"FR","lat":47.56446,"lon":-0.50805},{"name":"Brion","country":"FR","lat":47.44121,"lon":-0.15616},{"name":"Brionne","country":"FR","lat":49.19553,"lon":0.7151},{"name":"Brioude","country":"FR","lat":45.29419,"lon":3.38423},{"name":"Brioux-sur-Boutonne","country":"FR","lat":46.14206,"lon":-0.22259},{"name":"Briouze","country":"FR","lat":48.69848,"lon":-0.36806},{"name":"Briscous","country":"FR","lat":43.46028,"lon":-1.33394},{"name":"Brison-Saint-Innocent","country":"FR","lat":45.7244,"lon":5.88895},{"name":"Brissac-Quincé","country":"FR","lat":47.35575,"lon":-0.44924},{"name":"Brive-la-Gaillarde","country":"FR","lat":45.1589,"lon":1.53326},{"name":"Brives-Charensac","country":"FR","lat":45.0478,"lon":3.92878},{"name":"Brix","country":"FR","lat":49.54512,"lon":-1.58012},{"name":"Broglie","country":"FR","lat":49.00911,"lon":0.52915},{"name":"Bron","country":"FR","lat":45.73865,"lon":4.91303},{"name":"Broons","country":"FR","lat":48.31721,"lon":-2.26054},{"name":"Brou","country":"FR","lat":48.21719,"lon":1.16539},{"name":"Brou-sur-Chantereine","country":"FR","lat":48.88333,"lon":2.63333},{"name":"Brouckerque","country":"FR","lat":50.95476,"lon":2.29378},{"name":"Broût-Vernet","country":"FR","lat":46.18756,"lon":3.27324},{"name":"Bruay-la-Buissière","country":"FR","lat":50.48333,"lon":2.55},{"name":"Bruay-sur-l'Escaut","country":"FR","lat":50.39918,"lon":3.54379},{"name":"Bruges","country":"FR","lat":44.88287,"lon":-0.61222},{"name":"Brugheas","country":"FR","lat":46.07676,"lon":3.3678},{"name":"Bruguières","country":"FR","lat":43.7272,"lon":1.40762},{"name":"Bruille-lez-Marchiennes","country":"FR","lat":50.36068,"lon":3.24424},{"name":"Bruille-Saint-Amand","country":"FR","lat":50.46605,"lon":3.50013},{"name":"Brûlon","country":"FR","lat":47.9686,"lon":-0.23484},{"name":"Brumath","country":"FR","lat":48.73398,"lon":7.71095},{"name":"Brunoy","country":"FR","lat":48.6942,"lon":2.49223},{"name":"Brunstatt","country":"FR","lat":47.72131,"lon":7.32009},{"name":"Bruyères","country":"FR","lat":48.20709,"lon":6.71845},{"name":"Bruyères-et-Montbérault","country":"FR","lat":49.52535,"lon":3.66369},{"name":"Bruyères-le-Châtel","country":"FR","lat":48.58868,"lon":2.18991},{"name":"Bruyères-sur-Oise","country":"FR","lat":49.15756,"lon":2.32577},{"name":"Bruz","country":"FR","lat":48.02459,"lon":-1.74709},{"name":"Bry-sur-Marne","country":"FR","lat":48.83811,"lon":2.52488},{"name":"Bû","country":"FR","lat":48.79705,"lon":1.49702},{"name":"Bubry","country":"FR","lat":47.96345,"lon":-3.17347},{"name":"Buc","country":"FR","lat":48.77627,"lon":2.12577},{"name":"Buchelay","country":"FR","lat":48.97926,"lon":1.67026},{"name":"Buchères","country":"FR","lat":48.23508,"lon":4.1131},{"name":"Buchy","country":"FR","lat":49.58513,"lon":1.35852},{"name":"Bucquoy","country":"FR","lat":50.13973,"lon":2.71036},{"name":"Bucy-le-Long","country":"FR","lat":49.39072,"lon":3.39582},{"name":"Bueil","country":"FR","lat":48.93189,"lon":1.44257},{"name":"Buellas","country":"FR","lat":46.2111,"lon":5.1322},{"name":"Bugeat","country":"FR","lat":45.59809,"lon":1.92727},{"name":"Buhl","country":"FR","lat":47.92806,"lon":7.18719},{"name":"Buironfosse","country":"FR","lat":49.96659,"lon":3.83587},{"name":"Buis-les-Baronnies","country":"FR","lat":44.27647,"lon":5.27187},{"name":"Bulgnéville","country":"FR","lat":48.20694,"lon":5.8343},{"name":"Bullion","country":"FR","lat":48.62285,"lon":1.99024},{"name":"Bully","country":"FR","lat":49.10155,"lon":-0.40825},{"name":"Bully","country":"FR","lat":45.85113,"lon":4.58328},{"name":"Bully-les-Mines","country":"FR","lat":50.4438,"lon":2.72703},{"name":"Burbure","country":"FR","lat":50.53663,"lon":2.46897},{"name":"Bures-sur-Yvette","country":"FR","lat":48.69981,"lon":2.17064},{"name":"Burie","country":"FR","lat":45.77273,"lon":-0.42289},{"name":"Burlats","country":"FR","lat":43.63641,"lon":2.31818},{"name":"Burnhaupt-le-Bas","country":"FR","lat":47.71764,"lon":7.16148},{"name":"Burnhaupt-le-Haut","country":"FR","lat":47.73162,"lon":7.14437},{"name":"Buros","country":"FR","lat":43.35256,"lon":-0.30959},{"name":"Bury","country":"FR","lat":49.31307,"lon":2.34401},{"name":"Busigny","country":"FR","lat":50.03424,"lon":3.46713},{"name":"Busnes","country":"FR","lat":50.58781,"lon":2.51827},{"name":"Bussac-sur-Charente","country":"FR","lat":45.78333,"lon":-0.63333},{"name":"Bussang","country":"FR","lat":47.88449,"lon":6.85272},{"name":"Bussière-Dunoise","country":"FR","lat":46.25845,"lon":1.76228},{"name":"Bussière-Galant","country":"FR","lat":45.6269,"lon":1.03636},{"name":"Bussière-Poitevine","country":"FR","lat":46.23537,"lon":0.90481},{"name":"Bussières","country":"FR","lat":45.8357,"lon":4.27123},{"name":"Bussy-Saint-Georges","country":"FR","lat":48.84099,"lon":2.70165},{"name":"Butry-sur-Oise","country":"FR","lat":49.08837,"lon":2.19916},{"name":"Buxerolles","country":"FR","lat":46.61667,"lon":0.48333},{"name":"Buxières-les-Mines","country":"FR","lat":46.46807,"lon":2.95994},{"name":"Buxy","country":"FR","lat":46.71369,"lon":4.70427},{"name":"Buzançais","country":"FR","lat":46.88877,"lon":1.4195},{"name":"Buzet-sur-Baïse","country":"FR","lat":44.25816,"lon":0.29889},{"name":"Buzet-sur-Tarn","country":"FR","lat":43.77977,"lon":1.63301},{"name":"Cabanac-et-Villagrains","country":"FR","lat":44.6,"lon":-0.55},{"name":"Cabannes","country":"FR","lat":43.86015,"lon":4.95192},{"name":"Cabariot","country":"FR","lat":45.92553,"lon":-0.85743},{"name":"Cabasse","country":"FR","lat":43.42646,"lon":6.21917},{"name":"Cabestany","country":"FR","lat":42.68141,"lon":2.9409},{"name":"Cabourg","country":"FR","lat":49.2911,"lon":-0.1133},{"name":"Cabrières","country":"FR","lat":43.90445,"lon":4.47189},{"name":"Cabriès","country":"FR","lat":43.44127,"lon":5.37884},{"name":"Cabris","country":"FR","lat":43.65617,"lon":6.87358},{"name":"Cachan","country":"FR","lat":48.79632,"lon":2.33661},{"name":"Cadalen","country":"FR","lat":43.84982,"lon":1.98096},{"name":"Cadaujac","country":"FR","lat":44.75523,"lon":-0.53023},{"name":"Caden","country":"FR","lat":47.63147,"lon":-2.28776},{"name":"Cadenet","country":"FR","lat":43.735,"lon":5.37339},{"name":"Caderousse","country":"FR","lat":44.10327,"lon":4.75672},{"name":"Cadillac","country":"FR","lat":44.63641,"lon":-0.31855},{"name":"Cadolive","country":"FR","lat":43.39694,"lon":5.54526},{"name":"Caen","country":"FR","lat":49.18585,"lon":-0.35912},{"name":"Caëstre","country":"FR","lat":50.75838,"lon":2.60274},{"name":"Cagnac-les-Mines","country":"FR","lat":43.9852,"lon":2.14131},{"name":"Cagnes-sur-Mer","country":"FR","lat":43.66352,"lon":7.1479},{"name":"Cagny","country":"FR","lat":49.86217,"lon":2.34266},{"name":"Cagny","country":"FR","lat":49.1458,"lon":-0.2563},{"name":"Cahagnes","country":"FR","lat":49.06631,"lon":-0.76869},{"name":"Cahors","country":"FR","lat":44.4491,"lon":1.43663},{"name":"Cahuzac-sur-Vère","country":"FR","lat":43.9829,"lon":1.91029},{"name":"Cailloux-sur-Fontaines","country":"FR","lat":45.85259,"lon":4.87473},{"name":"Cairon","country":"FR","lat":49.24017,"lon":-0.45046},{"name":"Caissargues","country":"FR","lat":43.79573,"lon":4.37842},{"name":"Cajarc","country":"FR","lat":44.48546,"lon":1.84261},{"name":"Calais","country":"FR","lat":50.95194,"lon":1.85635},{"name":"Calenzana","country":"FR","lat":42.50855,"lon":8.85538},{"name":"Callac","country":"FR","lat":48.4044,"lon":-3.42834},{"name":"Callas","country":"FR","lat":43.59284,"lon":6.5384},{"name":"Callian","country":"FR","lat":43.6221,"lon":6.75269},{"name":"Calmont","country":"FR","lat":44.24883,"lon":2.51201},{"name":"Calmont","country":"FR","lat":43.28655,"lon":1.63308},{"name":"Calonne-Ricouart","country":"FR","lat":50.48504,"lon":2.47335},{"name":"Calonne-sur-la-Lys","country":"FR","lat":50.62292,"lon":2.61664},{"name":"Caluire-et-Cuire","country":"FR","lat":45.79462,"lon":4.8464},{"name":"Calvi","country":"FR","lat":42.56604,"lon":8.75713},{"name":"Calvisson","country":"FR","lat":43.78696,"lon":4.19626},{"name":"Camarès","country":"FR","lat":43.82208,"lon":2.88005},{"name":"Camaret-sur-Aigues","country":"FR","lat":44.16375,"lon":4.8731},{"name":"Camaret-sur-Mer","country":"FR","lat":48.27497,"lon":-4.59615},{"name":"Cambes","country":"FR","lat":44.7319,"lon":-0.46292},{"name":"Cambes-en-Plaine","country":"FR","lat":49.23161,"lon":-0.3854},{"name":"Camblain-Châtelain","country":"FR","lat":50.48355,"lon":2.45521},{"name":"Camblanes","country":"FR","lat":44.76542,"lon":-0.48769},{"name":"Cambo-les-Bains","country":"FR","lat":43.35798,"lon":-1.40174},{"name":"Cambrai","country":"FR","lat":50.17596,"lon":3.23472},{"name":"Cambremer","country":"FR","lat":49.15192,"lon":0.0476},{"name":"Cambronne-lès-Clermont","country":"FR","lat":49.33022,"lon":2.39928},{"name":"Cambronne-lès-Ribécourt","country":"FR","lat":49.50711,"lon":2.89797},{"name":"Camiers","country":"FR","lat":50.57153,"lon":1.61325},{"name":"Camon","country":"FR","lat":49.88764,"lon":2.34486},{"name":"Camors","country":"FR","lat":47.84764,"lon":-3.00017},{"name":"Campagne-lès-Hesdin","country":"FR","lat":50.39724,"lon":1.87494},{"name":"Campan","country":"FR","lat":43.01676,"lon":0.17741},{"name":"Campbon","country":"FR","lat":47.41208,"lon":-1.96972},{"name":"Campénéac","country":"FR","lat":47.95808,"lon":-2.29479},{"name":"Camphin-en-Carembault","country":"FR","lat":50.51196,"lon":2.9871},{"name":"Camphin-en-Pévèle","country":"FR","lat":50.59561,"lon":3.26082},{"name":"Camps-la-Source","country":"FR","lat":43.38626,"lon":6.09607},{"name":"Campsas","country":"FR","lat":43.89591,"lon":1.32677},{"name":"Cancale","country":"FR","lat":48.6766,"lon":-1.85216},{"name":"Cancon","country":"FR","lat":44.53602,"lon":0.62512},{"name":"Candé","country":"FR","lat":47.56077,"lon":-1.03739},{"name":"Candé-sur-Beuvron","country":"FR","lat":47.49499,"lon":1.25937},{"name":"Candillargues","country":"FR","lat":43.62049,"lon":4.06832},{"name":"Canéjan","country":"FR","lat":44.763,"lon":-0.65443},{"name":"Canet","country":"FR","lat":43.22842,"lon":2.8469},{"name":"Canet-en-Roussillon","country":"FR","lat":42.7,"lon":3.01667},{"name":"Cangey","country":"FR","lat":47.46718,"lon":1.06051},{"name":"Cannes","country":"FR","lat":43.55135,"lon":7.01275},{"name":"Cannes-Écluse","country":"FR","lat":48.36303,"lon":2.98748},{"name":"Canohès","country":"FR","lat":42.65192,"lon":2.83418},{"name":"Canon","country":"FR","lat":49.0738,"lon":-0.09219},{"name":"Cantaron","country":"FR","lat":43.76203,"lon":7.31756},{"name":"Canteleu","country":"FR","lat":49.44065,"lon":1.02459},{"name":"Cantenac","country":"FR","lat":45.02867,"lon":-0.65443},{"name":"Cantenay-Épinard","country":"FR","lat":47.53346,"lon":-0.56879},{"name":"Cantin","country":"FR","lat":50.30885,"lon":3.12765},{"name":"Cany-Barville","country":"FR","lat":49.78885,"lon":0.63704},{"name":"Cap-d'Ail","country":"FR","lat":43.72126,"lon":7.40556},{"name":"Capbreton","country":"FR","lat":43.64238,"lon":-1.43123},{"name":"Capdenac","country":"FR","lat":44.58126,"lon":2.06992},{"name":"Capdenac-Gare","country":"FR","lat":44.57567,"lon":2.08079},{"name":"Capendu","country":"FR","lat":43.18704,"lon":2.55618},{"name":"Capestang","country":"FR","lat":43.3288,"lon":3.04466},{"name":"Capinghem","country":"FR","lat":50.64551,"lon":2.96193},{"name":"Cappelle-en-Pévèle","country":"FR","lat":50.51011,"lon":3.17133},{"name":"Cappelle-la-Grande","country":"FR","lat":50.99979,"lon":2.35848},{"name":"Captieux","country":"FR","lat":44.2924,"lon":-0.26196},{"name":"Capvern","country":"FR","lat":43.1022,"lon":0.31651},{"name":"Caraman","country":"FR","lat":43.52994,"lon":1.75765},{"name":"Carantec","country":"FR","lat":48.6677,"lon":-3.91416},{"name":"Carbon-Blanc","country":"FR","lat":44.89501,"lon":-0.50175},{"name":"Carbonne","country":"FR","lat":43.29723,"lon":1.2191},{"name":"Carcans","country":"FR","lat":45.07852,"lon":-1.04479},{"name":"Carcassonne","country":"FR","lat":43.21649,"lon":2.34863},{"name":"Carcès","country":"FR","lat":43.47585,"lon":6.18257},{"name":"Carentan","country":"FR","lat":49.30312,"lon":-1.24806},{"name":"Carentoir","country":"FR","lat":47.81718,"lon":-2.13489},{"name":"Cargèse","country":"FR","lat":42.13629,"lon":8.59586},{"name":"Carhaix-Plouguer","country":"FR","lat":48.27594,"lon":-3.57326},{"name":"Carignan","country":"FR","lat":49.63159,"lon":5.16796},{"name":"Carignan-de-Bordeaux","country":"FR","lat":44.8,"lon":-0.48333},{"name":"Carlepont","country":"FR","lat":49.51438,"lon":3.02327},{"name":"Carling","country":"FR","lat":49.16635,"lon":6.71563},{"name":"Carmaux","country":"FR","lat":44.04963,"lon":2.1581},{"name":"Carnac","country":"FR","lat":47.58433,"lon":-3.07872},{"name":"Carnoules","country":"FR","lat":43.30187,"lon":6.18733},{"name":"Carnoux-en-Provence","country":"FR","lat":43.25639,"lon":5.56444},{"name":"Caro","country":"FR","lat":47.86426,"lon":-2.31942},{"name":"Caromb","country":"FR","lat":44.11106,"lon":5.10738},{"name":"Carpentras","country":"FR","lat":44.05507,"lon":5.04813},{"name":"Carpiquet","country":"FR","lat":49.18522,"lon":-0.44623},{"name":"Carquefou","country":"FR","lat":47.29722,"lon":-1.4921},{"name":"Carqueiranne","country":"FR","lat":43.09495,"lon":6.07349},{"name":"Carrières-sous-Poissy","country":"FR","lat":48.94952,"lon":2.04068},{"name":"Carrières-sur-Seine","country":"FR","lat":48.90687,"lon":2.1792},{"name":"Carros","country":"FR","lat":43.79246,"lon":7.18745},{"name":"Carry-le-Rouet","country":"FR","lat":43.33139,"lon":5.15237},{"name":"Cars","country":"FR","lat":45.12977,"lon":-0.62046},{"name":"Carsac-Aillac","country":"FR","lat":44.84001,"lon":1.27539},{"name":"Carspach","country":"FR","lat":47.61608,"lon":7.21018},{"name":"Cartignies","country":"FR","lat":50.0929,"lon":3.84473},{"name":"Carvin","country":"FR","lat":50.49235,"lon":2.95815},{"name":"Cassagnes-Bégonhès","country":"FR","lat":44.16885,"lon":2.53013},{"name":"Cassel","country":"FR","lat":50.80109,"lon":2.48527},{"name":"Casseneuil","country":"FR","lat":44.44285,"lon":0.6214},{"name":"Cassis","country":"FR","lat":43.21571,"lon":5.53855},{"name":"Casson","country":"FR","lat":47.38647,"lon":-1.55809},{"name":"Cast","country":"FR","lat":48.15819,"lon":-4.1392},{"name":"Castagniers","country":"FR","lat":43.79134,"lon":7.23162},{"name":"Castanet-Tolosan","country":"FR","lat":43.5159,"lon":1.4986},{"name":"Castelculier","country":"FR","lat":44.1757,"lon":0.69116},{"name":"Castelginest","country":"FR","lat":43.69382,"lon":1.4344},{"name":"Casteljaloux","country":"FR","lat":44.3147,"lon":0.08767},{"name":"Castellane","country":"FR","lat":43.84707,"lon":6.51283},{"name":"Castellane","country":"FR","lat":43.28587,"lon":5.38277},{"name":"Castelmaurou","country":"FR","lat":43.67778,"lon":1.53222},{"name":"Castelmoron-sur-Lot","country":"FR","lat":44.39719,"lon":0.49485},{"name":"Castelnau-d'Estrétefonds","country":"FR","lat":43.78367,"lon":1.35904},{"name":"Castelnau-de-Guers","country":"FR","lat":43.43505,"lon":3.43786},{"name":"Castelnau-de-Lévis","country":"FR","lat":43.93975,"lon":2.08491},{"name":"Castelnau-de-Médoc","country":"FR","lat":45.02695,"lon":-0.79906},{"name":"Castelnau-le-Lez","country":"FR","lat":43.63605,"lon":3.90137},{"name":"Castelnau-Montratier","country":"FR","lat":44.26872,"lon":1.35302},{"name":"Castelnaudary","country":"FR","lat":43.31814,"lon":1.95339},{"name":"Castelsarrasin","country":"FR","lat":44.04042,"lon":1.10666},{"name":"Castets","country":"FR","lat":43.88258,"lon":-1.14741},{"name":"Castets-en-Dorthe","country":"FR","lat":44.56171,"lon":-0.15293},{"name":"Castillon-du-Gard","country":"FR","lat":43.96991,"lon":4.55445},{"name":"Castillon-la-Bataille","country":"FR","lat":44.85308,"lon":-0.04506},{"name":"Castillonnès","country":"FR","lat":44.65254,"lon":0.59171},{"name":"Castres","country":"FR","lat":43.60527,"lon":2.24088},{"name":"Castres-Gironde","country":"FR","lat":44.69675,"lon":-0.44487},{"name":"Castries","country":"FR","lat":43.67972,"lon":3.98222},{"name":"Catenoy","country":"FR","lat":49.36824,"lon":2.51054},{"name":"Cattenom","country":"FR","lat":49.40627,"lon":6.24297},{"name":"Cauchy-à-la-Tour","country":"FR","lat":50.50394,"lon":2.44606},{"name":"Caudan","country":"FR","lat":47.80995,"lon":-3.34255},{"name":"Caudebec-en-Caux","country":"FR","lat":49.52577,"lon":0.72561},{"name":"Caudebec-lès-Elbeuf","country":"FR","lat":49.28082,"lon":1.02195},{"name":"Caudry","country":"FR","lat":50.1249,"lon":3.41186},{"name":"Cauffry","country":"FR","lat":49.31978,"lon":2.44581},{"name":"Caulnes","country":"FR","lat":48.28893,"lon":-2.15444},{"name":"Caumont","country":"FR","lat":49.36642,"lon":0.89591},{"name":"Caumont-l'Éventé","country":"FR","lat":49.09017,"lon":-0.80501},{"name":"Caumont-sur-Durance","country":"FR","lat":43.89356,"lon":4.94745},{"name":"Caunes-Minervois","country":"FR","lat":43.32771,"lon":2.52679},{"name":"Cauro","country":"FR","lat":41.91756,"lon":8.9148},{"name":"Caussade","country":"FR","lat":44.16125,"lon":1.53691},{"name":"Cauterets","country":"FR","lat":42.8892,"lon":-0.11412},{"name":"Cauvigny","country":"FR","lat":49.3018,"lon":2.24844},{"name":"Cauville-sur-Mer","country":"FR","lat":49.6,"lon":0.13333},{"name":"Caux","country":"FR","lat":43.50754,"lon":3.3675},{"name":"Cavaillon","country":"FR","lat":43.83125,"lon":5.03586},{"name":"Cavalaire-sur-Mer","country":"FR","lat":43.17261,"lon":6.52959},{"name":"Cavan","country":"FR","lat":48.67216,"lon":-3.34616},{"name":"Caveirac","country":"FR","lat":43.82437,"lon":4.26664},{"name":"Cavignac","country":"FR","lat":45.10062,"lon":-0.38967},{"name":"Cayeux-sur-Mer","country":"FR","lat":50.182,"lon":1.494},{"name":"Caylus","country":"FR","lat":44.23646,"lon":1.77105},{"name":"Cazaubon","country":"FR","lat":43.93475,"lon":-0.07209},{"name":"Cazères","country":"FR","lat":43.20718,"lon":1.08578},{"name":"Cazères-sur-l'Adour","country":"FR","lat":43.76088,"lon":-0.31702},{"name":"Cazes-Mondenard","country":"FR","lat":44.22726,"lon":1.2018},{"name":"Cazilhac","country":"FR","lat":43.92379,"lon":3.70145},{"name":"Cazilhac","country":"FR","lat":43.18365,"lon":2.36241},{"name":"Cazouls-lès-Béziers","country":"FR","lat":43.39236,"lon":3.10114},{"name":"Ceaucé","country":"FR","lat":48.49436,"lon":-0.62526},{"name":"Cébazat","country":"FR","lat":45.8314,"lon":3.09992},{"name":"Celle-Lévescault","country":"FR","lat":46.42358,"lon":0.18733},{"name":"Celles-sur-Belle","country":"FR","lat":46.26183,"lon":-0.2118},{"name":"Celles-sur-Durolle","country":"FR","lat":45.85829,"lon":3.6354},{"name":"Cellettes","country":"FR","lat":47.52758,"lon":1.38102},{"name":"Cellieu","country":"FR","lat":45.51866,"lon":4.54332},{"name":"Cély","country":"FR","lat":48.45959,"lon":2.53245},{"name":"Cénac","country":"FR","lat":44.79982,"lon":1.20431},{"name":"Cénac","country":"FR","lat":44.77977,"lon":-0.4605},{"name":"Cendras","country":"FR","lat":44.15,"lon":4.06667},{"name":"Cenon","country":"FR","lat":44.85614,"lon":-0.53355},{"name":"Cenon-sur-Vienne","country":"FR","lat":46.77409,"lon":0.53663},{"name":"Cépet","country":"FR","lat":43.74979,"lon":1.43089},{"name":"Cepoy","country":"FR","lat":48.04795,"lon":2.73782},{"name":"Cérans-Foulletourte","country":"FR","lat":47.82742,"lon":0.07549},{"name":"Cercoux","country":"FR","lat":45.12954,"lon":-0.20571},{"name":"Cercy-la-Tour","country":"FR","lat":46.86203,"lon":3.64652},{"name":"Cerdon","country":"FR","lat":47.63571,"lon":2.36277},{"name":"Cerelles","country":"FR","lat":47.50168,"lon":0.68333},{"name":"Cérences","country":"FR","lat":48.91667,"lon":-1.4347},{"name":"Céreste","country":"FR","lat":43.8558,"lon":5.58685},{"name":"Ceret","country":"FR","lat":42.48533,"lon":2.74804},{"name":"Cergy","country":"FR","lat":49.03645,"lon":2.07613},{"name":"Cergy-Pontoise","country":"FR","lat":49.03894,"lon":2.07805},{"name":"Cérilly","country":"FR","lat":46.61791,"lon":2.8208},{"name":"Cerisy-la-Salle","country":"FR","lat":49.02622,"lon":-1.28283},{"name":"Cerizay","country":"FR","lat":46.8215,"lon":-0.66492},{"name":"Cernay","country":"FR","lat":47.8097,"lon":7.17699},{"name":"Cernay-la-Ville","country":"FR","lat":48.67324,"lon":1.97422},{"name":"Cernay-lès-Reims","country":"FR","lat":49.26375,"lon":4.10216},{"name":"Cerny","country":"FR","lat":48.47796,"lon":2.32815},{"name":"Cérons","country":"FR","lat":44.63122,"lon":-0.33701},{"name":"Cers","country":"FR","lat":43.32345,"lon":3.30474},{"name":"Certines","country":"FR","lat":46.13244,"lon":5.26525},{"name":"Cervera de la Marenda","country":"FR","lat":42.44094,"lon":3.16518},{"name":"Cervione","country":"FR","lat":42.32835,"lon":9.49343},{"name":"Cessenon-sur-Orb","country":"FR","lat":43.45011,"lon":3.05154},{"name":"Cessieu","country":"FR","lat":45.56371,"lon":5.37607},{"name":"Cesson","country":"FR","lat":48.56204,"lon":2.60816},{"name":"Cesson-Sévigné","country":"FR","lat":48.1212,"lon":-1.603},{"name":"Cessy","country":"FR","lat":46.32032,"lon":6.07477},{"name":"Cestas","country":"FR","lat":44.74471,"lon":-0.68194},{"name":"Ceton","country":"FR","lat":48.22631,"lon":0.74968},{"name":"Ceyrat","country":"FR","lat":45.73265,"lon":3.06323},{"name":"Ceyreste","country":"FR","lat":43.21352,"lon":5.62946},{"name":"Ceyzériat","country":"FR","lat":46.18126,"lon":5.31977},{"name":"Cézac","country":"FR","lat":45.09019,"lon":-0.41963},{"name":"Cézy","country":"FR","lat":47.99265,"lon":3.34067},{"name":"Chabanais","country":"FR","lat":45.87565,"lon":0.71978},{"name":"Chabanière","country":"FR","lat":45.58224,"lon":4.6312},{"name":"Chabeuil","country":"FR","lat":44.89843,"lon":5.01438},{"name":"Chablis","country":"FR","lat":47.81386,"lon":3.79835},{"name":"Châbons","country":"FR","lat":45.44282,"lon":5.42542},{"name":"Chabreloche","country":"FR","lat":45.879,"lon":3.69664},{"name":"Chabris","country":"FR","lat":47.25343,"lon":1.65181},{"name":"Chacé","country":"FR","lat":47.21435,"lon":-0.07179},{"name":"Chadrac","country":"FR","lat":45.06181,"lon":3.90261},{"name":"Chagny","country":"FR","lat":46.90953,"lon":4.7519},{"name":"Chaillac","country":"FR","lat":46.43382,"lon":1.29889},{"name":"Chailland","country":"FR","lat":48.22431,"lon":-0.87326},{"name":"Chaillé-les-Marais","country":"FR","lat":46.39657,"lon":-1.02331},{"name":"Chailles","country":"FR","lat":47.5416,"lon":1.3122},{"name":"Chaillevette","country":"FR","lat":45.73087,"lon":-1.05839},{"name":"Chailly-en-Bière","country":"FR","lat":48.46701,"lon":2.60785},{"name":"Chailly-en-Brie","country":"FR","lat":48.79006,"lon":3.12453},{"name":"Chaingy","country":"FR","lat":47.88326,"lon":1.77059},{"name":"Chalabre","country":"FR","lat":42.98401,"lon":2.00611},{"name":"Chalais","country":"FR","lat":45.27338,"lon":0.0388},{"name":"Chalamont","country":"FR","lat":45.99734,"lon":5.16865},{"name":"Chalampé","country":"FR","lat":47.82019,"lon":7.54113},{"name":"Chaleins","country":"FR","lat":46.03165,"lon":4.80789},{"name":"Châlette-sur-Loing","country":"FR","lat":48.01337,"lon":2.73587},{"name":"Chalifert","country":"FR","lat":48.88993,"lon":2.77339},{"name":"Chaligny","country":"FR","lat":48.62422,"lon":6.08262},{"name":"Chalindrey","country":"FR","lat":47.80308,"lon":5.42797},{"name":"Challans","country":"FR","lat":46.8458,"lon":-1.87942},{"name":"Challes","country":"FR","lat":47.93074,"lon":0.41389},{"name":"Challes-les-Eaux","country":"FR","lat":45.54685,"lon":5.98098},{"name":"Challex","country":"FR","lat":46.18458,"lon":5.97639},{"name":"Challuy","country":"FR","lat":46.94971,"lon":3.14807},{"name":"Chalo-Saint-Mars","country":"FR","lat":48.42328,"lon":2.06491},{"name":"Chalon-sur-Saône","country":"FR","lat":46.78112,"lon":4.85372},{"name":"Chalonnes-sur-Loire","country":"FR","lat":47.35075,"lon":-0.76411},{"name":"Châlons-en-Champagne","country":"FR","lat":48.95393,"lon":4.36724},{"name":"Châlonvillars","country":"FR","lat":47.64055,"lon":6.78407},{"name":"Châlus","country":"FR","lat":45.65493,"lon":0.98032},{"name":"Chamagnieu","country":"FR","lat":45.68249,"lon":5.16947},{"name":"Chamalières","country":"FR","lat":45.77364,"lon":3.06703},{"name":"Chamant","country":"FR","lat":49.2199,"lon":2.61176},{"name":"Chamarande","country":"FR","lat":48.51715,"lon":2.2171},{"name":"Chamarandes-Choignes","country":"FR","lat":48.08333,"lon":5.15},{"name":"Chamberet","country":"FR","lat":45.58345,"lon":1.7198},{"name":"Chambéry","country":"FR","lat":45.56628,"lon":5.92079},{"name":"Chambly","country":"FR","lat":49.16667,"lon":2.25},{"name":"Chambœuf","country":"FR","lat":45.5775,"lon":4.32035},{"name":"Chambon-sur-Voueize","country":"FR","lat":46.18996,"lon":2.42488},{"name":"Chamboulive","country":"FR","lat":45.43215,"lon":1.70441},{"name":"Chambourcy","country":"FR","lat":48.90655,"lon":2.041},{"name":"Chambourg-sur-Indre","country":"FR","lat":47.18159,"lon":0.96863},{"name":"Chambray-lès-Tours","country":"FR","lat":47.33537,"lon":0.70286},{"name":"Chambretaud","country":"FR","lat":46.92178,"lon":-0.96559},{"name":"Chameyrat","country":"FR","lat":45.23407,"lon":1.69811},{"name":"Chamigny","country":"FR","lat":48.97242,"lon":3.15165},{"name":"Chamonix-Mont-Blanc","country":"FR","lat":45.92375,"lon":6.86933},{"name":"Champ-sur-Drac","country":"FR","lat":45.0694,"lon":5.73151},