[{"name":"Abbey Dore","country":"GB","lat":51.96667,"lon":-2.9},{"name":"Abbey Road","country":"GB","lat":51.5349,"lon":-0.1782},{"name":"Abbey Wood","country":"GB","lat":51.48688,"lon":0.10747},{"name":"Abbots Bromley","country":"GB","lat":52.81705,"lon":-1.87694},{"name":"Abbots Langley","country":"GB","lat":51.70573,"lon":-0.41757},{"name":"Abbotskerswell","country":"GB","lat":50.50816,"lon":-3.61342},{"name":"Abbotts Ann","country":"GB","lat":51.19016,"lon":-1.53234},{"name":"Aber","country":"GB","lat":53.23333,"lon":-4.01667},{"name":"Aberaeron","country":"GB","lat":52.24247,"lon":-4.25871},{"name":"Abercanaid","country":"GB","lat":51.72361,"lon":-3.36611},{"name":"Abercarn","country":"GB","lat":51.64733,"lon":-3.13476},{"name":"Aberchirder","country":"GB","lat":57.56012,"lon":-2.62856},{"name":"Abercynon","country":"GB","lat":51.64548,"lon":-3.32727},{"name":"Aberdare","country":"GB","lat":51.71438,"lon":-3.44918},{"name":"Aberdeen","country":"GB","lat":57.14369,"lon":-2.09814},{"name":"Aberdour","country":"GB","lat":56.05417,"lon":-3.30058},{"name":"Aberfan","country":"GB","lat":51.68892,"lon":-3.34178},{"name":"Aberfeldy","country":"GB","lat":56.62196,"lon":-3.86693},{"name":"Aberford","country":"GB","lat":53.82604,"lon":-1.34231},{"name":"Abergavenny","country":"GB","lat":51.82098,"lon":-3.01743},{"name":"Abergele","country":"GB","lat":53.28436,"lon":-3.5822},{"name":"Aberkenfig","country":"GB","lat":51.54,"lon":-3.59556},{"name":"Aberlady","country":"GB","lat":56.00884,"lon":-2.85851},{"name":"Abernant","country":"GB","lat":51.88139,"lon":-4.41556},{"name":"Abernethy","country":"GB","lat":56.33247,"lon":-3.31226},{"name":"Aberporth","country":"GB","lat":52.13248,"lon":-4.54173},{"name":"Abertillery","country":"GB","lat":51.72981,"lon":-3.13432},{"name":"Abertridwr","country":"GB","lat":51.59583,"lon":-3.26833},{"name":"Aberystwyth","country":"GB","lat":52.41548,"lon":-4.08292},{"name":"Abingdon","country":"GB","lat":51.67109,"lon":-1.28278},{"name":"Aboyne","country":"GB","lat":57.07546,"lon":-2.78023},{"name":"Abram","country":"GB","lat":53.50855,"lon":-2.59266},{"name":"Abridge","country":"GB","lat":51.6495,"lon":0.12033},{"name":"Accrington","country":"GB","lat":53.75379,"lon":-2.35863},{"name":"Acklington","country":"GB","lat":55.3,"lon":-1.63333},{"name":"Acle","country":"GB","lat":52.63681,"lon":1.54757},{"name":"Acocks Green","country":"GB","lat":52.45,"lon":-1.81667},{"name":"Acomb","country":"GB","lat":54.99229,"lon":-2.11229},{"name":"Acton","country":"GB","lat":52.45,"lon":-3.01667},{"name":"Acton","country":"GB","lat":51.50901,"lon":-0.2762},{"name":"Adderbury","country":"GB","lat":52.0169,"lon":-1.31192},{"name":"Addiebrownhill","country":"GB","lat":55.84289,"lon":-3.61667},{"name":"Addingham","country":"GB","lat":53.94452,"lon":-1.88424},{"name":"Addlestone","country":"GB","lat":51.37135,"lon":-0.49353},{"name":"Adlington","country":"GB","lat":53.61323,"lon":-2.60676},{"name":"Adlington","country":"GB","lat":53.32042,"lon":-2.13658},{"name":"Adwick le Street","country":"GB","lat":53.57077,"lon":-1.18454},{"name":"Ahoghill","country":"GB","lat":54.86667,"lon":-6.36667},{"name":"Aigburth","country":"GB","lat":53.36526,"lon":-2.91782},{"name":"Ailsworth","country":"GB","lat":52.57585,"lon":-0.35032},{"name":"Airdrie","country":"GB","lat":55.86602,"lon":-3.98025},{"name":"Airmyn","country":"GB","lat":53.72074,"lon":-0.89959},{"name":"Airth","country":"GB","lat":56.06983,"lon":-3.77209},{"name":"Albrighton","country":"GB","lat":52.6364,"lon":-2.27966},{"name":"Alcester","country":"GB","lat":52.21667,"lon":-1.86667},{"name":"Alconbury","country":"GB","lat":52.369,"lon":-0.26009},{"name":"Aldbourne","country":"GB","lat":51.48098,"lon":-1.61827},{"name":"Aldbrough","country":"GB","lat":53.82893,"lon":-0.11467},{"name":"Aldeburgh","country":"GB","lat":52.15492,"lon":1.60215},{"name":"Alderbury","country":"GB","lat":51.04354,"lon":-1.73382},{"name":"Alderholt","country":"GB","lat":50.91195,"lon":-1.83083},{"name":"Alderley Edge","country":"GB","lat":53.30393,"lon":-2.23773},{"name":"Aldershot","country":"GB","lat":51.24827,"lon":-0.76389},{"name":"Aldford","country":"GB","lat":53.12762,"lon":-2.86812},{"name":"Aldridge","country":"GB","lat":52.60549,"lon":-1.91715},{"name":"Alexandria","country":"GB","lat":55.99379,"lon":-4.5864},{"name":"Alford","country":"GB","lat":57.23257,"lon":-2.70298},{"name":"Alford","country":"GB","lat":53.25943,"lon":0.17625},{"name":"Alfreton","country":"GB","lat":53.09766,"lon":-1.38376},{"name":"Allanton","country":"GB","lat":55.78333,"lon":-2.21667},{"name":"Allanton","country":"GB","lat":55.79945,"lon":-3.83492},{"name":"Allerton","country":"GB","lat":53.36697,"lon":-2.894},{"name":"Allhallows","country":"GB","lat":51.46866,"lon":0.63686},{"name":"Allington","country":"GB","lat":51.15,"lon":-1.7},{"name":"Alloa","country":"GB","lat":56.11586,"lon":-3.78997},{"name":"Almondbank","country":"GB","lat":56.41729,"lon":-3.51733},{"name":"Almondsbury","country":"GB","lat":51.55407,"lon":-2.57114},{"name":"Alness","country":"GB","lat":57.69596,"lon":-4.2551},{"name":"Alnmouth","country":"GB","lat":55.4,"lon":-1.6},{"name":"Alnwick","country":"GB","lat":55.41318,"lon":-1.70563},{"name":"Alresford","country":"GB","lat":51.85389,"lon":1.00203},{"name":"Alrewas","country":"GB","lat":52.73278,"lon":-1.74968},{"name":"Alsager","country":"GB","lat":53.09617,"lon":-2.30649},{"name":"Alston","country":"GB","lat":54.809,"lon":-2.43931},{"name":"Althorne","country":"GB","lat":51.65722,"lon":0.76085},{"name":"Alton","country":"GB","lat":51.14931,"lon":-0.97469},{"name":"Altrincham","country":"GB","lat":53.38752,"lon":-2.34848},{"name":"Alva","country":"GB","lat":56.15284,"lon":-3.80505},{"name":"Alvechurch","country":"GB","lat":52.35173,"lon":-1.96531},{"name":"Alveley","country":"GB","lat":52.45709,"lon":-2.35434},{"name":"Alveston","country":"GB","lat":51.58806,"lon":-2.53139},{"name":"Alyth","country":"GB","lat":56.62209,"lon":-3.23005},{"name":"Amble","country":"GB","lat":55.33333,"lon":-1.58333},{"name":"Ambleside","country":"GB","lat":54.43261,"lon":-2.96167},{"name":"Ambleston","country":"GB","lat":51.89583,"lon":-4.90722},{"name":"Ambrosden","country":"GB","lat":51.87087,"lon":-1.12129},{"name":"Amersham","country":"GB","lat":51.66667,"lon":-0.61667},{"name":"Amersham on the Hill","country":"GB","lat":51.67468,"lon":-0.60742},{"name":"Amesbury","country":"GB","lat":51.17509,"lon":-1.78064},{"name":"Amlwch","country":"GB","lat":53.40986,"lon":-4.34712},{"name":"Ammanford","country":"GB","lat":51.79279,"lon":-3.98833},{"name":"Ampthill","country":"GB","lat":52.02694,"lon":-0.49567},{"name":"Ancaster","country":"GB","lat":52.98276,"lon":-0.53593},{"name":"Ancroft","country":"GB","lat":55.7,"lon":-2},{"name":"Andover","country":"GB","lat":51.21135,"lon":-1.49393},{"name":"Anna Valley","country":"GB","lat":51.19317,"lon":-1.50719},{"name":"Annahilt","country":"GB","lat":54.43333,"lon":-6},{"name":"Annalong","country":"GB","lat":54.10823,"lon":-5.89966},{"name":"Annan","country":"GB","lat":54.98839,"lon":-3.25647},{"name":"Annfield Plain","country":"GB","lat":54.85749,"lon":-1.73827},{"name":"Anstey","country":"GB","lat":52.67368,"lon":-1.18841},{"name":"Anstruther","country":"GB","lat":56.22345,"lon":-2.70278},{"name":"Ansty","country":"GB","lat":51.03639,"lon":-2.06389},{"name":"Antrim","country":"GB","lat":54.7175,"lon":-6.211},{"name":"Appleby","country":"GB","lat":53.62198,"lon":-0.56612},{"name":"Appleby-in-Westmorland","country":"GB","lat":54.57704,"lon":-2.48978},{"name":"Appledore","country":"GB","lat":51.05,"lon":-4.2},{"name":"Appleton","country":"GB","lat":53.3524,"lon":-2.57183},{"name":"Appleton Thorn","country":"GB","lat":53.35045,"lon":-2.54488},{"name":"Appley Bridge","country":"GB","lat":53.57781,"lon":-2.7209},{"name":"Apsley","country":"GB","lat":51.73641,"lon":-0.4678},{"name":"Arbroath","country":"GB","lat":56.56317,"lon":-2.58736},{"name":"Archway","country":"GB","lat":51.56733,"lon":-0.13415},{"name":"Ardersier","country":"GB","lat":57.56681,"lon":-4.03784},{"name":"Ardglass","country":"GB","lat":54.26312,"lon":-5.60981},{"name":"Ardingly","country":"GB","lat":51.04865,"lon":-0.07716},{"name":"Ardrishaig","country":"GB","lat":56.01566,"lon":-5.44806},{"name":"Ardrossan","country":"GB","lat":55.65018,"lon":-4.80659},{"name":"Arlesey","country":"GB","lat":52.00713,"lon":-0.26565},{"name":"Armadale","country":"GB","lat":55.88333,"lon":-3.7},{"name":"Armagh","country":"GB","lat":54.35,"lon":-6.66667},{"name":"Armitage","country":"GB","lat":52.74193,"lon":-1.88266},{"name":"Armthorpe","country":"GB","lat":53.53518,"lon":-1.05341},{"name":"Arne","country":"GB","lat":50.69272,"lon":-2.0403},{"name":"Arnold","country":"GB","lat":53,"lon":-1.13333},{"name":"Arnside","country":"GB","lat":54.20179,"lon":-2.83374},{"name":"Arundel","country":"GB","lat":50.85423,"lon":-0.55393},{"name":"Ascot","country":"GB","lat":51.41082,"lon":-0.6748},{"name":"Asfordby","country":"GB","lat":52.76331,"lon":-0.95856},{"name":"Ash","country":"GB","lat":52.95,"lon":-2.65},{"name":"Ash","country":"GB","lat":51.27883,"lon":1.27974},{"name":"Ash Vale","country":"GB","lat":51.26449,"lon":-0.72347},{"name":"Ashbourne","country":"GB","lat":53.01667,"lon":-1.73333},{"name":"Ashburton","country":"GB","lat":50.51559,"lon":-3.75572},{"name":"Ashby-de-la-Zouch","country":"GB","lat":52.74632,"lon":-1.4732},{"name":"Ashford","country":"GB","lat":51.43173,"lon":-0.45761},{"name":"Ashford","country":"GB","lat":51.14648,"lon":0.87376},{"name":"Ashgill","country":"GB","lat":55.73119,"lon":-3.93019},{"name":"Ashill","country":"GB","lat":52.60435,"lon":0.78574},{"name":"Ashington","country":"GB","lat":55.17719,"lon":-1.56412},{"name":"Ashington","country":"GB","lat":50.93312,"lon":-0.39087},{"name":"Ashley","country":"GB","lat":53.35,"lon":-2.33333},{"name":"Ashtead","country":"GB","lat":51.30873,"lon":-0.29972},{"name":"Ashton in Makerfield","country":"GB","lat":53.48333,"lon":-2.65},{"name":"Ashton Keynes","country":"GB","lat":51.64521,"lon":-1.93232},{"name":"Ashton-under-Lyne","country":"GB","lat":53.48876,"lon":-2.0989},{"name":"Ashurst","country":"GB","lat":50.93236,"lon":-0.32375},{"name":"Ashwell","country":"GB","lat":52.71298,"lon":-0.71969},{"name":"Ashwell","country":"GB","lat":52.03866,"lon":-0.15398},{"name":"Askam in Furness","country":"GB","lat":54.18718,"lon":-3.20467},{"name":"Askern","country":"GB","lat":53.61639,"lon":-1.15237},{"name":"Askham Richard","country":"GB","lat":53.92491,"lon":-1.18481},{"name":"Aslockton","country":"GB","lat":52.95299,"lon":-0.897},{"name":"Aspatria","country":"GB","lat":54.76574,"lon":-3.32783},{"name":"Aspley Guise","country":"GB","lat":52.01199,"lon":-0.633},{"name":"Astley","country":"GB","lat":52.76667,"lon":-2.7},{"name":"Aston","country":"GB","lat":52.5,"lon":-1.88333},{"name":"Aston","country":"GB","lat":51.72501,"lon":-1.50805},{"name":"Aston Clinton","country":"GB","lat":51.8002,"lon":-0.7254},{"name":"Aston-on-Trent","country":"GB","lat":52.86172,"lon":-1.38642},{"name":"Astwick","country":"GB","lat":52.0323,"lon":-0.23127},{"name":"Astwood","country":"GB","lat":52.1,"lon":-0.6},{"name":"Astwood Bank","country":"GB","lat":52.25993,"lon":-1.93754},{"name":"Atherstone","country":"GB","lat":52.57536,"lon":-1.54693},{"name":"Atherton","country":"GB","lat":53.52371,"lon":-2.49354},{"name":"Attleborough","country":"GB","lat":52.51779,"lon":1.01572},{"name":"Attleborough","country":"GB","lat":52.51293,"lon":-1.45487},{"name":"Atwick","country":"GB","lat":53.94012,"lon":-0.189},{"name":"Atworth","country":"GB","lat":51.39234,"lon":-2.19297},{"name":"Auchinleck","country":"GB","lat":55.47157,"lon":-4.29337},{"name":"Auchterarder","country":"GB","lat":56.29612,"lon":-3.70692},{"name":"Auchtermuchty","country":"GB","lat":56.29158,"lon":-3.23428},{"name":"Auckley","country":"GB","lat":53.50386,"lon":-1.02174},{"name":"Audlem","country":"GB","lat":52.98956,"lon":-2.50706},{"name":"Audley","country":"GB","lat":53.05,"lon":-2.3},{"name":"Aughnacloy","country":"GB","lat":54.41417,"lon":-6.97551},{"name":"Avebury","country":"GB","lat":51.41667,"lon":-1.86667},{"name":"Aveley","country":"GB","lat":51.49987,"lon":0.25174},{"name":"Avening","country":"GB","lat":51.6801,"lon":-2.16903},{"name":"Aviemore","country":"GB","lat":57.19553,"lon":-3.8259},{"name":"Awsworth","country":"GB","lat":52.98912,"lon":-1.28354},{"name":"Axbridge","country":"GB","lat":51.28466,"lon":-2.82078},{"name":"Axminster","country":"GB","lat":50.78259,"lon":-2.99787},{"name":"Aylesbury","country":"GB","lat":51.81665,"lon":-0.81458},{"name":"Aylesford","country":"GB","lat":51.30374,"lon":0.47936},{"name":"Aylesham","country":"GB","lat":51.22539,"lon":1.20157},{"name":"Aylestone","country":"GB","lat":52.60422,"lon":-1.14631},{"name":"Aylsham","country":"GB","lat":52.79672,"lon":1.25107},{"name":"Ayr","country":"GB","lat":55.46273,"lon":-4.63393},{"name":"Babworth","country":"GB","lat":53.31799,"lon":-0.97583},{"name":"Backworth","country":"GB","lat":55.04229,"lon":-1.52779},{"name":"Bacton","country":"GB","lat":52.26667,"lon":1.01667},{"name":"Bacton","country":"GB","lat":51.98333,"lon":-2.91667},{"name":"Bacup","country":"GB","lat":53.70336,"lon":-2.2007},{"name":"Badsey","country":"GB","lat":52.08819,"lon":-1.89925},{"name":"Badsworth","country":"GB","lat":53.62876,"lon":-1.30128},{"name":"Bagillt","country":"GB","lat":53.2654,"lon":-3.16551},{"name":"Bagshot","country":"GB","lat":51.36069,"lon":-0.68802},{"name":"Bagworth","country":"GB","lat":52.67265,"lon":-1.34274},{"name":"Baildon","country":"GB","lat":53.84711,"lon":-1.78785},{"name":"Bainton","country":"GB","lat":53.95,"lon":-0.53333},{"name":"Bakewell","country":"GB","lat":53.21338,"lon":-1.67481},{"name":"Bala","country":"GB","lat":52.91111,"lon":-3.59722},{"name":"Balcombe","country":"GB","lat":51.05726,"lon":-0.1345},{"name":"Baldock","country":"GB","lat":51.98781,"lon":-0.18835},{"name":"Balerno","country":"GB","lat":55.88437,"lon":-3.33975},{"name":"Balfron","country":"GB","lat":56.06809,"lon":-4.33559},{"name":"Balham","country":"GB","lat":51.44959,"lon":-0.15096},{"name":"Balintore","country":"GB","lat":57.75533,"lon":-3.91204},{"name":"Ballater","country":"GB","lat":57.05011,"lon":-3.03798},{"name":"Ballinamallard","country":"GB","lat":54.4,"lon":-7.58333},{"name":"Ballingry","country":"GB","lat":56.16392,"lon":-3.32841},{"name":"Ballintoy Harbour","country":"GB","lat":55.24422,"lon":-6.36919},{"name":"Balloch","country":"GB","lat":56,"lon":-4.58333},{"name":"Balloch","country":"GB","lat":57.49194,"lon":-4.11713},{"name":"Ballycastle","country":"GB","lat":55.20444,"lon":-6.24298},{"name":"Ballyclare","country":"GB","lat":54.75089,"lon":-5.99944},{"name":"Ballygowan","country":"GB","lat":54.50165,"lon":-5.79168},{"name":"Ballykelly","country":"GB","lat":55.04425,"lon":-7.01855},{"name":"Ballymena","country":"GB","lat":54.86357,"lon":-6.27628},{"name":"Ballymoney","country":"GB","lat":55.0708,"lon":-6.51009},{"name":"Ballynahinch","country":"GB","lat":54.4023,"lon":-5.89717},{"name":"Ballypatrick","country":"GB","lat":55.18112,"lon":-6.1502},{"name":"Ballywalter","country":"GB","lat":54.54329,"lon":-5.48475},{"name":"Balmedie","country":"GB","lat":57.25052,"lon":-2.06163},{"name":"Balmullo","country":"GB","lat":56.37694,"lon":-2.9294},{"name":"Balsall Common","country":"GB","lat":52.39186,"lon":-1.6504},{"name":"Balsham","country":"GB","lat":52.13238,"lon":0.31586},{"name":"Bamburgh","country":"GB","lat":55.60652,"lon":-1.71704},{"name":"Bampton","country":"GB","lat":51.72634,"lon":-1.54547},{"name":"Banbridge","country":"GB","lat":54.35,"lon":-6.28333},{"name":"Banbury","country":"GB","lat":52.0632,"lon":-1.34222},{"name":"Banchory","country":"GB","lat":57.05168,"lon":-2.48824},{"name":"Banff","country":"GB","lat":57.66477,"lon":-2.52964},{"name":"Bangor","country":"GB","lat":54.66079,"lon":-5.66802},{"name":"Bangor","country":"GB","lat":53.22752,"lon":-4.12936},{"name":"Banham","country":"GB","lat":52.4524,"lon":1.03683},{"name":"Bankfoot","country":"GB","lat":56.50058,"lon":-3.51707},{"name":"Banknock","country":"GB","lat":55.98967,"lon":-3.95611},{"name":"Banks","country":"GB","lat":53.68333,"lon":-2.91667},{"name":"Bannockburn","country":"GB","lat":56.08978,"lon":-3.91092},{"name":"Banstead","country":"GB","lat":51.32233,"lon":-0.20685},{"name":"Banwell","country":"GB","lat":51.32894,"lon":-2.86914},{"name":"Bar Hill","country":"GB","lat":52.24899,"lon":0.02883},{"name":"Barbican","country":"GB","lat":51.51988,"lon":-0.09446},{"name":"Bardney","country":"GB","lat":53.21005,"lon":-0.32371},{"name":"Bardon Mill","country":"GB","lat":54.97547,"lon":-2.34309},{"name":"Bardsey","country":"GB","lat":53.88492,"lon":-1.44539},{"name":"Bargeddie","country":"GB","lat":55.85366,"lon":-4.07846},{"name":"Bargoed","country":"GB","lat":51.68333,"lon":-3.23333},{"name":"Barham","country":"GB","lat":51.2057,"lon":1.15734},{"name":"Barkham","country":"GB","lat":51.39805,"lon":-0.8759},{"name":"Barking","country":"GB","lat":51.53333,"lon":0.08333},{"name":"Barkingside","country":"GB","lat":51.58131,"lon":0.0686},{"name":"Barkisland","country":"GB","lat":53.67614,"lon":-1.9184},{"name":"Barlaston","country":"GB","lat":52.942,"lon":-2.1705},{"name":"Barlborough","country":"GB","lat":53.28795,"lon":-1.28815},{"name":"Barlby","country":"GB","lat":53.79964,"lon":-1.04061},{"name":"Barlestone","country":"GB","lat":52.64718,"lon":-1.37013},{"name":"Barmby on the Marsh","country":"GB","lat":53.74896,"lon":-0.95607},{"name":"Barmouth","country":"GB","lat":52.72377,"lon":-4.05748},{"name":"Barmston","country":"GB","lat":54.01412,"lon":-0.22857},{"name":"Barnack","country":"GB","lat":52.63181,"lon":-0.40821},{"name":"Barnard Castle","country":"GB","lat":54.5415,"lon":-1.919},{"name":"Barnburgh","country":"GB","lat":53.52408,"lon":-1.273},{"name":"Barnes","country":"GB","lat":51.47352,"lon":-0.24839},{"name":"Barnet","country":"GB","lat":51.65,"lon":-0.2},{"name":"Barnetby le Wold","country":"GB","lat":53.5748,"lon":-0.40607},{"name":"Barnham","country":"GB","lat":50.8312,"lon":-0.63789},{"name":"Barningham","country":"GB","lat":54.48809,"lon":-1.87008},{"name":"Barnoldswick","country":"GB","lat":53.91711,"lon":-2.18705},{"name":"Barnsbury","country":"GB","lat":51.54067,"lon":-0.11675},{"name":"Barnsley","country":"GB","lat":53.55,"lon":-1.48333},{"name":"Barnstaple","country":"GB","lat":51.08022,"lon":-4.05808},{"name":"Barnt Green","country":"GB","lat":52.35902,"lon":-2.00715},{"name":"Barnwood","country":"GB","lat":51.86393,"lon":-2.20087},{"name":"Barra","country":"GB","lat":56.98035,"lon":-7.45731},{"name":"Barrhead","country":"GB","lat":55.79916,"lon":-4.39285},{"name":"Barrow in Furness","country":"GB","lat":54.11094,"lon":-3.22758},{"name":"Barrow upon Humber","country":"GB","lat":53.6755,"lon":-0.38062},{"name":"Barrow upon Soar","country":"GB","lat":52.75178,"lon":-1.14601},{"name":"Barrowby","country":"GB","lat":52.91636,"lon":-0.69094},{"name":"Barrowford","country":"GB","lat":53.8465,"lon":-2.21838},{"name":"Barry","country":"GB","lat":51.39979,"lon":-3.2838},{"name":"Barston","country":"GB","lat":52.39991,"lon":-1.6955},{"name":"Bartley Green","country":"GB","lat":52.43532,"lon":-1.99707},{"name":"Barton on Sea","country":"GB","lat":50.73977,"lon":-1.67507},{"name":"Barton under Needwood","country":"GB","lat":52.76268,"lon":-1.724},{"name":"Barton upon Humber","country":"GB","lat":53.68915,"lon":-0.44377},{"name":"Barton-le-Clay","country":"GB","lat":51.96598,"lon":-0.42731},{"name":"Baschurch","country":"GB","lat":52.78848,"lon":-2.85284},{"name":"Basford","country":"GB","lat":52.96667,"lon":-1.18333},{"name":"Basford, Stoke-on-Trent","country":"GB","lat":53.01628,"lon":-2.2123},{"name":"Basildon","country":"GB","lat":51.56844,"lon":0.45782},{"name":"Basingstoke","country":"GB","lat":51.26249,"lon":-1.08708},{"name":"Baslow","country":"GB","lat":53.24811,"lon":-1.62246},{"name":"Bassingbourn","country":"GB","lat":52.07821,"lon":-0.0539},{"name":"Bassingham","country":"GB","lat":53.12881,"lon":-0.63765},{"name":"Baston","country":"GB","lat":52.71311,"lon":-0.35173},{"name":"Batchworth","country":"GB","lat":51.63402,"lon":-0.46421},{"name":"Bath","country":"GB","lat":51.3751,"lon":-2.36172},{"name":"Bathford","country":"GB","lat":51.4002,"lon":-2.30161},{"name":"Bathgate","country":"GB","lat":55.90204,"lon":-3.64398},{"name":"Batley","country":"GB","lat":53.70291,"lon":-1.6337},{"name":"Battersea","country":"GB","lat":51.47475,"lon":-0.15547},{"name":"Battle","country":"GB","lat":50.91732,"lon":0.48417},{"name":"Battlesden","country":"GB","lat":51.94814,"lon":-0.59564},{"name":"Bawtry","country":"GB","lat":53.43146,"lon":-1.01878},{"name":"Bay Horse","country":"GB","lat":53.96867,"lon":-2.77603},{"name":"Bayston Hill","country":"GB","lat":52.6755,"lon":-2.76156},{"name":"Bayswater","country":"GB","lat":51.51116,"lon":-0.18426},{"name":"Beaconsfield","country":"GB","lat":51.61219,"lon":-0.64732},{"name":"Beadnell","country":"GB","lat":55.5567,"lon":-1.6325},{"name":"Beaminster","country":"GB","lat":50.809,"lon":-2.7391},{"name":"Bearsden","country":"GB","lat":55.91536,"lon":-4.33279},{"name":"Beauly","country":"GB","lat":57.48345,"lon":-4.46144},{"name":"Beaumaris","country":"GB","lat":53.26315,"lon":-4.09233},{"name":"Bebington","country":"GB","lat":53.35,"lon":-3.01667},{"name":"Beccles","country":"GB","lat":52.45936,"lon":1.56465},{"name":"Beckenham","country":"GB","lat":51.40878,"lon":-0.02526},{"name":"Beckingham","country":"GB","lat":53.4,"lon":-0.83333},{"name":"Becontree","country":"GB","lat":51.5529,"lon":0.129},{"name":"Bedale","country":"GB","lat":54.28811,"lon":-1.59181},{"name":"Beddau","country":"GB","lat":51.55398,"lon":-3.35814},{"name":"Bedford","country":"GB","lat":52.13459,"lon":-0.46632},{"name":"Bedlington","country":"GB","lat":55.13061,"lon":-1.59319},{"name":"Bedlinog","country":"GB","lat":51.70432,"lon":-3.31306},{"name":"Bedwas","country":"GB","lat":51.59183,"lon":-3.19886},{"name":"Bedworth","country":"GB","lat":52.4791,"lon":-1.46909},{"name":"Beeford","country":"GB","lat":53.96999,"lon":-0.28913},{"name":"Beeston","country":"GB","lat":53.11667,"lon":-2.68333},{"name":"Beighton","country":"GB","lat":53.33333,"lon":-1.33333},{"name":"Beith","country":"GB","lat":55.74923,"lon":-4.6368},{"name":"Belbroughton","country":"GB","lat":52.39177,"lon":-2.11884},{"name":"Belfast","country":"GB","lat":54.59682,"lon":-5.92541},{"name":"Belford","country":"GB","lat":55.6,"lon":-1.83333},{"name":"Belgrave","country":"GB","lat":52.65,"lon":-1.11667},{"name":"Bellaghy","country":"GB","lat":54.8087,"lon":-6.51918},{"name":"Belle Vale","country":"GB","lat":53.39213,"lon":-2.86022},{"name":"Bellingham","country":"GB","lat":55.14464,"lon":-2.25383},{"name":"Bellsbank","country":"GB","lat":55.3131,"lon":-4.39869},{"name":"Bellshill","country":"GB","lat":55.81667,"lon":-4.01667},{"name":"Belmont","country":"GB","lat":52.04272,"lon":-2.74169},{"name":"Belmont","country":"GB","lat":51.34324,"lon":-0.20003},{"name":"Belmont","country":"GB","lat":51.60445,"lon":-0.31003},{"name":"Belper","country":"GB","lat":53.0233,"lon":-1.48119},{"name":"Belsize Park","country":"GB","lat":51.54767,"lon":-0.17228},{"name":"Belton","country":"GB","lat":53.55,"lon":-0.81667},{"name":"Belvedere","country":"GB","lat":51.49114,"lon":0.15136},{"name":"Bembridge","country":"GB","lat":50.68634,"lon":-1.08275},{"name":"Bempton","country":"GB","lat":54.13036,"lon":-0.17853},{"name":"Benbecula","country":"GB","lat":57.44737,"lon":-7.34273},{"name":"Benllech","country":"GB","lat":53.32044,"lon":-4.22607},{"name":"Bennetts End","country":"GB","lat":51.74326,"lon":-0.44906},{"name":"Benson","country":"GB","lat":51.62073,"lon":-1.10979},{"name":"Bentley","country":"GB","lat":53.53333,"lon":-1.15},{"name":"Benwell","country":"GB","lat":54.97296,"lon":-1.66926},{"name":"Bere Alston","country":"GB","lat":50.48233,"lon":-4.19034},{"name":"Bere Regis","country":"GB","lat":50.75371,"lon":-2.21553},{"name":"Berkeley","country":"GB","lat":51.69111,"lon":-2.45917},{"name":"Berkhamsted","country":"GB","lat":51.7604,"lon":-0.56528},{"name":"Berkswell","country":"GB","lat":52.40902,"lon":-1.6422},{"name":"Bernards Heath","country":"GB","lat":51.76087,"lon":-0.33369},{"name":"Berrington","country":"GB","lat":52.65,"lon":-2.7},{"name":"Berwick-Upon-Tweed","country":"GB","lat":55.76868,"lon":-2.00537},{"name":"Bethesda","country":"GB","lat":53.1815,"lon":-4.05828},{"name":"Bethnal Green","country":"GB","lat":51.52718,"lon":-0.06109},{"name":"Betley","country":"GB","lat":53.03439,"lon":-2.36865},{"name":"Betws","country":"GB","lat":51.56917,"lon":-3.58833},{"name":"Betws-y-Coed","country":"GB","lat":53.09382,"lon":-3.80668},{"name":"Beverley","country":"GB","lat":53.84587,"lon":-0.42332},{"name":"Bewbush","country":"GB","lat":51.10329,"lon":-0.22312},{"name":"Bewdley","country":"GB","lat":52.3757,"lon":-2.31833},{"name":"Bexhill-on-Sea","country":"GB","lat":50.85023,"lon":0.47095},{"name":"Bexley","country":"GB","lat":51.44162,"lon":0.14866},{"name":"Bexleyheath","country":"GB","lat":51.46291,"lon":0.13943},{"name":"Bicester","country":"GB","lat":51.89998,"lon":-1.15357},{"name":"Bickenhill","country":"GB","lat":52.43974,"lon":-1.72545},{"name":"Bickley","country":"GB","lat":53.03333,"lon":-2.7},{"name":"Bickley","country":"GB","lat":51.40135,"lon":0.04583},{"name":"Bicknacre","country":"GB","lat":51.69403,"lon":0.58519},{"name":"Bicton","country":"GB","lat":52.72829,"lon":-2.81649},{"name":"Biddenden","country":"GB","lat":51.11489,"lon":0.63819},{"name":"Biddenham","country":"GB","lat":52.13847,"lon":-0.50687},{"name":"Biddestone","country":"GB","lat":51.46083,"lon":-2.19833},{"name":"Biddulph","country":"GB","lat":53.11724,"lon":-2.17584},{"name":"Bideford","country":"GB","lat":51.01678,"lon":-4.20832},{"name":"Bidford-on-Avon","country":"GB","lat":52.16964,"lon":-1.85955},{"name":"Bierton","country":"GB","lat":51.8305,"lon":-0.78737},{"name":"Biggar","country":"GB","lat":55.62297,"lon":-3.52455},{"name":"Biggin Hill","country":"GB","lat":51.31329,"lon":0.03433},{"name":"Biggleswade","country":"GB","lat":52.08652,"lon":-0.26493},{"name":"Bildeston","country":"GB","lat":52.10658,"lon":0.90916},{"name":"Billericay","country":"GB","lat":51.62867,"lon":0.41963},{"name":"Billingborough","country":"GB","lat":52.89384,"lon":-0.34186},{"name":"Billinge","country":"GB","lat":53.49795,"lon":-2.7081},{"name":"Billingham","country":"GB","lat":54.58881,"lon":-1.29034},{"name":"Billinghay","country":"GB","lat":53.07959,"lon":-0.27689},{"name":"Billingshurst","country":"GB","lat":51.02312,"lon":-0.45359},{"name":"Billington","country":"GB","lat":53.8157,"lon":-2.4236},{"name":"Bilsdale","country":"GB","lat":54.37356,"lon":-1.11923},{"name":"Bilsthorpe","country":"GB","lat":53.14024,"lon":-1.03392},{"name":"Bilston","country":"GB","lat":52.56568,"lon":-2.07367},{"name":"Bilston","country":"GB","lat":55.8703,"lon":-3.17814},{"name":"Binfield","country":"GB","lat":51.43159,"lon":-0.7881},{"name":"Bingham","country":"GB","lat":52.94978,"lon":-0.95907},{"name":"Bingley","country":"GB","lat":53.84861,"lon":-1.83857},{"name":"Birchington-on-Sea","country":"GB","lat":51.37575,"lon":1.3048},{"name":"Bircotes","country":"GB","lat":53.41933,"lon":-1.04905},{"name":"Birdham","country":"GB","lat":50.79606,"lon":-0.83067},{"name":"Birdwell","country":"GB","lat":53.51398,"lon":-1.47929},{"name":"Birkenhead","country":"GB","lat":53.39337,"lon":-3.01479},{"name":"Birmingham","country":"GB","lat":52.48142,"lon":-1.89983},{"name":"Birstall","country":"GB","lat":52.66667,"lon":-1.11667},{"name":"Birtley","country":"GB","lat":55.08333,"lon":-2.18333},{"name":"Bisham","country":"GB","lat":51.56104,"lon":-0.77788},{"name":"Bishop Auckland","country":"GB","lat":54.65554,"lon":-1.67706},{"name":"Bishop Middleham","country":"GB","lat":54.67778,"lon":-1.48826},{"name":"Bishop Sutton","country":"GB","lat":51.33444,"lon":-2.59472},{"name":"Bishop's Castle","country":"GB","lat":52.49208,"lon":-3.0021},{"name":"Bishopbriggs","country":"GB","lat":55.90669,"lon":-4.21869},{"name":"Bishops Cleeve","country":"GB","lat":51.94749,"lon":-2.06277},{"name":"Bishops Lydeard","country":"GB","lat":51.05917,"lon":-3.18778},{"name":"Bishops Stortford","country":"GB","lat":51.87113,"lon":0.15868},{"name":"Bishops Waltham","country":"GB","lat":50.95595,"lon":-1.21476},{"name":"Bishopsteignton","country":"GB","lat":50.55193,"lon":-3.53852},{"name":"Bishopstoke","country":"GB","lat":50.96643,"lon":-1.32832},{"name":"Bishopston","country":"GB","lat":51.5775,"lon":-4.04806},{"name":"Bishopstone","country":"GB","lat":51.5513,"lon":-1.64701},{"name":"Bishopstone","country":"GB","lat":51.03028,"lon":-1.90269},{"name":"Bishopstrow","country":"GB","lat":51.19306,"lon":-2.15528},{"name":"Bishopsworth","country":"GB","lat":51.41479,"lon":-2.6208},{"name":"Bishopthorpe","country":"GB","lat":53.9191,"lon":-1.09915},{"name":"Bishopton","country":"GB","lat":55.90969,"lon":-4.5056},{"name":"Bishopton","country":"GB","lat":54.58333,"lon":-1.43333},{"name":"Bishton","country":"GB","lat":51.58194,"lon":-2.87833},{"name":"Bitton","country":"GB","lat":51.42479,"lon":-2.45965},{"name":"Blaby","country":"GB","lat":52.57577,"lon":-1.16403},{"name":"Black Notley","country":"GB","lat":51.85301,"lon":0.56846},{"name":"Blackburn","country":"GB","lat":57.20376,"lon":-2.28842},{"name":"Blackburn","country":"GB","lat":55.86667,"lon":-3.63333},{"name":"Blackburn","country":"GB","lat":53.75,"lon":-2.48333},{"name":"Blackheath","country":"GB","lat":51.4647,"lon":0.0079},{"name":"Blackley","country":"GB","lat":53.51765,"lon":-2.21443},{"name":"Blackmoorfoot","country":"GB","lat":53.61423,"lon":-1.85588},{"name":"Blackpool","country":"GB","lat":53.81667,"lon":-3.05},{"name":"Blackridge","country":"GB","lat":55.88523,"lon":-3.77479},{"name":"Blackrod","country":"GB","lat":53.59229,"lon":-2.58026},{"name":"Blackwall","country":"GB","lat":51.50971,"lon":-0.0016},{"name":"Blackwell","country":"GB","lat":53.11667,"lon":-1.33333},{"name":"Blackwood","country":"GB","lat":55.66667,"lon":-3.91667},{"name":"Blackwood","country":"GB","lat":51.66778,"lon":-3.2075},{"name":"Blacon","country":"GB","lat":53.20832,"lon":-2.9253},{"name":"Blaenau-Ffestiniog","country":"GB","lat":52.99464,"lon":-3.93697},{"name":"Blaenavon","country":"GB","lat":51.77402,"lon":-3.08537},{"name":"Blaengwynfi","country":"GB","lat":51.65623,"lon":-3.60371},{"name":"Blagdon","country":"GB","lat":51.32688,"lon":-2.71731},{"name":"Blairgowrie and Rattray","country":"GB","lat":56.59157,"lon":-3.34045},{"name":"Blandford Forum","country":"GB","lat":50.86073,"lon":-2.16174},{"name":"Blantyre","country":"GB","lat":55.79634,"lon":-4.09485},{"name":"Blaydon-on-Tyne","country":"GB","lat":54.96461,"lon":-1.71392},{"name":"Bleadon","country":"GB","lat":51.30861,"lon":-2.9475},{"name":"Blean","country":"GB","lat":51.30679,"lon":1.04301},{"name":"Bletchingley","country":"GB","lat":51.24059,"lon":-0.10038},{"name":"Bletchley","country":"GB","lat":51.99334,"lon":-0.73471},{"name":"Blewbury","country":"GB","lat":51.5688,"lon":-1.23261},{"name":"Blidworth","country":"GB","lat":53.09849,"lon":-1.11689},{"name":"Blindley Heath","country":"GB","lat":51.19344,"lon":-0.05116},{"name":"Blisworth","country":"GB","lat":52.17498,"lon":-0.94131},{"name":"Blockley","country":"GB","lat":52.0122,"lon":-1.76268},{"name":"Bloxham","country":"GB","lat":52.02039,"lon":-1.37321},{"name":"Bloxwich","country":"GB","lat":52.61806,"lon":-2.00431},{"name":"Blunham","country":"GB","lat":52.14695,"lon":-0.32178},{"name":"Bluntisham","country":"GB","lat":52.35479,"lon":0.00854},{"name":"Blyth","country":"GB","lat":55.12708,"lon":-1.50856},{"name":"Blyton","country":"GB","lat":53.44384,"lon":-0.71753},{"name":"Boâ€™ness","country":"GB","lat":56.01667,"lon":-3.61667},{"name":"Boddam","country":"GB","lat":57.47076,"lon":-1.78009},{"name":"Bodedern","country":"GB","lat":53.29232,"lon":-4.50303},{"name":"Bodelwyddan","country":"GB","lat":53.26827,"lon":-3.50078},{"name":"Bodenham","country":"GB","lat":52.15,"lon":-2.68333},{"name":"Bodle Street","country":"GB","lat":50.91299,"lon":0.34332},{"name":"Bodmin","country":"GB","lat":50.47151,"lon":-4.7243},{"name":"Bognor Regis","country":"GB","lat":50.78206,"lon":-0.67978},{"name":"Bollington","country":"GB","lat":53.29446,"lon":-2.10963},{"name":"Bolsover","country":"GB","lat":53.22846,"lon":-1.29204},{"name":"Bolton","country":"GB","lat":53.58333,"lon":-2.43333},{"name":"Bolton le Sands","country":"GB","lat":54.09632,"lon":-2.80017},{"name":"Bolton upon Dearne","country":"GB","lat":53.51667,"lon":-1.31667},{"name":"Bonhill","country":"GB","lat":55.97944,"lon":-4.5638},{"name":"Bonnybridge","country":"GB","lat":56.00152,"lon":-3.8886},{"name":"Bonnyrigg","country":"GB","lat":55.87329,"lon":-3.1051},{"name":"Boosbeck","country":"GB","lat":54.54265,"lon":-0.98139},{"name":"Bootle","country":"GB","lat":53.46667,"lon":-3.01667},{"name":"Bordon","country":"GB","lat":51.11357,"lon":-0.86245},{"name":"Boreham","country":"GB","lat":51.75955,"lon":0.54116},{"name":"Boreham","country":"GB","lat":51.19944,"lon":-2.16556},{"name":"Borehamwood","country":"GB","lat":51.65468,"lon":-0.27762},{"name":"Borough Green","country":"GB","lat":51.29158,"lon":0.30478},{"name":"Boroughbridge","country":"GB","lat":54.0895,"lon":-1.4011},{"name":"Borrowash","country":"GB","lat":52.90673,"lon":-1.38411},{"name":"Borth","country":"GB","lat":52.48887,"lon":-4.05039},{"name":"Bosham","country":"GB","lat":50.83088,"lon":-0.85384},{"name":"Boston","country":"GB","lat":52.97633,"lon":-0.02664},{"name":"Boston Spa","country":"GB","lat":53.90419,"lon":-1.34523},{"name":"Botesdale","country":"GB","lat":52.34216,"lon":1.00405},{"name":"Bothwell","country":"GB","lat":55.80272,"lon":-4.06835},{"name":"Botley","country":"GB","lat":50.91433,"lon":-1.26984},{"name":"Bottesford","country":"GB","lat":53.55,"lon":-0.65},{"name":"Bottesford","country":"GB","lat":52.94131,"lon":-0.8006},{"name":"Bottisham","country":"GB","lat":52.2228,"lon":0.25878},{"name":"Boughton","country":"GB","lat":53.2,"lon":-0.98333},{"name":"Bourne","country":"GB","lat":52.76667,"lon":-0.38333},{"name":"Bourne End","country":"GB","lat":51.57622,"lon":-0.71291},{"name":"Bournemouth","country":"GB","lat":50.72048,"lon":-1.8795},{"name":"Bourton","country":"GB","lat":51.07444,"lon":-2.32778},{"name":"Bourton on the Water","country":"GB","lat":51.88584,"lon":-1.75492},{"name":"Bovey Tracey","country":"GB","lat":50.59259,"lon":-3.67543},{"name":"Bovingdon","country":"GB","lat":51.72312,"lon":-0.5367},{"name":"Bovington Camp","country":"GB","lat":50.69782,"lon":-2.23506},{"name":"Bow","country":"GB","lat":51.52609,"lon":-0.01665},{"name":"Bow","country":"GB","lat":50.8,"lon":-3.81667},{"name":"Bow Brickhill","country":"GB","lat":52.0028,"lon":-0.68064},{"name":"Bow Street","country":"GB","lat":52.44213,"lon":-4.02783},{"name":"Bowburn","country":"GB","lat":54.7385,"lon":-1.52521},{"name":"Bowdon","country":"GB","lat":53.37644,"lon":-2.36532},{"name":"Bower Chalke","country":"GB","lat":51,"lon":-1.96667},{"name":"Bowes","country":"GB","lat":54.5164,"lon":-2.01599},{"name":"Bowthorpe","country":"GB","lat":52.63884,"lon":1.21885},{"name":"Box","country":"GB","lat":51.41472,"lon":-2.24556},{"name":"Boxgrove","country":"GB","lat":50.85884,"lon":-0.7136},{"name":"Boxted","country":"GB","lat":51.94878,"lon":0.91002},{"name":"Boynton","country":"GB","lat":54.09746,"lon":-0.26479},{"name":"Boyton","country":"GB","lat":50.7,"lon":-4.38333},{"name":"Boyton","country":"GB","lat":51.155,"lon":-2.07111},{"name":"Bozeat","country":"GB","lat":52.2227,"lon":-0.67326},{"name":"Bracebridge Heath","country":"GB","lat":53.19647,"lon":-0.53421},{"name":"Brackley","country":"GB","lat":52.03333,"lon":-1.15},{"name":"Bracknell","country":"GB","lat":51.41363,"lon":-0.75054},{"name":"Bradfield","country":"GB","lat":53.41667,"lon":-1.6},{"name":"Bradfield","country":"GB","lat":51.44914,"lon":-1.13082},{"name":"Bradford","country":"GB","lat":53.79391,"lon":-1.75206},{"name":"Bradford-on-Avon","country":"GB","lat":51.34772,"lon":-2.25065},{"name":"Brading","country":"GB","lat":50.6799,"lon":-1.14571},{"name":"Bradley","country":"GB","lat":53.55,"lon":-0.13333},{"name":"Bradninch","country":"GB","lat":50.82491,"lon":-3.42465},{"name":"Bradwell","country":"GB","lat":52.04857,"lon":-0.78771},{"name":"Bradwell","country":"GB","lat":52.57353,"lon":1.69979},{"name":"Braintree","country":"GB","lat":51.87819,"lon":0.55292},{"name":"Bramford","country":"GB","lat":52.07631,"lon":1.09687},{"name":"Bramhall","country":"GB","lat":53.35801,"lon":-2.16539},{"name":"Bramham","country":"GB","lat":53.88118,"lon":-1.35452},{"name":"Bramhope","country":"GB","lat":53.88489,"lon":-1.61641},{"name":"Bramley","country":"GB","lat":53.41667,"lon":-1.26667},{"name":"Bramley","country":"GB","lat":51.32677,"lon":-1.05938},{"name":"Bramley","country":"GB","lat":51.19451,"lon":-0.55927},{"name":"Brampton","country":"GB","lat":54.95,"lon":-2.73333},{"name":"Brampton","country":"GB","lat":52.32039,"lon":-0.22007},{"name":"Brandesburton","country":"GB","lat":53.9111,"lon":-0.30122},{"name":"Brandon","country":"GB","lat":54.75,"lon":-1.61667},{"name":"Brandon","country":"GB","lat":52.38432,"lon":-1.3996},{"name":"Bransgore","country":"GB","lat":50.78153,"lon":-1.73771},{"name":"Branston","country":"GB","lat":53.19544,"lon":-0.47482},{"name":"Brantingham","country":"GB","lat":53.75181,"lon":-0.57704},{"name":"Bratton","country":"GB","lat":51.27056,"lon":-2.12444},{"name":"Braunston","country":"GB","lat":52.28979,"lon":-1.20266},{"name":"Braunstone","country":"GB","lat":52.61835,"lon":-1.17904},{"name":"Braunton","country":"GB","lat":51.10847,"lon":-4.16131},{"name":"Bray","country":"GB","lat":51.5034,"lon":-0.68768},{"name":"Brayton","country":"GB","lat":53.7651,"lon":-1.08921},{"name":"Bream","country":"GB","lat":51.74822,"lon":-2.57747},{"name":"Brechin","country":"GB","lat":56.72993,"lon":-2.65729},{"name":"Brecon","country":"GB","lat":51.94612,"lon":-3.38887},{"name":"Bredbury","country":"GB","lat":53.41667,"lon":-2.11667},{"name":"Bredon","country":"GB","lat":52.03008,"lon":-2.11671},{"name":"Bremhill","country":"GB","lat":51.45667,"lon":-2.03028},{"name":"Brenchley","country":"GB","lat":51.15141,"lon":0.39825},{"name":"Brent","country":"GB","lat":51.55306,"lon":-0.3023},{"name":"Brent Knoll","country":"GB","lat":51.25219,"lon":-2.95744},{"name":"Brentford","country":"GB","lat":51.48619,"lon":-0.3083},{"name":"Brentwood","country":"GB","lat":51.62127,"lon":0.30556},{"name":"Brewood","country":"GB","lat":52.67712,"lon":-2.17414},{"name":"Bricket Wood","country":"GB","lat":51.70734,"lon":-0.36712},{"name":"Bridge","country":"GB","lat":51.24513,"lon":1.1264},{"name":"Bridge of Allan","country":"GB","lat":56.15402,"lon":-3.94631},{"name":"Bridge of Earn","country":"GB","lat":56.34842,"lon":-3.4065},{"name":"Bridge of Weir","country":"GB","lat":55.85582,"lon":-4.57894},{"name":"Bridge Sollers","country":"GB","lat":52.0766,"lon":-2.86099},{"name":"Bridgend","country":"GB","lat":51.50583,"lon":-3.57722},{"name":"Bridgnorth","country":"GB","lat":52.53661,"lon":-2.42033},{"name":"Bridgwater","country":"GB","lat":51.12837,"lon":-3.00356},{"name":"Bridlington","country":"GB","lat":54.08306,"lon":-0.19192},{"name":"Bridport","country":"GB","lat":50.7338,"lon":-2.75831},{"name":"Brierfield","country":"GB","lat":53.82468,"lon":-2.23415},{"name":"Brierley Hill","country":"GB","lat":52.48173,"lon":-2.12139},{"name":"Brigg","country":"GB","lat":53.55201,"lon":-0.49214},{"name":"Brighouse","country":"GB","lat":53.70322,"lon":-1.78428},{"name":"Brighstone","country":"GB","lat":50.64263,"lon":-1.39479},{"name":"Brightlingsea","country":"GB","lat":51.81164,"lon":1.02336},{"name":"Brighton","country":"GB","lat":50.82838,"lon":-0.13947},{"name":"Brightons","country":"GB","lat":55.98028,"lon":-3.71613},{"name":"Brignall","country":"GB","lat":54.50534,"lon":-1.88896},{"name":"Brigstock","country":"GB","lat":52.45775,"lon":-0.60834},{"name":"Brill","country":"GB","lat":51.81667,"lon":-1.05},{"name":"Brimscombe","country":"GB","lat":51.71973,"lon":-2.18553},{"name":"Brinklow","country":"GB","lat":52.41091,"lon":-1.364},{"name":"Brinscall","country":"GB","lat":53.689,"lon":-2.57208},{"name":"Bristol","country":"GB","lat":51.45523,"lon":-2.59665},{"name":"Briston","country":"GB","lat":52.85369,"lon":1.05899},{"name":"Briton Ferry","country":"GB","lat":51.63106,"lon":-3.81898},{"name":"Britwell","country":"GB","lat":51.53577,"lon":-0.62774},{"name":"Brixham","country":"GB","lat":50.39431,"lon":-3.51585},{"name":"Brixton","country":"GB","lat":50.35,"lon":-4.03333},{"name":"Brixton","country":"GB","lat":51.46593,"lon":-0.10652},{"name":"Brixton Hill","country":"GB","lat":51.45213,"lon":-0.123},{"name":"Brixworth","country":"GB","lat":52.32912,"lon":-0.9035},{"name":"Broad Blunsdon","country":"GB","lat":51.61339,"lon":-1.7787},{"name":"Broadfield","country":"GB","lat":51.09714,"lon":-0.20664},{"name":"Broadstairs","country":"GB","lat":51.35845,"lon":1.44185},{"name":"Broadstone","country":"GB","lat":50.75717,"lon":-1.99406},{"name":"Broadwater","country":"GB","lat":50.82887,"lon":-0.37594},{"name":"Broadway","country":"GB","lat":52.03825,"lon":-1.86079},{"name":"Brockenhurst","country":"GB","lat":50.81936,"lon":-1.57303},{"name":"Brockhampton","country":"GB","lat":51.98333,"lon":-2.58333},{"name":"Brockley","country":"GB","lat":51.4,"lon":-2.76667},{"name":"Brockley","country":"GB","lat":51.46369,"lon":-0.03652},{"name":"Bromborough","country":"GB","lat":53.3485,"lon":-2.97935},{"name":"Bromfield","country":"GB","lat":52.38333,"lon":-2.76667},{"name":"Bromham","country":"GB","lat":52.14508,"lon":-0.52906},{"name":"Bromley","country":"GB","lat":51.40606,"lon":0.01519},{"name":"Brompton","country":"GB","lat":54.36015,"lon":-1.42422},{"name":"Bromsgrove","country":"GB","lat":52.33574,"lon":-2.05983},{"name":"Bromyard","country":"GB","lat":52.19019,"lon":-2.50875},{"name":"Brooke","country":"GB","lat":52.64317,"lon":-0.74638},{"name":"Brooke","country":"GB","lat":52.54175,"lon":1.37076},{"name":"Brookmans Park","country":"GB","lat":51.71977,"lon":-0.20153},{"name":"Broomfleet","country":"GB","lat":53.73333,"lon":-0.66667},{"name":"Brora","country":"GB","lat":58.00989,"lon":-3.85182},{"name":"Broseley","country":"GB","lat":52.61321,"lon":-2.48269},{"name":"Brotton","country":"GB","lat":54.56661,"lon":-0.93929},{"name":"Brough","country":"GB","lat":53.72861,"lon":-0.57215},{"name":"Broughshane","country":"GB","lat":54.8926,"lon":-6.20899},{"name":"Broughton","country":"GB","lat":53.56667,"lon":-0.55},{"name":"Broughton","country":"GB","lat":53.16303,"lon":-2.99309},{"name":"Broughton","country":"GB","lat":52.37331,"lon":-0.77493},{"name":"Broughton","country":"GB","lat":52.05038,"lon":-0.69351},{"name":"Broughton Astley","country":"GB","lat":52.52787,"lon":-1.21768},{"name":"Brownhills","country":"GB","lat":52.63333,"lon":-1.93333},{"name":"Broxbourne","country":"GB","lat":51.74712,"lon":-0.01923},{"name":"Broxburn","country":"GB","lat":55.93415,"lon":-3.47133},{"name":"Brundall","country":"GB","lat":52.62426,"lon":1.43509},{"name":"Bruton","country":"GB","lat":51.1125,"lon":-2.45278},{"name":"Brymbo","country":"GB","lat":53.06667,"lon":-3.06667},{"name":"Bryn","country":"GB","lat":51.61639,"lon":-3.71167},{"name":"Brynamman","country":"GB","lat":51.8,"lon":-3.86667},{"name":"Bryneglwys","country":"GB","lat":53.01667,"lon":-3.28333},{"name":"Brynmawr","country":"GB","lat":51.8,"lon":-3.18333},{"name":"Brynna","country":"GB","lat":51.53845,"lon":-3.46378},{"name":"Bubwith","country":"GB","lat":53.81905,"lon":-0.91968},{"name":"Buckden","country":"GB","lat":52.29415,"lon":-0.24912},{"name":"Buckfastleigh","country":"GB","lat":50.48132,"lon":-3.77913},{"name":"Buckhaven","country":"GB","lat":56.17149,"lon":-3.03377},{"name":"Buckhurst Hill","country":"GB","lat":51.62409,"lon":0.03262},{"name":"Buckie","country":"GB","lat":57.6757,"lon":-2.96238},{"name":"Buckingham","country":"GB","lat":51.99968,"lon":-0.98779},{"name":"Buckley","country":"GB","lat":53.16667,"lon":-3.08333},{"name":"Bucknell","country":"GB","lat":52.35997,"lon":-2.95066},{"name":"Bude","country":"GB","lat":50.82435,"lon":-4.5413},{"name":"Budleigh Salterton","country":"GB","lat":50.62983,"lon":-3.32181},{"name":"Bugbrooke","country":"GB","lat":52.21006,"lon":-1.01304},{"name":"Bugle","country":"GB","lat":50.39577,"lon":-4.79334},{"name":"Bugthorpe","country":"GB","lat":54.01082,"lon":-0.8226},{"name":"Builth Wells","country":"GB","lat":52.1494,"lon":-3.40469},{"name":"Bulford","country":"GB","lat":51.1893,"lon":-1.76009},{"name":"Bulkington","country":"GB","lat":51.32361,"lon":-2.08361},{"name":"Bulphan","country":"GB","lat":51.54612,"lon":0.36066},{"name":"Bunbury","country":"GB","lat":53.11559,"lon":-2.65151},{"name":"Bungay","country":"GB","lat":52.45434,"lon":1.43818},{"name":"Buntingford","country":"GB","lat":51.94612,"lon":-0.01841},{"name":"Burbage","country":"GB","lat":51.35184,"lon":-1.67087},{"name":"Bures Saint Mary","country":"GB","lat":51.9724,"lon":0.77488},{"name":"Burford","country":"GB","lat":51.80915,"lon":-1.63628},{"name":"Burgess Hill","country":"GB","lat":50.95843,"lon":-0.13287},{"name":"Burgh by Sands","country":"GB","lat":54.92181,"lon":-3.05671},{"name":"Burgh Heath","country":"GB","lat":51.30599,"lon":-0.22166},{"name":"Burgh le Marsh","country":"GB","lat":53.16158,"lon":0.24484},{"name":"Burghead","country":"GB","lat":57.70113,"lon":-3.48992},{"name":"Burham","country":"GB","lat":51.33243,"lon":0.47833},{"name":"Burley","country":"GB","lat":52.68512,"lon":-0.69609},{"name":"Burley","country":"GB","lat":50.828,"lon":-1.69977},{"name":"Burley in Wharfedale","country":"GB","lat":53.9102,"lon":-1.75798},{"name":"Burnage","country":"GB","lat":53.43265,"lon":-2.19967},{"name":"Burneside","country":"GB","lat":54.35271,"lon":-2.76151},{"name":"Burngreave","country":"GB","lat":53.39302,"lon":-1.45789},{"name":"Burnham","country":"GB","lat":51.53534,"lon":-0.66579},{"name":"Burnham-on-Crouch","country":"GB","lat":51.63272,"lon":0.81488},{"name":"Burnham-on-Sea","country":"GB","lat":51.23862,"lon":-2.9978},{"name":"Burniston","country":"GB","lat":54.32385,"lon":-0.44813},{"name":"Burnley","country":"GB","lat":53.8,"lon":-2.23333},{"name":"Burnopfield","country":"GB","lat":54.90624,"lon":-1.72486},{"name":"Burntisland","country":"GB","lat":56.05865,"lon":-3.23664},{"name":"Burntwood","country":"GB","lat":52.68075,"lon":-1.92759},{"name":"Burpham","country":"GB","lat":51.26018,"lon":-0.54432},{"name":"Burringham","country":"GB","lat":53.57402,"lon":-0.73957},{"name":"Burrington","country":"GB","lat":52.35,"lon":-2.81667},{"name":"Burrington","country":"GB","lat":51.32884,"lon":-2.74868},{"name":"Burry Port","country":"GB","lat":51.68435,"lon":-4.24687},{"name":"Burscough","country":"GB","lat":53.5964,"lon":-2.83972},{"name":"Bursledon","country":"GB","lat":50.88658,"lon":-1.31596},{"name":"Burstwick","country":"GB","lat":53.73211,"lon":-0.13956},{"name":"Burton","country":"GB","lat":53.26667,"lon":-0.56667},{"name":"Burton","country":"GB","lat":51.71556,"lon":-4.92222},{"name":"Burton Constable","country":"GB","lat":53.81667,"lon":-0.2},{"name":"Burton Joyce","country":"GB","lat":52.98825,"lon":-1.03407},{"name":"Burton Latimer","country":"GB","lat":52.36368,"lon":-0.67853},{"name":"Burton on the Wolds","country":"GB","lat":52.78574,"lon":-1.12988},{"name":"Burton Pidsea","country":"GB","lat":53.76327,"lon":-0.10703},{"name":"Burton upon Stather","country":"GB","lat":53.64911,"lon":-0.68453},{"name":"Burton upon Trent","country":"GB","lat":52.80728,"lon":-1.64263},{"name":"Burtonwood","country":"GB","lat":53.42948,"lon":-2.65852},{"name":"Burwash","country":"GB","lat":50.99755,"lon":0.38504},{"name":"Burwell","country":"GB","lat":53.29305,"lon":0.03463},{"name":"Burwell","country":"GB","lat":52.27632,"lon":0.32732},{"name":"Bury","country":"GB","lat":53.6,"lon":-2.3},{"name":"Bury St Edmunds","country":"GB","lat":52.2463,"lon":0.71111},{"name":"Busby","country":"GB","lat":55.77995,"lon":-4.27711},{"name":"Bushey","country":"GB","lat":51.64316,"lon":-0.36053},{"name":"Bushmills","country":"GB","lat":55.20493,"lon":-6.51918},{"name":"Butcombe","country":"GB","lat":51.35194,"lon":-2.69778},{"name":"Butterwick","country":"GB","lat":52.98333,"lon":0.06667},{"name":"Buxted","country":"GB","lat":50.99003,"lon":0.13441},{"name":"Buxton","country":"GB","lat":53.25741,"lon":-1.90982},{"name":"Buxton","country":"GB","lat":52.75255,"lon":1.29982},{"name":"Byfield","country":"GB","lat":52.17546,"lon":-1.24566},{"name":"Byram","country":"GB","lat":53.72394,"lon":-1.26128},{"name":"Caddington","country":"GB","lat":51.86621,"lon":-0.45679},{"name":"Cadnam","country":"GB","lat":50.92047,"lon":-1.5797},{"name":"Caergwrle","country":"GB","lat":53.10953,"lon":-3.03808},{"name":"Caerleon","country":"GB","lat":51.60952,"lon":-2.95378},{"name":"Caernarfon","country":"GB","lat":53.14126,"lon":-4.27016},{"name":"Caerphilly","country":"GB","lat":51.57452,"lon":-3.218},{"name":"Caerwent","country":"GB","lat":51.6112,"lon":-2.76865},{"name":"Cairneyhill","country":"GB","lat":56.05908,"lon":-3.53518},{"name":"Cairnryan","country":"GB","lat":54.97104,"lon":-5.01982},{"name":"Caister-on-Sea","country":"GB","lat":52.64809,"lon":1.72648},{"name":"Caistor","country":"GB","lat":53.49673,"lon":-0.31538},{"name":"Calcot","country":"GB","lat":51.44058,"lon":-1.05091},{"name":"Calderbank","country":"GB","lat":55.84318,"lon":-3.9707},{"name":"Caldercruix","country":"GB","lat":55.88886,"lon":-3.88664},{"name":"Caldicot","country":"GB","lat":51.58661,"lon":-2.75736},{"name":"Callander","country":"GB","lat":56.2441,"lon":-4.21637},{"name":"Callington","country":"GB","lat":50.50147,"lon":-4.31314},{"name":"Callow","country":"GB","lat":52.01667,"lon":-2.73333},{"name":"Calne","country":"GB","lat":51.43879,"lon":-2.00571},{"name":"Calverton","country":"GB","lat":53.03728,"lon":-1.08263},{"name":"Calverton","country":"GB","lat":52.04119,"lon":-0.85041},{"name":"Camber","country":"GB","lat":50.93473,"lon":0.79848},{"name":"Camberley","country":"GB","lat":51.33705,"lon":-0.74261},{"name":"Camberwell","country":"GB","lat":51.4739,"lon":-0.09381},{"name":"Camblesforth","country":"GB","lat":53.7268,"lon":-1.01998},{"name":"Camborne","country":"GB","lat":50.21306,"lon":-5.29731},{"name":"Cambourne","country":"GB","lat":52.22115,"lon":-0.07025},{"name":"Cambridge","country":"GB","lat":52.2,"lon":0.11667},{"name":"Cambusbarron","country":"GB","lat":56.10893,"lon":-3.96751},{"name":"Cambuslang","country":"GB","lat":55.80966,"lon":-4.16096},{"name":"Camden Town","country":"GB","lat":51.54057,"lon":-0.14334},{"name":"Cameley","country":"GB","lat":51.31616,"lon":-2.56079},{"name":"Camelford","country":"GB","lat":50.62185,"lon":-4.67963},{"name":"Camelon","country":"GB","lat":56.00302,"lon":-3.82072},{"name":"Camerton","country":"GB","lat":51.31611,"lon":-2.45611},{"name":"Campbeltown","country":"GB","lat":55.42583,"lon":-5.60764},{"name":"Campsall","country":"GB","lat":53.61917,"lon":-1.18002},{"name":"Camrose","country":"GB","lat":51.84139,"lon":-5.01},{"name":"Canary Wharf","country":"GB","lat":51.50519,"lon":-0.02085},{"name":"Canewdon","country":"GB","lat":51.61759,"lon":0.74458},{"name":"Canford Heath","country":"GB","lat":50.751,"lon":-1.96862},{"name":"Canning Town","country":"GB","lat":51.51363,"lon":0.01948},{"name":"Cannock","country":"GB","lat":52.69045,"lon":-2.03085},{"name":"Canonbury","country":"GB","lat":51.54339,"lon":-0.0912},{"name":"Canterbury","country":"GB","lat":51.27904,"lon":1.07992},{"name":"Cantley","country":"GB","lat":53.5,"lon":-1.05},{"name":"Canvey Island","country":"GB","lat":51.52199,"lon":0.5809},{"name":"Caol","country":"GB","lat":56.83721,"lon":-5.10062},{"name":"Capel","country":"GB","lat":51.14942,"lon":-0.32375},{"name":"Capel le Ferne","country":"GB","lat":51.10339,"lon":1.21165},{"name":"Capel Saint Mary","country":"GB","lat":52.00369,"lon":1.04482},{"name":"Carcroft","country":"GB","lat":53.58282,"lon":-1.17648},{"name":"Carden","country":"GB","lat":53.07214,"lon":-2.79735},{"name":"Cardenden","country":"GB","lat":56.1431,"lon":-3.25687},{"name":"Cardiff","country":"GB","lat":51.48,"lon":-3.18},{"name":"Cardigan","country":"GB","lat":52.08373,"lon":-4.66228},{"name":"Cardington","country":"GB","lat":52.55,"lon":-2.73333},{"name":"Cardington","country":"GB","lat":52.11742,"lon":-0.41289},{"name":"Cardross","country":"GB","lat":55.96184,"lon":-4.65316},{"name":"Carfin","country":"GB","lat":55.80502,"lon":-3.96076},{"name":"Carlisle","country":"GB","lat":54.8951,"lon":-2.9382},{"name":"Carlton","country":"GB","lat":54.59004,"lon":-1.39117},{"name":"Carluke","country":"GB","lat":55.73595,"lon":-3.83019},{"name":"Carmarthen","country":"GB","lat":51.85552,"lon":-4.30535},{"name":"Carmunnock","country":"GB","lat":55.79062,"lon":-4.23584},{"name":"Carnaby","country":"GB","lat":54.0607,"lon":-0.25957},{"name":"Carnforth","country":"GB","lat":54.13163,"lon":-2.76914},{"name":"Carnlough","country":"GB","lat":54.99185,"lon":-5.99038},{"name":"Carnmoney","country":"GB","lat":54.68333,"lon":-5.95},{"name":"Carnoustie","country":"GB","lat":56.50263,"lon":-2.7053},{"name":"Carnwath","country":"GB","lat":55.70036,"lon":-3.62579},{"name":"Carpenders Park","country":"GB","lat":51.62858,"lon":-0.38332},{"name":"Carrickfergus","country":"GB","lat":54.7158,"lon":-5.8058},{"name":"Carrington","country":"GB","lat":53.43333,"lon":-2.38333},{"name":"Carron","country":"GB","lat":56.02611,"lon":-3.79251},{"name":"Carronshore","country":"GB","lat":56.03146,"lon":-3.7829},{"name":"Carryduff","country":"GB","lat":54.51799,"lon":-5.88713},{"name":"Carshalton","country":"GB","lat":51.36829,"lon":-0.16755},{"name":"Carterton","country":"GB","lat":51.75905,"lon":-1.59435},{"name":"Castle Cary","country":"GB","lat":51.09,"lon":-2.51417},{"name":"Castle Donington","country":"GB","lat":52.84291,"lon":-1.34188},{"name":"Castle Douglas","country":"GB","lat":54.94095,"lon":-3.92784},{"name":"Castle Hedingham","country":"GB","lat":51.99015,"lon":0.59882},{"name":"Castle Vale","country":"GB","lat":52.51879,"lon":-1.79683},{"name":"Castledawson","country":"GB","lat":54.77723,"lon":-6.56227},{"name":"Castlederg","country":"GB","lat":54.70699,"lon":-7.59336},{"name":"Castleford","country":"GB","lat":53.72587,"lon":-1.36256},{"name":"Castlemartin","country":"GB","lat":51.64528,"lon":-5.01694},{"name":"Castlereagh","country":"GB","lat":54.5735,"lon":-5.88472},{"name":"Castlerock","country":"GB","lat":55.15,"lon":-6.78333},{"name":"Castleside","country":"GB","lat":54.83429,"lon":-1.87849},{"name":"Castlethorpe","country":"GB","lat":52.0923,"lon":-0.83539},{"name":"Castlewellan","country":"GB","lat":54.2569,"lon":-5.94446},{"name":"Castor","country":"GB","lat":52.57319,"lon":-0.34603},{"name":"Catcliffe","country":"GB","lat":53.39316,"lon":-1.36207},{"name":"Caterham","country":"GB","lat":51.2823,"lon":-0.07889},{"name":"Catford","country":"GB","lat":51.44491,"lon":-0.02043},{"name":"Caton","country":"GB","lat":54.07624,"lon":-2.71903},{"name":"Catrine","country":"GB","lat":55.50422,"lon":-4.33026},{"name":"Catterall","country":"GB","lat":53.87965,"lon":-2.76478},{"name":"Catterick","country":"GB","lat":54.37542,"lon":-1.63328},{"name":"Catterick Garrison","country":"GB","lat":54.37748,"lon":-1.72232},{"name":"Cawood","country":"GB","lat":53.83303,"lon":-1.12962},{"name":"Cawston","country":"GB","lat":52.76667,"lon":1.16667},{"name":"Cawthorne","country":"GB","lat":53.56687,"lon":-1.57259},{"name":"Caythorpe","country":"GB","lat":53.01667,"lon":-0.6},{"name":"Cefn Cribwr","country":"GB","lat":51.53167,"lon":-3.65278},{"name":"Cemaes Bay","country":"GB","lat":53.41211,"lon":-4.4519},{"name":"Chacewater","country":"GB","lat":50.25675,"lon":-5.15757},{"name":"Chadderton","country":"GB","lat":53.5448,"lon":-2.13984},{"name":"Chaddleworth","country":"GB","lat":51.49274,"lon":-1.40361},{"name":"Chadwell Heath","country":"GB","lat":51.57121,"lon":0.13271},{"name":"Chadwell St Mary","country":"GB","lat":51.4814,"lon":0.36343},{"name":"Chafford Hundred","country":"GB","lat":51.4892,"lon":0.2944},{"name":"Chagford","country":"GB","lat":50.67504,"lon":-3.83936},{"name":"Chale","country":"GB","lat":50.59561,"lon":-1.31836},{"name":"Chalfont Saint Peter","country":"GB","lat":51.60885,"lon":-0.55618},{"name":"Chalfont St Giles","country":"GB","lat":51.63184,"lon":-0.57026},{"name":"Chalford","country":"GB","lat":51.72583,"lon":-2.15139},{"name":"Chalgrove","country":"GB","lat":51.66476,"lon":-1.0764},{"name":"Chalk Farm","country":"GB","lat":51.54313,"lon":-0.14987},{"name":"Chalton","country":"GB","lat":51.9279,"lon":-0.50147},{"name":"Chapel Allerton","country":"GB","lat":53.82901,"lon":-1.53834},{"name":"Chapel en le Frith","country":"GB","lat":53.32407,"lon":-1.91291},{"name":"Chapel Saint Leonards","country":"GB","lat":53.21667,"lon":0.31667},{"name":"Chapelhall","country":"GB","lat":55.84349,"lon":-3.94881},{"name":"Chapeltown","country":"GB","lat":53.46506,"lon":-1.47217},{"name":"Chapmanslade","country":"GB","lat":51.22917,"lon":-2.24889},{"name":"Chard","country":"GB","lat":50.8727,"lon":-2.96597},{"name":"Charfield","country":"GB","lat":51.62722,"lon":-2.40667},{"name":"Charing","country":"GB","lat":51.21073,"lon":0.79466},{"name":"Charlbury","country":"GB","lat":51.8727,"lon":-1.48247},{"name":"Charlestown of Aberlour","country":"GB","lat":57.47076,"lon":-3.22509},{"name":"Charlton","country":"GB","lat":51.59917,"lon":-2.05639},{"name":"Charlton","country":"GB","lat":51.485,"lon":0.04032},{"name":"Charlton Kings","country":"GB","lat":51.88374,"lon":-2.04239},{"name":"Charlton Marshall","country":"GB","lat":50.83591,"lon":-2.14231},{"name":"Charminster","country":"GB","lat":50.73333,"lon":-2.45},{"name":"Charmouth","country":"GB","lat":50.73889,"lon":-2.90055},{"name":"Chartham","country":"GB","lat":51.2562,"lon":1.01836},{"name":"Charvil","country":"GB","lat":51.47573,"lon":-0.88591},{"name":"Chasetown","country":"GB","lat":52.67232,"lon":-1.92535},{"name":"Chatburn","country":"GB","lat":53.89228,"lon":-2.35495},{"name":"Chatham","country":"GB","lat":51.37891,"lon":0.52786},{"name":"Chatteris","country":"GB","lat":52.45624,"lon":0.05236},{"name":"Cheadle","country":"GB","lat":52.98333,"lon":-1.98333},{"name":"Cheadle Heath","country":"GB","lat":53.40186,"lon":-2.19088},{"name":"Cheadle Hulme","country":"GB","lat":53.3761,"lon":-2.1897},{"name":"Cheam","country":"GB","lat":51.36179,"lon":-0.21977},{"name":"Cheddar","country":"GB","lat":51.27537,"lon":-2.77662},{"name":"Cheddington","country":"GB","lat":51.84784,"lon":-0.66429},{"name":"Cheddleton","country":"GB","lat":53.0691,"lon":-2.04228},{"name":"Cheetham Hill","country":"GB","lat":53.49862,"lon":-2.23846},{"name":"Chelford","country":"GB","lat":53.2709,"lon":-2.28329},{"name":"Chelmsford","country":"GB","lat":51.73575,"lon":0.46958},{"name":"Chelmsley Wood","country":"GB","lat":52.4781,"lon":-1.73813},{"name":"Chelsea","country":"GB","lat":51.48755,"lon":-0.16936},{"name":"Chelsfield","country":"GB","lat":51.35806,"lon":0.12772},{"name":"Cheltenham","country":"GB","lat":51.90006,"lon":-2.07972},{"name":"Chepstow","country":"GB","lat":51.64087,"lon":-2.67683},{"name":"Cherry Burton","country":"GB","lat":53.86667,"lon":-0.5},{"name":"Chertsey","country":"GB","lat":51.38812,"lon":-0.50782},{"name":"Chesham","country":"GB","lat":51.7,"lon":-0.6},{"name":"Chesham Bois","country":"GB","lat":51.70842,"lon":-0.61425},{"name":"Cheshunt","country":"GB","lat":51.7002,"lon":-0.03026},{"name":"Chessington","country":"GB","lat":51.3624,"lon":-0.30427},{"name":"Chester","country":"GB","lat":53.1905,"lon":-2.89189},{"name":"Chester-le-Street","country":"GB","lat":54.85862,"lon":-1.57408},{"name":"Chesterfield","country":"GB","lat":53.25,"lon":-1.41667},{"name":"Cheswick Green","country":"GB","lat":52.38037,"lon":-1.81373},{"name":"Chetwynd","country":"GB","lat":52.78333,"lon":-2.4},{"name":"Chew Magna","country":"GB","lat":51.36611,"lon":-2.61028},{"name":"Chicheley","country":"GB","lat":52.10303,"lon":-0.68647},{"name":"Chichester","country":"GB","lat":50.83673,"lon":-0.78003},{"name":"Chickerell","country":"GB","lat":50.62429,"lon":-2.5028},{"name":"Chicklade","country":"GB","lat":51.10917,"lon":-2.12667},{"name":"Chicksands","country":"GB","lat":52.04585,"lon":-0.3639},{"name":"Chiddingfold","country":"GB","lat":51.11866,"lon":-0.62262},{"name":"Chigwell","country":"GB","lat":51.61999,"lon":0.07596},{"name":"Chilcompton","country":"GB","lat":51.26391,"lon":-2.50502},{"name":"Child Okeford","country":"GB","lat":50.9137,"lon":-2.23679},{"name":"Childwall","country":"GB","lat":53.39719,"lon":-2.897},{"name":"Chilton Foliat","country":"GB","lat":51.43245,"lon":-1.53912},{"name":"Chilworth","country":"GB","lat":51.21635,"lon":-0.53129},{"name":"Chilworth","country":"GB","lat":50.96443,"lon":-1.41934},{"name":"Chingford","country":"GB","lat":51.63033,"lon":0.00051},{"name":"Chinley","country":"GB","lat":53.34025,"lon":-1.939},{"name":"Chinnor","country":"GB","lat":51.70177,"lon":-0.91161},{"name":"Chippenham","country":"GB","lat":51.46,"lon":-2.12472},{"name":"Chipping Campden","country":"GB","lat":52.04964,"lon":-1.7767},{"name":"Chipping Norton","country":"GB","lat":51.94109,"lon":-1.5453},{"name":"Chipping Ongar","country":"GB","lat":51.70379,"lon":0.24548},{"name":"Chipping Sodbury","country":"GB","lat":51.53813,"lon":-2.39379},{"name":"Chipstead","country":"GB","lat":51.31546,"lon":-0.1666},{"name":"Chirk","country":"GB","lat":52.93586,"lon":-3.05738},{"name":"Chirnside","country":"GB","lat":55.80215,"lon":-2.20927},{"name":"Chiseldon","country":"GB","lat":51.51606,"lon":-1.73206},{"name":"Chislehurst","country":"GB","lat":51.41709,"lon":0.06858},{"name":"Chiswell Green","country":"GB","lat":51.72846,"lon":-0.35953},{"name":"Chiswick","country":"GB","lat":51.49271,"lon":-0.25801},{"name":"Chobham","country":"GB","lat":51.34836,"lon":-0.60639},{"name":"Cholsey","country":"GB","lat":51.5728,"lon":-1.15356},{"name":"Choppington","country":"GB","lat":55.15004,"lon":-1.60332},{"name":"Chopwell","country":"GB","lat":54.91797,"lon":-1.82013},{"name":"Chorley","country":"GB","lat":53.65,"lon":-2.61667},{"name":"Chorleywood","country":"GB","lat":51.65472,"lon":-0.51404},{"name":"Chorlton","country":"GB","lat":53.05029,"lon":-2.40541},{"name":"Chorlton cum Hardy","country":"GB","lat":53.43505,"lon":-2.2631},{"name":"Christchurch","country":"GB","lat":50.73583,"lon":-1.78129},{"name":"Chryston","country":"GB","lat":55.9028,"lon":-4.10759},{"name":"Chudleigh","country":"GB","lat":50.60496,"lon":-3.60031},{"name":"Chudleigh Knighton","country":"GB","lat":50.58507,"lon":-3.63187},{"name":"Chulmleigh","country":"GB","lat":50.91289,"lon":-3.86938},{"name":"Church","country":"GB","lat":53.75177,"lon":-2.39121},{"name":"Church Fenton","country":"GB","lat":53.82626,"lon":-1.2189},{"name":"Church Street","country":"GB","lat":51.5239,"lon":-0.16968},{"name":"Church Stretton","country":"GB","lat":52.53778,"lon":-2.80149},{"name":"Churchdown","country":"GB","lat":51.87739,"lon":-2.17087},{"name":"Churchill","country":"GB","lat":51.34291,"lon":-2.78338},{"name":"Churt","country":"GB","lat":51.13603,"lon":-0.77534},{"name":"Cinderford","country":"GB","lat":51.82421,"lon":-2.4987},{"name":"Cirencester","country":"GB","lat":51.71927,"lon":-1.97145},{"name":"City of London","country":"GB","lat":51.51279,"lon":-0.09184},{"name":"City of Westminster","country":"GB","lat":51.4975,"lon":-0.1357},{"name":"Clackmannan","country":"GB","lat":56.10743,"lon":-3.75098},{"name":"Clacton-on-Sea","country":"GB","lat":51.78967,"lon":1.15597},{"name":"Clapham","country":"GB","lat":52.16085,"lon":-0.49529},{"name":"Clarborough","country":"GB","lat":53.34549,"lon":-0.90382},{"name":"Clare","country":"GB","lat":52.07861,"lon":0.58167},{"name":"Clarkston","country":"GB","lat":55.78594,"lon":-4.27651},{"name":"Claydon","country":"GB","lat":52.14813,"lon":-1.33295},{"name":"Claydon","country":"GB","lat":52.10672,"lon":1.11134},{"name":"Claypole","country":"GB","lat":53.03144,"lon":-0.73407},{"name":"Clayton","country":"GB","lat":53.76667,"lon":-1.81667},{"name":"Clayton le Moors","country":"GB","lat":53.76667,"lon":-2.38333},{"name":"Clayton West","country":"GB","lat":53.59501,"lon":-1.61107},{"name":"Clayton-le-Woods","country":"GB","lat":53.69689,"lon":-2.66818},{"name":"Cleator Moor","country":"GB","lat":54.52143,"lon":-3.5159},{"name":"Cleckheaton","country":"GB","lat":53.72405,"lon":-1.71294},{"name":"Cleethorpes","country":"GB","lat":53.56047,"lon":-0.03225},{"name":"Cleland","country":"GB","lat":55.80243,"lon":-3.9142},{"name":"Clenchwarton","country":"GB","lat":52.75604,"lon":0.3579},{"name":"Cleobury Mortimer","country":"GB","lat":52.37853,"lon":-2.48196},{"name":"Clerkenwell","country":"GB","lat":51.52438,"lon":-0.11022},{"name":"Clevedon","country":"GB","lat":51.44227,"lon":-2.85786},{"name":"Cleveleys","country":"GB","lat":53.8775,"lon":-3.03987},{"name":"Cliffe","country":"GB","lat":51.46224,"lon":0.49833},{"name":"Clifford","country":"GB","lat":52.1,"lon":-3.1},{"name":"Clifford","country":"GB","lat":53.89513,"lon":-1.34557},{"name":"Clifton","country":"GB","lat":52.0399,"lon":-0.30051},{"name":"Clipsham","country":"GB","lat":52.73608,"lon":-0.56545},{"name":"Clitheroe","country":"GB","lat":53.86667,"lon":-2.4},{"name":"Clive","country":"GB","lat":52.81335,"lon":-2.72295},{"name":"Clophill","country":"GB","lat":52.02727,"lon":-0.42377},{"name":"Clowne","country":"GB","lat":53.27449,"lon":-1.26406},{"name":"Clutton","country":"GB","lat":51.32944,"lon":-2.54306},{"name":"Clydach","country":"GB","lat":51.68333,"lon":-3.9},{"name":"Clydach Vale","country":"GB","lat":51.62665,"lon":-3.48015},{"name":"Clydebank","country":"GB","lat":55.90137,"lon":-4.4057},{"name":"Coalburn","country":"GB","lat":55.59295,"lon":-3.88637},{"name":"Coalisland","country":"GB","lat":54.5418,"lon":-6.70166},{"name":"Coaltown of Balgonie","country":"GB","lat":56.18474,"lon":-3.12578},{"name":"Coalville","country":"GB","lat":52.72247,"lon":-1.3702},{"name":"Coatbridge","country":"GB","lat":55.86216,"lon":-4.02469},{"name":"Coates","country":"GB","lat":51.7075,"lon":-2.03389},{"name":"Coatham Mundeville","country":"GB","lat":54.58002,"lon":-1.55645},{"name":"Cobham","country":"GB","lat":51.32997,"lon":-0.4113},{"name":"Cockenzie","country":"GB","lat":55.96823,"lon":-2.96562},{"name":"Cockermouth","country":"GB","lat":54.66209,"lon":-3.36086},{"name":"Cockfield","country":"GB","lat":54.61373,"lon":-1.80897},{"name":"Cockfosters","country":"GB","lat":51.64926,"lon":-0.14823},{"name":"Cockington","country":"GB","lat":50.46335,"lon":-3.55691},{"name":"Coddington","country":"GB","lat":53.08333,"lon":-2.81667},{"name":"Codford","country":"GB","lat":51.15,"lon":-2.05},{"name":"Codicote","country":"GB","lat":51.85052,"lon":-0.2367},{"name":"Codsall","country":"GB","lat":52.62989,"lon":-2.20148},{"name":"Coedpoeth","country":"GB","lat":53.05391,"lon":-3.06234},{"name":"Cogenhoe","country":"GB","lat":52.23758,"lon":-0.78381},{"name":"Coggeshall","country":"GB","lat":51.87077,"lon":0.68536},{"name":"Coity","country":"GB","lat":51.522,"lon":-3.55531},{"name":"Colchester","country":"GB","lat":51.88921,"lon":0.90421},{"name":"Cold Ash","country":"GB","lat":51.42426,"lon":-1.26463},{"name":"Cold Ashton","country":"GB","lat":51.45083,"lon":-2.36139},{"name":"Cold Norton","country":"GB","lat":51.67209,"lon":0.66997},{"name":"Colden Common","country":"GB","lat":50.99483,"lon":-1.31143},{"name":"Coldstream","country":"GB","lat":55.65111,"lon":-2.25295},{"name":"Coleford","country":"GB","lat":51.79535,"lon":-2.61354},{"name":"Coleraine","country":"GB","lat":55.13333,"lon":-6.66667},{"name":"Colerne","country":"GB","lat":51.43833,"lon":-2.2628},{"name":"Colinton","country":"GB","lat":55.90739,"lon":-3.25609},{"name":"Collier Row","country":"GB","lat":51.59893,"lon":0.166},{"name":"Collingbourne Kingston","country":"GB","lat":51.30105,"lon":-1.65876},{"name":"Collingham","country":"GB","lat":53.91167,"lon":-1.41174},{"name":"Collington","country":"GB","lat":52.25,"lon":-2.51667},{"name":"Colmworth","country":"GB","lat":52.21681,"lon":-0.37826},{"name":"Colnbrook","country":"GB","lat":51.48384,"lon":-0.52142},{"name":"Colne","country":"GB","lat":53.85713,"lon":-2.16851},{"name":"Colsterworth","country":"GB","lat":52.8066,"lon":-0.62056},{"name":"Coltishall","country":"GB","lat":52.72804,"lon":1.36653},{"name":"Colwich","country":"GB","lat":52.78764,"lon":-1.98206},{"name":"Colwyn Bay","country":"GB","lat":53.29483,"lon":-3.72674},{"name":"Colyton","country":"GB","lat":50.74006,"lon":-3.07021},{"name":"Combe Martin","country":"GB","lat":51.19873,"lon":-4.02343},{"name":"Comber","country":"GB","lat":54.54937,"lon":-5.74379},{"name":"Comberton","country":"GB","lat":52.18709,"lon":0.01905},{"name":"Compton","country":"GB","lat":51.51585,"lon":-1.2551},{"name":"Compton","country":"GB","lat":51.02385,"lon":-1.33713},{"name":"Compton","country":"GB","lat":51.21223,"lon":-0.78325},{"name":"Compton Dando","country":"GB","lat":51.37909,"lon":-2.51445},{"name":"Compton Martin","country":"GB","lat":51.31056,"lon":-2.65528},{"name":"Comrie","country":"GB","lat":56.3688,"lon":-3.97882},{"name":"Congleton","country":"GB","lat":53.16314,"lon":-2.21253},{"name":"Congresbury","country":"GB","lat":51.37135,"lon":-2.81018},{"name":"Coningsby","country":"GB","lat":53.10598,"lon":-0.17595},{"name":"Conisbrough","country":"GB","lat":53.48188,"lon":-1.23214},{"name":"Connor","country":"GB","lat":54.8,"lon":-6.2},{"name":"Conon Bridge","country":"GB","lat":57.5663,"lon":-4.43678},{"name":"Consett","country":"GB","lat":54.85404,"lon":-1.8316},{"name":"Conwy","country":"GB","lat":53.28077,"lon":-3.83039},{"name":"Cookham","country":"GB","lat":51.55936,"lon":-0.7081},{"name":"Cookley","country":"GB","lat":52.31667,"lon":1.45},{"name":"Cookstown","country":"GB","lat":54.64305,"lon":-6.74595},{"name":"Cooling","country":"GB","lat":51.45474,"lon":0.52395},{"name":"Cople","country":"GB","lat":52.12342,"lon":-0.38933},{"name":"Copmanthorpe","country":"GB","lat":53.91419,"lon":-1.14209},{"name":"Copplestone","country":"GB","lat":50.81073,"lon":-3.74607},{"name":"Coppull","country":"GB","lat":53.62527,"lon":-2.65854},{"name":"Copthorne","country":"GB","lat":51.13929,"lon":-0.11742},{"name":"Corbridge","country":"GB","lat":54.97365,"lon":-2.01798},{"name":"Corby","country":"GB","lat":52.49637,"lon":-0.68939},{"name":"Corby Glen","country":"GB","lat":52.81262,"lon":-0.51817},{"name":"Corfe Castle","country":"GB","lat":50.63947,"lon":-2.05672},{"name":"Cornforth","country":"GB","lat":54.70286,"lon":-1.51938},{"name":"Cornholme","country":"GB","lat":53.7323,"lon":-2.13851},{"name":"Corris","country":"GB","lat":52.65145,"lon":-3.84315},{"name":"Corse","country":"GB","lat":51.95943,"lon":-2.30636},{"name":"Corsenside","country":"GB","lat":55.18333,"lon":-2.16667},{"name":"Corsham","country":"GB","lat":51.43433,"lon":-2.18437},{"name":"Corsley","country":"GB","lat":51.21933,"lon":-2.2464},{"name":"Corston","country":"GB","lat":51.385,"lon":-2.44028},{"name":"Cosby","country":"GB","lat":52.55127,"lon":-1.19395},{"name":"Cosham","country":"GB","lat":50.84654,"lon":-1.06344},{"name":"Costessey","country":"GB","lat":52.65914,"lon":1.2097},{"name":"Cotgrave","country":"GB","lat":52.90859,"lon":-1.03752},{"name":"Cottenham","country":"GB","lat":52.28743,"lon":0.1254},{"name":"Cottesmore","country":"GB","lat":52.71384,"lon":-0.6633},{"name":"Cottingham","country":"GB","lat":53.78057,"lon":-0.41542},{"name":"Cottingham","country":"GB","lat":52.50243,"lon":-0.7554},{"name":"Coulsdon","country":"GB","lat":51.32002,"lon":-0.14088},{"name":"Coundon","country":"GB","lat":54.6628,"lon":-1.62688},{"name":"Countesthorpe","country":"GB","lat":52.55379,"lon":-1.14526},{"name":"Coupar Angus","country":"GB","lat":56.54552,"lon":-3.26774},{"name":"Cove","country":"GB","lat":57.1,"lon":-2.08333},{"name":"Cove","country":"GB","lat":51.29547,"lon":-0.79076},{"name":"Coven","country":"GB","lat":52.65587,"lon":-2.1353},{"name":"Coventry","country":"GB","lat":52.40656,"lon":-1.51217},{"name":"Cowbit","country":"GB","lat":52.74523,"lon":-0.12978},{"name":"Cowbridge","country":"GB","lat":51.46028,"lon":-3.44167},{"name":"Cowdenbeath","country":"GB","lat":56.11194,"lon":-3.34426},{"name":"Cowes","country":"GB","lat":50.76252,"lon":-1.29781},{"name":"Cowfold","country":"GB","lat":50.98945,"lon":-0.27243},{"name":"Cowie","country":"GB","lat":56.07974,"lon":-3.86753},{"name":"Cowley","country":"GB","lat":51.73213,"lon":-1.20631},{"name":"Cowpen","country":"GB","lat":55.12728,"lon":-1.54033},{"name":"Cowplain","country":"GB","lat":50.89411,"lon":-1.01824},{"name":"Coxhoe","country":"GB","lat":54.71475,"lon":-1.50356},{"name":"Coylton","country":"GB","lat":55.44528,"lon":-4.5195},{"name":"Cradley Heath","country":"GB","lat":52.47214,"lon":-2.08212},{"name":"Craigavon","country":"GB","lat":54.44709,"lon":-6.387},{"name":"Crail","country":"GB","lat":56.26042,"lon":-2.62676},{"name":"Cramlington","country":"GB","lat":55.08652,"lon":-1.58598},{"name":"Cranbrook","country":"GB","lat":51.09662,"lon":0.53567},{"name":"Cranfield","country":"GB","lat":52.06869,"lon":-0.60884},{"name":"Cranford","country":"GB","lat":51.47695,"lon":-0.41345},{"name":"Cranham","country":"GB","lat":51.56565,"lon":0.2659},{"name":"Cranleigh","country":"GB","lat":51.14209,"lon":-0.48374},{"name":"Cranwell","country":"GB","lat":53.03681,"lon":-0.46176},{"name":"Craven Arms","country":"GB","lat":52.44308,"lon":-2.83562},{"name":"Crawley","country":"GB","lat":51.11303,"lon":-0.18312},{"name":"Crawley Down","country":"GB","lat":51.12061,"lon":-0.0773},{"name":"Cray","country":"GB","lat":51.9,"lon":-3.61667},{"name":"Credenhill","country":"GB","lat":52.08351,"lon":-2.80804},{"name":"Crediton","country":"GB","lat":50.78333,"lon":-3.65},{"name":"Creech Saint Michael","country":"GB","lat":51.02333,"lon":-3.03833},{"name":"Cresswell","country":"GB","lat":55.21667,"lon":-1.55},{"name":"Creswell","country":"GB","lat":53.26287,"lon":-1.21987},{"name":"Crewe","country":"GB","lat":53.09787,"lon":-2.44161},{"name":"Crewkerne","country":"GB","lat":50.88298,"lon":-2.79588},{"name":"Criccieth","country":"GB","lat":52.92053,"lon":-4.2346},{"name":"Crick","country":"GB","lat":52.34808,"lon":-1.13708},{"name":"Crickhowell","country":"GB","lat":51.85992,"lon":-3.13771},{"name":"Cricklade","country":"GB","lat":51.64061,"lon":-1.85738},{"name":"Cricklewood","country":"GB","lat":51.5567,"lon":-0.21549},{"name":"Crieff","country":"GB","lat":56.37268,"lon":-3.83891},{"name":"Crigglestone","country":"GB","lat":53.6424,"lon":-1.52916},{"name":"Cringleford","country":"GB","lat":52.60482,"lon":1.24334},{"name":"Croeserw","country":"GB","lat":51.64472,"lon":-3.64028},{"name":"Croft","country":"GB","lat":53.43333,"lon":-2.55},{"name":"Croft","country":"GB","lat":52.55668,"lon":-1.24643},{"name":"Crofton","country":"GB","lat":53.65639,"lon":-1.42968},{"name":"Crofton Park","country":"GB","lat":51.45147,"lon":-0.03438},{"name":"Crofty","country":"GB","lat":51.63448,"lon":-4.12937},{"name":"Cromer","country":"GB","lat":52.93123,"lon":1.29892},{"name":"Cromford","country":"GB","lat":53.10848,"lon":-1.56014},{"name":"Crondall","country":"GB","lat":51.23285,"lon":-0.86329},{"name":"Crook","country":"GB","lat":54.71252,"lon":-1.7497},{"name":"Cropwell Bishop","country":"GB","lat":52.9148,"lon":-0.98482},{"name":"Cross Hands","country":"GB","lat":51.79306,"lon":-4.0875},{"name":"Cross Hills","country":"GB","lat":53.90606,"lon":-1.98492},{"name":"Crossford","country":"GB","lat":56.06303,"lon":-3.49674},{"name":"Crossgar","country":"GB","lat":54.39675,"lon":-5.76061},{"name":"Crossgates","country":"GB","lat":56.08366,"lon":-3.37712},{"name":"Crosshouse","country":"GB","lat":55.61258,"lon":-4.55091},{"name":"Crosskeys","country":"GB","lat":51.61917,"lon":-3.12361},{"name":"Crossmaglen","country":"GB","lat":54.08333,"lon":-6.6},{"name":"Croston","country":"GB","lat":53.66217,"lon":-2.77523},{"name":"Crouch End","country":"GB","lat":51.57971,"lon":-0.12373},{"name":"Crowborough","country":"GB","lat":51.06098,"lon":0.16342},{"name":"Crowland","country":"GB","lat":52.67571,"lon":-0.16849},{"name":"Crowle","country":"GB","lat":53.60753,"lon":-0.83256},{"name":"Crowthorne","country":"GB","lat":51.37027,"lon":-0.79219},{"name":"Croxley Green","country":"GB","lat":51.63333,"lon":-0.45},{"name":"Croxteth","country":"GB","lat":53.45116,"lon":-2.90425},{"name":"Croxton","country":"GB","lat":53.5964,"lon":-0.3483},{"name":"Croy","country":"GB","lat":55.96064,"lon":-4.03932},{"name":"Croydon","country":"GB","lat":51.38333,"lon":-0.1},{"name":"Cruden Bay","country":"GB","lat":57.41797,"lon":-1.85313},{"name":"Crumlin","country":"GB","lat":54.62054,"lon":-6.21414},{"name":"Crumlin","country":"GB","lat":51.67778,"lon":-3.13528},{"name":"Crumpsall","country":"GB","lat":53.51827,"lon":-2.24447},{"name":"Crymych","country":"GB","lat":51.97361,"lon":-4.64722},{"name":"Crynant","country":"GB","lat":51.72889,"lon":-3.74806},{"name":"Crystal Palace","country":"GB","lat":51.41934,"lon":-0.07854},{"name":"Cuckfield","country":"GB","lat":51.01073,"lon":-0.14068},{"name":"Cuddington","country":"GB","lat":53.24488,"lon":-2.61879},{"name":"Cudworth","country":"GB","lat":53.57131,"lon":-1.41595},{"name":"Cuffley","country":"GB","lat":51.70799,"lon":-0.11209},{"name":"Culcheth","country":"GB","lat":53.4511,"lon":-2.52104},{"name":"Cullen","country":"GB","lat":57.69045,"lon":-2.81818},{"name":"Cullingworth","country":"GB","lat":53.82444,"lon":-1.8973},{"name":"Culloden","country":"GB","lat":57.48699,"lon":-4.1415},{"name":"Cullompton","country":"GB","lat":50.8553,"lon":-3.39268},{"name":"Cullybackey","country":"GB","lat":54.88875,"lon":-6.34701},{"name":"Culmore","country":"GB","lat":55.05,"lon":-7.26667},{"name":"Cults","country":"GB","lat":57.11667,"lon":-2.16667},{"name":"Culverstone Green","country":"GB","lat":51.34085,"lon":0.34686},{"name":"Cumbernauld","country":"GB","lat":55.94685,"lon":-3.99051},{"name":"Cumnock","country":"GB","lat":55.45445,"lon":-4.26644},{"name":"Cunningham","country":"GB","lat":51.74307,"lon":-0.3127},{"name":"Cupar","country":"GB","lat":56.31876,"lon":-3.01204},{"name":"Curdworth","country":"GB","lat":52.53382,"lon":-1.73687},{"name":"Currie","country":"GB","lat":55.8964,"lon":-3.30845},{"name":"Curry Rivel","country":"GB","lat":51.02306,"lon":-2.86753},{"name":"Cushendall","country":"GB","lat":55.08033,"lon":-6.06291},{"name":"Cuxton","country":"GB","lat":51.3743,"lon":0.45688},{"name":"Cwm","country":"GB","lat":53.28333,"lon":-3.4},{"name":"Cwm","country":"GB","lat":51.74,"lon":-3.18028},{"name":"Cwmafan","country":"GB","lat":51.61671,"lon":-3.76205},{"name":"Cwmbach","country":"GB","lat":51.70556,"lon":-3.40944},{"name":"Cwmbran","country":"GB","lat":51.65446,"lon":-3.02281},{"name":"Cwmtillery","country":"GB","lat":51.74495,"lon":-3.13188},{"name":"Dagenham","country":"GB","lat":51.55,"lon":0.16667},{"name":"Dalbeattie","country":"GB","lat":54.93278,"lon":-3.82271},{"name":"Dale","country":"GB","lat":51.70917,"lon":-5.17333},{"name":"Dalgety Bay","country":"GB","lat":56.03496,"lon":-3.35049},{"name":"Dalkeith","country":"GB","lat":55.89317,"lon":-3.06806},{"name":"Dalmellington","country":"GB","lat":55.32419,"lon":-4.402},{"name":"Dalry","country":"GB","lat":55.70956,"lon":-4.72167},{"name":"Dalrymple","country":"GB","lat":55.39757,"lon":-4.59169},{"name":"Dalserf","country":"GB","lat":55.73333,"lon":-3.91667},{"name":"Dalston","country":"GB","lat":54.84207,"lon":-2.98459},{"name":"Dalton in Furness","country":"GB","lat":54.15796,"lon":-3.17977},{"name":"Danbury","country":"GB","lat":51.71645,"lon":0.58245},{"name":"Danby","country":"GB","lat":54.46606,"lon":-0.91073},{"name":"Danderhall","country":"GB","lat":55.91434,"lon":-3.11062},{"name":"Darenth","country":"GB","lat":51.42137,"lon":0.25784},{"name":"Daresbury","country":"GB","lat":53.34184,"lon":-2.635},{"name":"Darfield","country":"GB","lat":53.5339,"lon":-1.37595},{"name":"Darlaston","country":"GB","lat":52.56667,"lon":-2.03333},{"name":"Darlington","country":"GB","lat":54.52429,"lon":-1.55039},{"name":"Darras Hall","country":"GB","lat":55.0356,"lon":-1.76425},{"name":"Darrington","country":"GB","lat":53.67566,"lon":-1.26901},{"name":"Dartford","country":"GB","lat":51.44657,"lon":0.21423},{"name":"Dartmouth","country":"GB","lat":50.3522,"lon":-3.5794},{"name":"Darton","country":"GB","lat":53.58705,"lon":-1.52676},{"name":"Darvel","country":"GB","lat":55.60976,"lon":-4.28142},{"name":"Darwen","country":"GB","lat":53.69803,"lon":-2.46494},{"name":"Datchet","country":"GB","lat":51.4839,"lon":-0.57893},{"name":"Datchworth","country":"GB","lat":51.85126,"lon":-0.15956},{"name":"Daventry","country":"GB","lat":52.25688,"lon":-1.16066},{"name":"Dawlish","country":"GB","lat":50.58118,"lon":-3.46644},{"name":"Deal","country":"GB","lat":51.22316,"lon":1.4028},{"name":"Deanshanger","country":"GB","lat":52.04996,"lon":-0.88663},{"name":"Dearham","country":"GB","lat":54.71175,"lon":-3.44364},{"name":"Debenham","country":"GB","lat":52.22422,"lon":1.18172},{"name":"Deddington","country":"GB","lat":51.9806,"lon":-1.32055},{"name":"Dedham","country":"GB","lat":51.95892,"lon":0.99336},{"name":"Deepcut","country":"GB","lat":51.30513,"lon":-0.71016},{"name":"Deeside","country":"GB","lat":53.20053,"lon":-3.03841},{"name":"Deganwy","country":"GB","lat":53.30446,"lon":-3.82735},{"name":"Deighton","country":"GB","lat":53.9,"lon":-1.05},{"name":"Deiniolen","country":"GB","lat":53.14819,"lon":-4.13185},{"name":"Delabole","country":"GB","lat":50.62347,"lon":-4.7319},{"name":"Delph","country":"GB","lat":53.56667,"lon":-2.01667},{"name":"Denbigh","country":"GB","lat":53.18333,"lon":-3.41667},{"name":"Denby Dale","country":"GB","lat":53.57228,"lon":-1.65895},{"name":"Denham","country":"GB","lat":51.56667,"lon":-0.5},{"name":"Denholme","country":"GB","lat":53.80189,"lon":-1.89503},{"name":"Denmead","country":"GB","lat":50.90395,"lon":-1.06744},{"name":"Denny","country":"GB","lat":56.0235,"lon":-3.90812},{"name":"Dennyloanhead","country":"GB","lat":55.99886,"lon":-3.91306},{"name":"Denton","country":"GB","lat":54.56667,"lon":-1.66667},{"name":"Denton","country":"GB","lat":53.45678,"lon":-2.11822},{"name":"Denton Holme","country":"GB","lat":54.885,"lon":-2.941},{"name":"Derby","country":"GB","lat":52.92277,"lon":-1.47663},{"name":"Deri","country":"GB","lat":51.70812,"lon":-3.26312},{"name":"Derry","country":"GB","lat":54.9981,"lon":-7.30934},{"name":"Dersingham","country":"GB","lat":52.84549,"lon":0.50339},{"name":"Derwen","country":"GB","lat":53.03333,"lon":-3.4},{"name":"Desborough","country":"GB","lat":52.44183,"lon":-0.82126},{"name":"Desford","country":"GB","lat":52.62598,"lon":-1.29395},{"name":"Devizes","country":"GB","lat":51.35084,"lon":-1.99421},{"name":"Dewsbury","country":"GB","lat":53.69076,"lon":-1.62907},{"name":"Deysbrook","country":"GB","lat":53.43333,"lon":-2.88333},{"name":"Dickens Heath","country":"GB","lat":52.38568,"lon":-1.83935},{"name":"Dickleburgh","country":"GB","lat":52.3965,"lon":1.18498},{"name":"Didcot","country":"GB","lat":51.60928,"lon":-1.24214},{"name":"Didsbury","country":"GB","lat":53.41698,"lon":-2.23145},{"name":"Diggle","country":"GB","lat":53.56744,"lon":-1.99723},{"name":"Dinas Powys","country":"GB","lat":51.43486,"lon":-3.21398},{"name":"Dingle","country":"GB","lat":53.37908,"lon":-2.96029},{"name":"Dingwall","country":"GB","lat":57.59531,"lon":-4.42721},{"name":"Dinmore","country":"GB","lat":52.15,"lon":-2.75},{"name":"Dinnington","country":"GB","lat":55.05428,"lon":-1.67542},{"name":"Dinnington","country":"GB","lat":53.36667,"lon":-1.2},{"name":"Dinton","country":"GB","lat":51.08333,"lon":-1.98333},{"name":"Disley","country":"GB","lat":53.35865,"lon":-2.03848},{"name":"Diss","country":"GB","lat":52.37675,"lon":1.1091},{"name":"Distington","country":"GB","lat":54.59733,"lon":-3.5388},{"name":"Ditchingham","country":"GB","lat":52.46729,"lon":1.4437},{"name":"Ditchling","country":"GB","lat":50.921,"lon":-0.11536},{"name":"Ditton Hill","country":"GB","lat":51.37947,"lon":-0.31281},{"name":"Doagh","country":"GB","lat":54.75,"lon":-6.08333},{"name":"Dobcross","country":"GB","lat":53.55639,"lon":-2.01325},{"name":"Dobwalls","country":"GB","lat":50.45768,"lon":-4.51735},{"name":"Doddington","country":"GB","lat":55.58548,"lon":-2.00415},{"name":"Doddington","country":"GB","lat":52.49671,"lon":0.06017},{"name":"Dodworth","country":"GB","lat":53.54306,"lon":-1.52779},{"name":"Dolgellau","country":"GB","lat":52.74222,"lon":-3.88611},{"name":"Dollar","country":"GB","lat":56.16245,"lon":-3.67135},{"name":"Donaghadee","country":"GB","lat":54.64126,"lon":-5.53591},{"name":"Doncaster","country":"GB","lat":53.52285,"lon":-1.13116},{"name":"Donington","country":"GB","lat":52.90461,"lon":-0.20505},{"name":"Donington le Heath","country":"GB","lat":52.70786,"lon":-1.37844},{"name":"Donisthorpe","country":"GB","lat":52.72401,"lon":-1.538},{"name":"Donnington","country":"GB","lat":52,"lon":-2.41667},{"name":"Donnington","country":"GB","lat":51.95135,"lon":-1.72142},{"name":"Dorchester","country":"GB","lat":50.71667,"lon":-2.43333},{"name":"Dorking","country":"GB","lat":51.23228,"lon":-0.3338},{"name":"Dormansland","country":"GB","lat":51.16024,"lon":0.00618},{"name":"Dornoch","country":"GB","lat":57.8805,"lon":-4.02879},{"name":"Dorridge","country":"GB","lat":52.37259,"lon":-1.75318},{"name":"Dorstone","country":"GB","lat":52.06667,"lon":-3},{"name":"Douglas","country":"GB","lat":55.55,"lon":-3.85},{"name":"Doune","country":"GB","lat":56.18995,"lon":-4.05288},{"name":"Dove Holes","country":"GB","lat":53.29828,"lon":-1.88775},{"name":"Dover","country":"GB","lat":51.12598,"lon":1.31257},{"name":"Dovercourt","country":"GB","lat":51.93649,"lon":1.27831},{"name":"Doveridge","country":"GB","lat":52.90526,"lon":-1.8248},{"name":"Downham Market","country":"GB","lat":52.60714,"lon":0.38375},{"name":"Downpatrick","country":"GB","lat":54.32814,"lon":-5.71529},{"name":"Downside","country":"GB","lat":51.31001,"lon":-0.41186},{"name":"Downton","country":"GB","lat":52.36667,"lon":-2.83333},{"name":"Downton","country":"GB","lat":50.99366,"lon":-1.75129},{"name":"Draperstown","country":"GB","lat":54.8,"lon":-6.76667},{"name":"Draycott","country":"GB","lat":51.25615,"lon":-2.75116},{"name":"Dreghorn","country":"GB","lat":55.60807,"lon":-4.62226},{"name":"Driffield","country":"GB","lat":54.00613,"lon":-0.44495},{"name":"Drighlington","country":"GB","lat":53.75592,"lon":-1.66443},{"name":"Droitwich","country":"GB","lat":52.26667,"lon":-2.15},{"name":"Dromore","country":"GB","lat":54.51331,"lon":-7.45886},{"name":"Dronfield","country":"GB","lat":53.30221,"lon":-1.47507},{"name":"Drongan","country":"GB","lat":55.43498,"lon":-4.45551},{"name":"Droylsden","country":"GB","lat":53.48005,"lon":-2.14543},{"name":"Drumnadrochit","country":"GB","lat":57.33438,"lon":-4.47989},{"name":"Drybrook","country":"GB","lat":51.8555,"lon":-2.51681},{"name":"Ducklington","country":"GB","lat":51.76763,"lon":-1.48418},{"name":"Dudley","country":"GB","lat":52.5,"lon":-2.08333},{"name":"Duffield","country":"GB","lat":52.98627,"lon":-1.48865},{"name":"Dufftown","country":"GB","lat":57.44571,"lon":-3.12708},{"name":"Dukinfield","country":"GB","lat":53.47497,"lon":-2.08809},{"name":"Duloe","country":"GB","lat":50.38333,"lon":-4.48333},{"name":"Dulverton","country":"GB","lat":51.04007,"lon":-3.55035},{"name":"Dumbarton","country":"GB","lat":55.94433,"lon":-4.57061},{"name":"Dumfries","country":"GB","lat":55.06959,"lon":-3.61139},{"name":"Dunbar","country":"GB","lat":56.00062,"lon":-2.51418},{"name":"Dunblane","country":"GB","lat":56.18843,"lon":-3.96417},{"name":"Dunchurch","country":"GB","lat":52.33757,"lon":-1.29136},{"name":"Dundee","country":"GB","lat":56.46913,"lon":-2.97489},{"name":"Dundonald","country":"GB","lat":55.57939,"lon":-4.59473},{"name":"Dundonald","country":"GB","lat":54.59196,"lon":-5.79803},{"name":"Dundrum","country":"GB","lat":54.2575,"lon":-5.84455},{"name":"Dundry","country":"GB","lat":51.3988,"lon":-2.63964},{"name":"Dunfermline","country":"GB","lat":56.07156,"lon":-3.45887},{"name":"Dungannon","country":"GB","lat":54.50344,"lon":-6.76723},{"name":"Dungiven","country":"GB","lat":54.93333,"lon":-6.91667},{"name":"Dunholme","country":"GB","lat":53.30067,"lon":-0.46541},{"name":"Dunipace","country":"GB","lat":56.027,"lon":-3.91471},{"name":"Dunkeld","country":"GB","lat":56.5655,"lon":-3.58559},{"name":"Dunkeswell","country":"GB","lat":50.86301,"lon":-3.22289},{"name":"Dunlop","country":"GB","lat":55.71198,"lon":-4.53622},{"name":"Dunloy","country":"GB","lat":55.011,"lon":-6.41087},{"name":"Dunnington","country":"GB","lat":53.95,"lon":-0.25},{"name":"Dunoon","country":"GB","lat":55.95031,"lon":-4.92734},{"name":"Duns","country":"GB","lat":55.77704,"lon":-2.34575},{"name":"Dunstable","country":"GB","lat":51.88571,"lon":-0.52288},{"name":"Dunswell","country":"GB","lat":53.80106,"lon":-0.37139},{"name":"Duntocher","country":"GB","lat":55.92437,"lon":-4.41545},{"name":"Dunvant","country":"GB","lat":51.62535,"lon":-4.03458},{"name":"Durham","country":"GB","lat":54.77676,"lon":-1.57566},{"name":"Durnford","country":"GB","lat":51.13333,"lon":-1.81667},{"name":"Durrington","country":"GB","lat":51.19871,"lon":-1.77185},{"name":"Dursley","country":"GB","lat":51.68139,"lon":-2.35333},{"name":"Duxford","country":"GB","lat":52.09393,"lon":0.15917},{"name":"Dyce","country":"GB","lat":57.20522,"lon":-2.17676},{"name":"Dyffryn Ardudwy","country":"GB","lat":52.77748,"lon":-4.06468},{"name":"Dymchurch","country":"GB","lat":51.02544,"lon":0.99392},{"name":"Dyserth","country":"GB","lat":53.30032,"lon":-3.41262},{"name":"Eaglescliffe","country":"GB","lat":54.52521,"lon":-1.35043},{"name":"Eaglesham","country":"GB","lat":55.74119,"lon":-4.27459},{"name":"Ealing","country":"GB","lat":51.51216,"lon":-0.30204},{"name":"Ealing Common","country":"GB","lat":51.50686,"lon":-0.29546},{"name":"Earby","country":"GB","lat":53.91546,"lon":-2.14285},{"name":"Earith","country":"GB","lat":52.35422,"lon":0.03056},{"name":"Earl Shilton","country":"GB","lat":52.57682,"lon":-1.31536},{"name":"Earley","country":"GB","lat":51.44085,"lon":-0.92384},{"name":"Earls Barton","country":"GB","lat":52.26627,"lon":-0.75248},{"name":"Earls Colne","country":"GB","lat":51.92744,"lon":0.70107},{"name":"Earls Court","country":"GB","lat":51.49159,"lon":-0.19801},{"name":"Earlsfield","country":"GB","lat":51.4439,"lon":-0.1854},{"name":"Earlston","country":"GB","lat":55.63856,"lon":-2.67495},{"name":"Earlswood","country":"GB","lat":51.22901,"lon":-0.17582},{"name":"Easington","country":"GB","lat":54.78528,"lon":-1.35917},{"name":"Easington","country":"GB","lat":53.65359,"lon":0.11501},{"name":"Easington Colliery","country":"GB","lat":54.78792,"lon":-1.32819},{"name":"Easingwold","country":"GB","lat":54.1201,"lon":-1.1939},{"name":"East Ayton","country":"GB","lat":54.2548,"lon":-0.47483},{"name":"East Barnet","country":"GB","lat":51.64674,"lon":-0.16103},{"name":"East Bergholt","country":"GB","lat":51.97785,"lon":1.01761},{"name":"East Boldon","country":"GB","lat":54.94452,"lon":-1.42815},{"name":"East Bridgford","country":"GB","lat":52.97954,"lon":-0.96563},{"name":"East Calder","country":"GB","lat":55.89186,"lon":-3.46372},{"name":"East Chevington","country":"GB","lat":55.28333,"lon":-1.58333},{"name":"East Cowes","country":"GB","lat":50.75774,"lon":-1.28815},{"name":"East Dean","country":"GB","lat":51.03979,"lon":-1.60941},{"name":"East Dereham","country":"GB","lat":52.68333,"lon":0.93333},{"name":"East Dulwich","country":"GB","lat":51.45353,"lon":-0.07203},{"name":"East Grinstead","country":"GB","lat":51.12382,"lon":-0.0061},{"name":"East Ham","country":"GB","lat":51.53333,"lon":0.05},{"name":"East Hanney","country":"GB","lat":51.63443,"lon":-1.39518},{"name":"East Harling","country":"GB","lat":52.43843,"lon":0.93353},{"name":"East Harptree","country":"GB","lat":51.30111,"lon":-2.62167},{"name":"East Horsley","country":"GB","lat":51.27358,"lon":-0.43207},{"name":"East Keswick","country":"GB","lat":53.8943,"lon":-1.45221},{"name":"East Kilbride","country":"GB","lat":55.76412,"lon":-4.17669},{"name":"East Leake","country":"GB","lat":52.83015,"lon":-1.18103},{"name":"East Linton","country":"GB","lat":55.98737,"lon":-2.65682},{"name":"East Markham","country":"GB","lat":53.25221,"lon":-0.89385},{"name":"East Molesey","country":"GB","lat":51.39872,"lon":-0.34916},{"name":"East Peckham","country":"GB","lat":51.21234,"lon":0.38624},{"name":"East Rainton","country":"GB","lat":54.82513,"lon":-1.48036},{"name":"East Sheen","country":"GB","lat":51.46291,"lon":-0.26844},{"name":"East Tilbury","country":"GB","lat":51.48053,"lon":0.41714},{"name":"East Wemyss","country":"GB","lat":56.16018,"lon":-3.06422},{"name":"East Whitburn","country":"GB","lat":55.86855,"lon":-3.66295},{"name":"East Wittering","country":"GB","lat":50.76969,"lon":-0.87444},{"name":"Eastbourne","country":"GB","lat":50.76871,"lon":0.28453},{"name":"Eastchurch","country":"GB","lat":51.40673,"lon":0.85766},{"name":"Eastington","country":"GB","lat":51.74722,"lon":-2.32639},{"name":"Eastleigh","country":"GB","lat":50.96667,"lon":-1.35},{"name":"Eastoft","country":"GB","lat":53.63624,"lon":-0.78492},{"name":"Easton","country":"GB","lat":50.53333,"lon":-2.45},{"name":"Easton on the Hill","country":"GB","lat":52.62733,"lon":-0.50571},{"name":"Easton-in-Gordano","country":"GB","lat":51.47592,"lon":-2.69987},{"name":"Eastriggs","country":"GB","lat":54.98597,"lon":-3.18051},{"name":"Eastrington","country":"GB","lat":53.76038,"lon":-0.79325},{"name":"Eastry","country":"GB","lat":51.24639,"lon":1.30776},{"name":"Eastwood","country":"GB","lat":53,"lon":-1.3},{"name":"Eaton","country":"GB","lat":53.18333,"lon":-2.2},{"name":"Eaton Bray","country":"GB","lat":51.87697,"lon":-0.59167},{"name":"Eaton Socon","country":"GB","lat":52.21752,"lon":-0.28925},{"name":"Ebbw Vale","country":"GB","lat":51.77714,"lon":-3.20792},{"name":"Eccles","country":"GB","lat":53.48333,"lon":-2.33333},{"name":"Eccleshall","country":"GB","lat":52.85789,"lon":-2.24971},{"name":"Eccleston","country":"GB","lat":53.64236,"lon":-2.72162},{"name":"Eccleston","country":"GB","lat":53.45,"lon":-2.78333},{"name":"Eccleston","country":"GB","lat":53.15,"lon":-2.88333},{"name":"Eckington","country":"GB","lat":52.06667,"lon":-2.11667},{"name":"Edenbridge","country":"GB","lat":51.19172,"lon":0.06729},{"name":"Edenfield","country":"GB","lat":53.66674,"lon":-2.30481},{"name":"Edgmond","country":"GB","lat":52.774,"lon":-2.40967},{"name":"Edgware","country":"GB","lat":51.6128,"lon":-0.27539},{"name":"Edgwarebury","country":"GB","lat":51.62528,"lon":-0.27297},{"name":"Edgworth","country":"GB","lat":53.64636,"lon":-2.39401},{"name":"Edinburgh","country":"GB","lat":55.95206,"lon":-3.19648},{"name":"Edington","country":"GB","lat":51.27583,"lon":-2.10639},{"name":"Edith Weston","country":"GB","lat":52.63786,"lon":-0.63189},{"name":"Edmonton","country":"GB","lat":51.62561,"lon":-0.05798},{"name":"Edwinstowe","country":"GB","lat":53.19454,"lon":-1.06439},{"name":"Edworth","country":"GB","lat":52.05597,"lon":-0.21715},{"name":"Eggleston","country":"GB","lat":54.60916,"lon":-2.00312},{"name":"Egham","country":"GB","lat":51.43158,"lon":-0.55239},{"name":"Eglinton","country":"GB","lat":55.01667,"lon":-7.18333},{"name":"Egremont","country":"GB","lat":54.47941,"lon":-3.52756},{"name":"Eight Ash Green","country":"GB","lat":51.89587,"lon":0.8228},{"name":"Elderslie","country":"GB","lat":55.83327,"lon":-4.48598},{"name":"Elgin","country":"GB","lat":57.64947,"lon":-3.31843},{"name":"Elland","country":"GB","lat":53.6851,"lon":-1.83878},{"name":"Ellerker","country":"GB","lat":53.75323,"lon":-0.60416},{"name":"Ellerton","country":"GB","lat":53.85,"lon":-0.93333},{"name":"Ellesmere","country":"GB","lat":52.90838,"lon":-2.89806},{"name":"Ellesmere Port Town","country":"GB","lat":53.27875,"lon":-2.90134},{"name":"Ellingham","country":"GB","lat":55.52589,"lon":-1.73601},{"name":"Ellon","country":"GB","lat":57.36405,"lon":-2.07313},{"name":"Elm Park","country":"GB","lat":51.54297,"lon":0.19454},{"name":"Elmstead Market","country":"GB","lat":51.88219,"lon":0.99482},{"name":"Elmswell","country":"GB","lat":52.23616,"lon":0.91247},{"name":"Elsenham","country":"GB","lat":51.91431,"lon":0.22934},{"name":"Elstead","country":"GB","lat":51.18548,"lon":-0.70536},{"name":"Elstow","country":"GB","lat":52.10727,"lon":-0.4649},{"name":"Elstree","country":"GB","lat":51.6403,"lon":-0.29693},{"name":"Elswick","country":"GB","lat":53.83836,"lon":-2.88147},{"name":"Eltham","country":"GB","lat":51.45061,"lon":0.05225},{"name":"Elton","country":"GB","lat":54.55,"lon":-1.36667},{"name":"Elton","country":"GB","lat":53.26667,"lon":-2.81667},{"name":"Elton","country":"GB","lat":52.33333,"lon":-2.8},{"name":"Elvington","country":"GB","lat":53.92087,"lon":-0.93495},{"name":"Elwick","country":"GB","lat":54.68455,"lon":-1.29559},{"name":"Ely","country":"GB","lat":52.39964,"lon":0.26196},{"name":"Emberton","country":"GB","lat":52.13691,"lon":-0.70673},{"name":"Embleton","country":"GB","lat":55.49592,"lon":-1.63619},{"name":"Embsay","country":"GB","lat":53.97664,"lon":-1.99282},{"name":"Emerson Park","country":"GB","lat":51.57511,"lon":0.23177},{"name":"Emley","country":"GB","lat":53.61395,"lon":-1.6313},{"name":"Emneth","country":"GB","lat":52.64244,"lon":0.20857},{"name":"Empingham","country":"GB","lat":52.66722,"lon":-0.59601},{"name":"Emsworth","country":"GB","lat":50.84779,"lon":-0.93697},{"name":"Enderby","country":"GB","lat":52.58778,"lon":-1.20619},{"name":"Endon","country":"GB","lat":53.07687,"lon":-2.11297},{"name":"Enfield Lock","country":"GB","lat":51.67086,"lon":-0.02748},{"name":"Enfield Town","country":"GB","lat":51.65147,"lon":-0.08497},{"name":"Enniskillen","country":"GB","lat":54.34615,"lon":-7.64133},{"name":"Epping","country":"GB","lat":51.69815,"lon":0.11055},{"name":"Epsom","country":"GB","lat":51.3305,"lon":-0.27011},{"name":"Epworth","country":"GB","lat":53.52602,"lon":-0.82399},{"name":"Erith","country":"GB","lat":51.48315,"lon":0.17484},{"name":"Erlestoke","country":"GB","lat":51.28472,"lon":-2.05444},{"name":"Errol","country":"GB","lat":56.39234,"lon":-3.21275},{"name":"Erskine","country":"GB","lat":55.9005,"lon":-4.45028},{"name":"Esher","country":"GB","lat":51.36969,"lon":-0.36693},{"name":"Essendine","country":"GB","lat":52.70187,"lon":-0.4525},{"name":"Essington","country":"GB","lat":52.6291,"lon":-2.0577},{"name":"Eston","country":"GB","lat":54.55932,"lon":-1.1434},{"name":"Eton","country":"GB","lat":51.48833,"lon":-0.60905},{"name":"Eton Wick","country":"GB","lat":51.49722,"lon":-0.63437},{"name":"Ettington","country":"GB","lat":52.13773,"lon":-1.60742},{"name":"Etton","country":"GB","lat":53.87848,"lon":-0.51314},{"name":"Etwall","country":"GB","lat":52.88353,"lon":-1.60023},{"name":"Euxton","country":"GB","lat":53.6699,"lon":-2.67615},{"name":"Evanton","country":"GB","lat":57.66385,"lon":-4.34004},{"name":"Evenwood","country":"GB","lat":54.62213,"lon":-1.76133},{"name":"Evercreech","country":"GB","lat":51.14806,"lon":-2.50556},{"name":"Eversholt","country":"GB","lat":51.98702,"lon":-0.55983},{"name":"Eversley","country":"GB","lat":51.35387,"lon":-0.88888},{"name":"Everton","country":"GB","lat":52.14581,"lon":-0.24616},{"name":"Evesbatch","country":"GB","lat":52.13333,"lon":-2.45},{"name":"Evesham","country":"GB","lat":52.09237,"lon":-1.94887},{"name":"Evington","country":"GB","lat":52.6,"lon":-1.06667},{"name":"Ewell","country":"GB","lat":51.34948,"lon":-0.2494},{"name":"Ewhurst","country":"GB","lat":51.15448,"lon":-0.44344},{"name":"Ewyas Harold","country":"GB","lat":51.95358,"lon":-2.89325},{"name":"Exeter","country":"GB","lat":50.7236,"lon":-3.52751},{"name":"Exhall","country":"GB","lat":52.46464,"lon":-1.48144},{"name":"Exminster","country":"GB","lat":50.68075,"lon":-3.49706},