[{"name":"Abasha","country":"GE","lat":42.20453,"lon":42.20357},{"name":"Abastumani","country":"GE","lat":41.75339,"lon":42.83203},{"name":"Adigeni","country":"GE","lat":41.67555,"lon":42.70291},{"name":"Agara","country":"GE","lat":42.03761,"lon":43.82382},{"name":"Aghaiani","country":"GE","lat":41.91438,"lon":44.54318},{"name":"Akhaldaba","country":"GE","lat":41.92945,"lon":43.48762},{"name":"Akhaldaba","country":"GE","lat":41.65395,"lon":42.15163},{"name":"Akhalgori","country":"GE","lat":42.12433,"lon":44.48314},{"name":"Akhali Atoni","country":"GE","lat":43.08427,"lon":40.8185},{"name":"Akhalk’alak’i","country":"GE","lat":41.40514,"lon":43.48629},{"name":"Akhaltsikhe","country":"GE","lat":41.63901,"lon":42.98262},{"name":"Akhmet’a","country":"GE","lat":42.03495,"lon":45.20804},{"name":"Ambrolauri","country":"GE","lat":42.52111,"lon":43.16222},{"name":"Anaklia","country":"GE","lat":42.39302,"lon":41.56227},{"name":"Asp’indza","country":"GE","lat":41.57314,"lon":43.24842},{"name":"Bagdadi","country":"GE","lat":41.81667,"lon":46.03333},{"name":"Bak’uriani","country":"GE","lat":41.75303,"lon":43.52907},{"name":"Bak’urianis Andezit’i","country":"GE","lat":41.73371,"lon":43.47242},{"name":"Batumi","country":"GE","lat":41.64228,"lon":41.63392},{"name":"Bich’vinta","country":"GE","lat":43.15925,"lon":40.33985},{"name":"Bolnisi","country":"GE","lat":41.45124,"lon":44.53835},{"name":"Borjomi","country":"GE","lat":41.84692,"lon":43.3971},{"name":"Ch’lou","country":"GE","lat":42.88333,"lon":41.49483},{"name":"Chakvi","country":"GE","lat":41.72528,"lon":41.73278},{"name":"Chiat’ura","country":"GE","lat":42.29806,"lon":43.29889},{"name":"Chkhorots’q’u","country":"GE","lat":42.51954,"lon":42.12734},{"name":"Chokhat’auri","country":"GE","lat":42.01896,"lon":42.23945},{"name":"Dedoplists’q’aro","country":"GE","lat":41.46566,"lon":46.10385},{"name":"Didi Lilo","country":"GE","lat":41.73611,"lon":44.96472},{"name":"Diok’nisi","country":"GE","lat":41.62933,"lon":42.39171},{"name":"Dmanisi","country":"GE","lat":41.33183,"lon":44.20296},{"name":"Dranda","country":"GE","lat":42.87167,"lon":41.15333},{"name":"Dusheti","country":"GE","lat":42.08642,"lon":44.695},{"name":"Dzegvi","country":"GE","lat":41.84569,"lon":44.60097},{"name":"Gagra","country":"GE","lat":43.27858,"lon":40.27124},{"name":"Gali","country":"GE","lat":42.62705,"lon":41.73645},{"name":"Gantiadi","country":"GE","lat":43.38111,"lon":40.07944},{"name":"Gardabani","country":"GE","lat":41.45967,"lon":45.08988},{"name":"Gori","country":"GE","lat":41.98422,"lon":44.11578},{"name":"Gudauri","country":"GE","lat":42.47797,"lon":44.47616},{"name":"Gudauta","country":"GE","lat":43.10191,"lon":40.62245},{"name":"Gulripshi","country":"GE","lat":42.93057,"lon":41.10257},{"name":"Gurjaani","country":"GE","lat":41.74384,"lon":45.80246},{"name":"Ingiri","country":"GE","lat":42.49632,"lon":41.81218},{"name":"Java","country":"GE","lat":42.38991,"lon":43.92421},{"name":"Jvara","country":"GE","lat":41.52514,"lon":44.3472},{"name":"Jvari","country":"GE","lat":42.71693,"lon":42.052},{"name":"K’ardenakhi","country":"GE","lat":41.67364,"lon":45.8893},{"name":"K’asp’i","country":"GE","lat":41.92776,"lon":44.42355},{"name":"K’atskhi","country":"GE","lat":42.28388,"lon":43.20872},{"name":"K’ulashi","country":"GE","lat":42.2064,"lon":42.34606},{"name":"K’urdghelauri","country":"GE","lat":41.92937,"lon":45.4881},{"name":"Keda","country":"GE","lat":41.59948,"lon":41.93946},{"name":"Kelasuri","country":"GE","lat":42.97877,"lon":41.07067},{"name":"Kharagauli","country":"GE","lat":42.02137,"lon":43.19773},{"name":"Khashuri","country":"GE","lat":41.99733,"lon":43.59905},{"name":"Khelvachauri","country":"GE","lat":41.58452,"lon":41.6731},{"name":"Khobi","country":"GE","lat":42.31746,"lon":41.9002},{"name":"Khoni","country":"GE","lat":42.32535,"lon":42.42243},{"name":"Khulo","country":"GE","lat":41.64517,"lon":42.31464},{"name":"Kobuleti","country":"GE","lat":41.83283,"lon":41.77823},{"name":"Kojori","country":"GE","lat":41.65887,"lon":44.70006},{"name":"Kutaisi","country":"GE","lat":42.26791,"lon":42.69459},{"name":"Kveda Chkhorots’q’u","country":"GE","lat":42.49158,"lon":42.1109},{"name":"Lagodekhi","country":"GE","lat":41.82747,"lon":46.27495},{"name":"Lanchkhuti","country":"GE","lat":42.08744,"lon":42.03611},{"name":"Lent’ekhi","country":"GE","lat":42.78888,"lon":42.72228},{"name":"Makhinjauri","country":"GE","lat":41.67385,"lon":41.69401},{"name":"Manglisi","country":"GE","lat":41.697,"lon":44.3845},{"name":"Marneuli","country":"GE","lat":41.48758,"lon":44.79845},{"name":"Mart’q’opi","country":"GE","lat":41.78733,"lon":45.02305},{"name":"Mart’vili","country":"GE","lat":42.41429,"lon":42.37892},{"name":"Mat’ani","country":"GE","lat":42.07804,"lon":45.19562},{"name":"Mest’ia","country":"GE","lat":43.0438,"lon":42.72368},{"name":"Mtskheta","country":"GE","lat":41.84514,"lon":44.71875},{"name":"Narazeni","country":"GE","lat":42.37194,"lon":41.91083},{"name":"Naruja","country":"GE","lat":41.90694,"lon":41.95417},{"name":"Ninots’minda","country":"GE","lat":41.26697,"lon":43.58959},{"name":"Ochamchire","country":"GE","lat":42.71232,"lon":41.46863},{"name":"Ochkhamuri","country":"GE","lat":41.85713,"lon":41.83219},{"name":"Oni","country":"GE","lat":42.58453,"lon":43.44356},{"name":"Orsant’ia","country":"GE","lat":42.46777,"lon":41.67377},{"name":"Ozurgeti","country":"GE","lat":41.92442,"lon":42.00682},{"name":"P’ot’i","country":"GE","lat":42.14272,"lon":41.67384},{"name":"P’rimorsk’oe","country":"GE","lat":43.09236,"lon":40.6965},{"name":"Pasanauri","country":"GE","lat":42.3506,"lon":44.68912},{"name":"Q’vareli","country":"GE","lat":41.95493,"lon":45.81716},{"name":"Rustavi","country":"GE","lat":41.56271,"lon":44.9787},{"name":"Sach’khere","country":"GE","lat":42.34528,"lon":43.41944},{"name":"Sadakhlo","country":"GE","lat":41.2402,"lon":44.7891},{"name":"Sagarejo","country":"GE","lat":41.73691,"lon":45.32596},{"name":"Samtredia","country":"GE","lat":42.1537,"lon":42.33517},{"name":"Sartich’ala","country":"GE","lat":41.7179,"lon":45.1757},{"name":"Senak’i","country":"GE","lat":42.27077,"lon":42.06334},{"name":"Shaumiani","country":"GE","lat":41.35134,"lon":44.7645},{"name":"Shemokmedi","country":"GE","lat":41.9096,"lon":42.06693},{"name":"Shorap’ani","country":"GE","lat":42.09595,"lon":43.08248},{"name":"Shuakhevi","country":"GE","lat":41.62566,"lon":42.18615},{"name":"Sighnaghi","country":"GE","lat":41.61918,"lon":45.92227},{"name":"Sokhumi","country":"GE","lat":43.00697,"lon":40.9893},{"name":"St’epants’minda","country":"GE","lat":42.65691,"lon":44.64311},{"name":"Stantsiya Novyy Afon","country":"GE","lat":43.08056,"lon":40.83833},{"name":"Surami","country":"GE","lat":42.02431,"lon":43.55556},{"name":"T’q’ibuli","country":"GE","lat":42.34781,"lon":42.99774},{"name":"Tbilisi","country":"GE","lat":41.69411,"lon":44.83368},{"name":"Telavi","country":"GE","lat":41.91978,"lon":45.47315},{"name":"Terjola","country":"GE","lat":42.18058,"lon":42.9776},{"name":"Tetri Ts’q’aro","country":"GE","lat":41.54379,"lon":44.46181},{"name":"Tianeti","country":"GE","lat":42.10987,"lon":44.96784},{"name":"Tqvarch'eli","country":"GE","lat":42.84035,"lon":41.68007},{"name":"Ts’aghveri","country":"GE","lat":41.80365,"lon":43.48194},{"name":"Ts’alenjikha","country":"GE","lat":42.60857,"lon":42.06693},{"name":"Ts’alk’a","country":"GE","lat":41.59822,"lon":44.09112},{"name":"Ts’inandali","country":"GE","lat":41.89315,"lon":45.57129},{"name":"Ts’khinvali","country":"GE","lat":42.22764,"lon":43.96861},{"name":"Ts’nori","country":"GE","lat":41.618,"lon":45.979},{"name":"Ts’q’alt’ubo","country":"GE","lat":42.32858,"lon":42.59808},{"name":"Tsageri","country":"GE","lat":42.64534,"lon":42.76911},{"name":"Tsikhisdziri","country":"GE","lat":41.76659,"lon":41.75517},{"name":"Tsqnet’i","country":"GE","lat":41.69472,"lon":44.69861},{"name":"Urek’i","country":"GE","lat":41.99556,"lon":41.77861},{"name":"Vale","country":"GE","lat":41.61608,"lon":42.88112},{"name":"Vani","country":"GE","lat":42.08408,"lon":42.51189},{"name":"Zahesi","country":"GE","lat":41.82458,"lon":44.75361},{"name":"Zest’aponi","country":"GE","lat":42.10752,"lon":43.03291},{"name":"Zhinvali","country":"GE","lat":42.13181,"lon":44.77264},{"name":"Zugdidi","country":"GE","lat":42.5088,"lon":41.87088}]