[{"name":"Castel","country":"GG","lat":49.46757,"lon":-2.60015},{"name":"Saint Andrew","country":"GG","lat":49.44389,"lon":-2.58018},{"name":"Saint Peter Port","country":"GG","lat":49.45981,"lon":-2.53527},{"name":"Saint Sampson","country":"GG","lat":49.48389,"lon":-2.52333},{"name":"Saint Saviour","country":"GG","lat":49.45694,"lon":-2.63583},{"name":"St Anne","country":"GG","lat":49.71549,"lon":-2.20757},{"name":"St Martin","country":"GG","lat":49.43713,"lon":-2.55479},{"name":"Torteval","country":"GG","lat":49.43333,"lon":-2.65}]