[{"name":"Aboso","country":"GH","lat":5.36073,"lon":-1.94856},{"name":"Aburi","country":"GH","lat":5.84802,"lon":-0.17449},{"name":"Accra","country":"GH","lat":5.55602,"lon":-0.1969},{"name":"Adenta","country":"GH","lat":5.71417,"lon":-0.15418},{"name":"Aflao","country":"GH","lat":6.11982,"lon":1.19012},{"name":"Agogo","country":"GH","lat":6.80004,"lon":-1.08193},{"name":"Ahwiaa","country":"GH","lat":6.76051,"lon":-1.59402},{"name":"Ahwiaa","country":"GH","lat":6.90306,"lon":-1.65199},{"name":"Akatsi","country":"GH","lat":6.1316,"lon":0.79853},{"name":"Akim Oda","country":"GH","lat":5.92665,"lon":-0.98577},{"name":"Akim Swedru","country":"GH","lat":5.8938,"lon":-1.01636},{"name":"Akropong","country":"GH","lat":5.97462,"lon":-0.08542},{"name":"Akwatia","country":"GH","lat":6.04024,"lon":-0.80876},{"name":"Amanfrom","country":"GH","lat":5.53532,"lon":-0.39827},{"name":"Anloga","country":"GH","lat":5.79473,"lon":0.89728},{"name":"Apam","country":"GH","lat":5.285,"lon":-0.746},{"name":"Asamankese","country":"GH","lat":5.86006,"lon":-0.6635},{"name":"Ashaiman","country":"GH","lat":5.69951,"lon":-0.03484},{"name":"Assin Foso","country":"GH","lat":5.7,"lon":-1.65},{"name":"Atebubu","country":"GH","lat":7.75537,"lon":-0.98085},{"name":"Atsiaman","country":"GH","lat":5.69775,"lon":-0.32824},{"name":"Awoshi","country":"GH","lat":5.58385,"lon":-0.27787},{"name":"Bawku","country":"GH","lat":11.05926,"lon":-0.24249},{"name":"Bechem","country":"GH","lat":7.09034,"lon":-2.02498},{"name":"Begoro","country":"GH","lat":6.38706,"lon":-0.37738},{"name":"Bekwai","country":"GH","lat":6.45195,"lon":-1.57866},{"name":"Berekum","country":"GH","lat":7.4534,"lon":-2.58404},{"name":"Bibiani","country":"GH","lat":6.45196,"lon":-2.31635},{"name":"Bimbila","country":"GH","lat":8.85488,"lon":0.05922},{"name":"Bolgatanga","country":"GH","lat":10.78556,"lon":-0.85139},{"name":"Buduburam","country":"GH","lat":5.52314,"lon":-0.47718},{"name":"Cape Coast","country":"GH","lat":5.10535,"lon":-1.2466},{"name":"Dambai","country":"GH","lat":8.06616,"lon":0.17947},{"name":"Damongo","country":"GH","lat":9.08296,"lon":-1.81884},{"name":"Domaa-Ahenkro","country":"GH","lat":7.27386,"lon":-2.87348},{"name":"Dome","country":"GH","lat":5.65003,"lon":-0.2361},{"name":"Duayaw-Nkwanta","country":"GH","lat":7.17487,"lon":-2.09961},{"name":"Dunkwa","country":"GH","lat":5.95996,"lon":-1.77792},{"name":"Dzodze","country":"GH","lat":6.23669,"lon":0.99578},{"name":"Effiduase","country":"GH","lat":6.84684,"lon":-1.39612},{"name":"Ejura","country":"GH","lat":7.38558,"lon":-1.35617},{"name":"Elmina","country":"GH","lat":5.0847,"lon":-1.35093},{"name":"Elubo","country":"GH","lat":5.28515,"lon":-2.76658},{"name":"Esim","country":"GH","lat":4.86641,"lon":-2.24181},{"name":"Foso","country":"GH","lat":5.70119,"lon":-1.28657},{"name":"Gbawe","country":"GH","lat":5.57692,"lon":-0.31038},{"name":"Goaso","country":"GH","lat":6.80355,"lon":-2.5172},{"name":"Ho","country":"GH","lat":6.60084,"lon":0.4713},{"name":"Hohoe","country":"GH","lat":7.15181,"lon":0.47362},{"name":"Japekrom","country":"GH","lat":7.5758,"lon":-2.78516},{"name":"Kade","country":"GH","lat":6.09392,"lon":-0.83599},{"name":"Kasoa","country":"GH","lat":5.53449,"lon":-0.41679},{"name":"Keta","country":"GH","lat":5.91793,"lon":0.98789},{"name":"Kete Krachi","country":"GH","lat":7.79391,"lon":-0.0498},{"name":"Kibi","country":"GH","lat":6.16494,"lon":-0.55376},{"name":"Kintampo","country":"GH","lat":8.05627,"lon":-1.73058},{"name":"Koforidua","country":"GH","lat":6.09408,"lon":-0.25913},{"name":"Konongo","country":"GH","lat":6.61667,"lon":-1.21667},{"name":"Kpandae","country":"GH","lat":8.46885,"lon":-0.01127},{"name":"Kpandu","country":"GH","lat":6.99536,"lon":0.29306},{"name":"Kumasi","country":"GH","lat":6.68848,"lon":-1.62443},{"name":"Lashibi","country":"GH","lat":5.68476,"lon":-0.04011},{"name":"Mampong","country":"GH","lat":7.06273,"lon":-1.4001},{"name":"Mamponteng","country":"GH","lat":6.73333,"lon":-1.55},{"name":"Mandela","country":"GH","lat":5.55221,"lon":-0.33912},{"name":"Mankesim","country":"GH","lat":5.2717,"lon":-1.0152},{"name":"Medina Estates","country":"GH","lat":5.6658,"lon":-0.16307},{"name":"Mim","country":"GH","lat":6.90412,"lon":-2.56114},{"name":"Mpraeso","country":"GH","lat":6.59321,"lon":-0.73462},{"name":"Mumford","country":"GH","lat":5.26176,"lon":-0.75897},{"name":"Nalerigu","country":"GH","lat":10.52726,"lon":-0.36982},{"name":"Navrongo","country":"GH","lat":10.89469,"lon":-1.09083},{"name":"New Achimota","country":"GH","lat":5.62657,"lon":-0.25807},{"name":"New Tafo","country":"GH","lat":6.71897,"lon":-1.61188},{"name":"Nkawkaw","country":"GH","lat":6.54584,"lon":-0.76264},{"name":"Nkoranza","country":"GH","lat":7.57127,"lon":-1.7087},{"name":"Nsawam","country":"GH","lat":5.80893,"lon":-0.35026},{"name":"Nsoatre","country":"GH","lat":7.40353,"lon":-2.46635},{"name":"Nungua","country":"GH","lat":5.60105,"lon":-0.07713},{"name":"Obuase","country":"GH","lat":6.20228,"lon":-1.66796},{"name":"Odumase Krobo","country":"GH","lat":6.53333,"lon":-0.81667},{"name":"Osu","country":"GH","lat":5.55728,"lon":-0.1864},{"name":"Prestea","country":"GH","lat":5.43385,"lon":-2.14295},{"name":"Sakumona","country":"GH","lat":5.62135,"lon":-0.05193},{"name":"Salaga","country":"GH","lat":8.55083,"lon":-0.51875},{"name":"Saltpond","country":"GH","lat":5.20913,"lon":-1.06058},{"name":"Savelugu","country":"GH","lat":9.62376,"lon":-0.82705},{"name":"Sefwi","country":"GH","lat":6.52306,"lon":-1.63596},{"name":"Sefwi Wiawso","country":"GH","lat":6.20583,"lon":-2.48944},{"name":"Sekondi","country":"GH","lat":4.93422,"lon":-1.71454},{"name":"Sekondi-Takoradi","country":"GH","lat":4.92678,"lon":-1.75773},{"name":"Shama Junction","country":"GH","lat":5.01806,"lon":-1.66437},{"name":"Suhum","country":"GH","lat":6.04089,"lon":-0.45004},{"name":"Sunyani","country":"GH","lat":7.33991,"lon":-2.32676},{"name":"Swedru","country":"GH","lat":5.53711,"lon":-0.69984},{"name":"Tafo","country":"GH","lat":6.73156,"lon":-1.6137},{"name":"Taifa","country":"GH","lat":5.65825,"lon":-0.25223},{"name":"Takoradi","country":"GH","lat":4.89816,"lon":-1.76029},{"name":"Tamale","country":"GH","lat":9.40079,"lon":-0.8393},{"name":"Tarkwa","country":"GH","lat":5.30383,"lon":-1.98956},{"name":"Techiman","country":"GH","lat":7.59054,"lon":-1.93947},{"name":"Tema","country":"GH","lat":5.6698,"lon":-0.01657},{"name":"Tema New Town","country":"GH","lat":5.65396,"lon":0.0264},{"name":"Teshi Old Town","country":"GH","lat":5.58365,"lon":-0.10722},{"name":"Twifu Praso","country":"GH","lat":5.61411,"lon":-1.5502},{"name":"Wa","country":"GH","lat":10.06069,"lon":-2.50192},{"name":"Wankyi","country":"GH","lat":7.73855,"lon":-2.1036},{"name":"Wassa-Akropong","country":"GH","lat":5.78722,"lon":-2.08361},{"name":"Winneba","country":"GH","lat":5.35113,"lon":-0.62313},{"name":"Yegyi","country":"GH","lat":8.22542,"lon":-0.64889},{"name":"Yendi","country":"GH","lat":9.44272,"lon":-0.00991},{"name":"Zonno","country":"GH","lat":10.78442,"lon":-0.78449}]