[{"name":"Aasiaat","country":"GL","lat":68.70869,"lon":-52.86366},{"name":"Ilulissat","country":"GL","lat":69.21981,"lon":-51.09861},{"name":"Maniitsoq","country":"GL","lat":65.41506,"lon":-52.89822},{"name":"Nanortalik","country":"GL","lat":60.14169,"lon":-45.24069},{"name":"Narsaq","country":"GL","lat":60.91298,"lon":-46.05055},{"name":"Nuuk","country":"GL","lat":64.18347,"lon":-51.72157},{"name":"Paamiut","country":"GL","lat":61.99402,"lon":-49.66776},{"name":"Qaqortoq","country":"GL","lat":60.71839,"lon":-46.03561},{"name":"Qasigiannguit","country":"GL","lat":68.81926,"lon":-51.19221},{"name":"Sisimiut","country":"GL","lat":66.93946,"lon":-53.6735},{"name":"Tasiilaq","country":"GL","lat":65.61451,"lon":-37.63676},{"name":"Upernavik","country":"GL","lat":72.78358,"lon":-56.14933},{"name":"Uummannaq","country":"GL","lat":70.67442,"lon":-52.12545}]