[{"name":"Albadéria","country":"GN","lat":9.55,"lon":-10.1},{"name":"Banora","country":"GN","lat":11.6,"lon":-10.3},{"name":"Bate Nafadji","country":"GN","lat":10.66667,"lon":-9.26667},{"name":"Beyla","country":"GN","lat":8.69011,"lon":-8.64869},{"name":"Boffa","country":"GN","lat":10.16667,"lon":-14.03333},{"name":"Boké","country":"GN","lat":10.93217,"lon":-14.29055},{"name":"Camayenne","country":"GN","lat":9.535,"lon":-13.68778},{"name":"Conakry","country":"GN","lat":9.53795,"lon":-13.67729},{"name":"Coyah","country":"GN","lat":9.70643,"lon":-13.38465},{"name":"Dabola","country":"GN","lat":10.7433,"lon":-11.10778},{"name":"Dalaba","country":"GN","lat":10.69249,"lon":-12.24967},{"name":"Dialakoro","country":"GN","lat":11.4405,"lon":-8.8884},{"name":"Dinguiraye","country":"GN","lat":11.29062,"lon":-10.7121},{"name":"Diomabana","country":"GN","lat":11.26236,"lon":-9.13164},{"name":"Doko","country":"GN","lat":11.78333,"lon":-8.96667},{"name":"Dubréka","country":"GN","lat":9.79111,"lon":-13.52333},{"name":"Faranah","country":"GN","lat":10.04036,"lon":-10.74343},{"name":"Fidako","country":"GN","lat":12.10397,"lon":-9.175},{"name":"Forécariah","country":"GN","lat":9.43056,"lon":-13.08806},{"name":"Foula Mori","country":"GN","lat":12.16667,"lon":-13.85},{"name":"Fria","country":"GN","lat":10.36676,"lon":-13.58253},{"name":"Gaoual","country":"GN","lat":11.75,"lon":-13.2},{"name":"Gueckedou","country":"GN","lat":8.56744,"lon":-10.1336},{"name":"Kalinko","country":"GN","lat":11.11667,"lon":-11.18333},{"name":"Kamsar","country":"GN","lat":10.65,"lon":-14.61667},{"name":"Kankan","country":"GN","lat":10.38542,"lon":-9.30568},{"name":"Karfamoria","country":"GN","lat":10.41667,"lon":-9.26667},{"name":"Kérouané","country":"GN","lat":9.26667,"lon":-9.01667},{"name":"Kimbo","country":"GN","lat":10.4,"lon":-13.55},{"name":"Kindia","country":"GN","lat":10.05692,"lon":-12.86576},{"name":"Kintinian","country":"GN","lat":11.6,"lon":-9.38333},{"name":"Kissidougou","country":"GN","lat":9.1848,"lon":-10.09987},{"name":"Koubia","country":"GN","lat":11.58632,"lon":-11.89485},{"name":"Koumandjanbougou","country":"GN","lat":11.44658,"lon":-8.97546},{"name":"Koundara","country":"GN","lat":12.48333,"lon":-13.3},{"name":"Kouroussa","country":"GN","lat":10.65,"lon":-9.88333},{"name":"Labé","country":"GN","lat":11.31823,"lon":-12.28332},{"name":"Lansanaya","country":"GN","lat":11.38333,"lon":-10.88333},{"name":"Lélouma","country":"GN","lat":11.42383,"lon":-12.68183},{"name":"Lola","country":"GN","lat":7.8,"lon":-8.53333},{"name":"Macenta","country":"GN","lat":8.54351,"lon":-9.47099},{"name":"Mali","country":"GN","lat":12.079,"lon":-12.2982},{"name":"Mamou","country":"GN","lat":10.37546,"lon":-12.09148},{"name":"Mandiana","country":"GN","lat":10.62577,"lon":-8.69413},{"name":"Manéah","country":"GN","lat":9.73333,"lon":-13.41667},{"name":"Mignada","country":"GN","lat":11.63353,"lon":-9.63254},{"name":"Moussadou","country":"GN","lat":8.76667,"lon":-8.61667},{"name":"Nabou","country":"GN","lat":11.98333,"lon":-9.53333},{"name":"Niandan Koro","country":"GN","lat":11.08333,"lon":-9.25},{"name":"Norassouba","country":"GN","lat":10.91667,"lon":-9.48333},{"name":"Nyagassola","country":"GN","lat":12.31667,"lon":-9.11667},{"name":"Nzérékoré","country":"GN","lat":7.75624,"lon":-8.8179},{"name":"Pita","country":"GN","lat":11.05915,"lon":-12.39498},{"name":"Samoé","country":"GN","lat":7.80528,"lon":-8.8675},{"name":"Sangarédi","country":"GN","lat":11.1,"lon":-13.76667},{"name":"Sanguéya","country":"GN","lat":10.7,"lon":-14.36667},{"name":"Sansando","country":"GN","lat":11.08333,"lon":-9.2},{"name":"Siguiri","country":"GN","lat":11.42282,"lon":-9.16852},{"name":"Siguirini","country":"GN","lat":11.8288,"lon":-10.04548},{"name":"Télimélé","country":"GN","lat":10.9,"lon":-13.03333},{"name":"Tokonou","country":"GN","lat":9.65,"lon":-9.78333},{"name":"Tomba-kanssa","country":"GN","lat":11.72321,"lon":-10.18899},{"name":"Tondon","country":"GN","lat":10.36667,"lon":-13.35},{"name":"Touba","country":"GN","lat":11.6,"lon":-13.03333},{"name":"Tougué","country":"GN","lat":11.44503,"lon":-11.66422},{"name":"Yomou","country":"GN","lat":7.56748,"lon":-9.26283},{"name":"Youkounkoun","country":"GN","lat":12.5311,"lon":-13.1224}]