[{"name":"Anse-Bertrand","country":"GP","lat":16.47239,"lon":-61.50739},{"name":"Baie-Mahault","country":"GP","lat":16.26738,"lon":-61.58543},{"name":"Baillif","country":"GP","lat":16.02037,"lon":-61.74611},{"name":"Basse-Terre","country":"GP","lat":15.99714,"lon":-61.73214},{"name":"Beauséjour","country":"GP","lat":16.30413,"lon":-61.07375},{"name":"Bouillante","country":"GP","lat":16.13043,"lon":-61.76895},{"name":"Capesterre-Belle-Eau","country":"GP","lat":16.04495,"lon":-61.56425},{"name":"Gourbeyre","country":"GP","lat":15.99454,"lon":-61.69203},{"name":"Grand-Bourg","country":"GP","lat":15.88402,"lon":-61.3148},{"name":"Lamentin","country":"GP","lat":16.27047,"lon":-61.63166},{"name":"Le Gosier","country":"GP","lat":16.20618,"lon":-61.49306},{"name":"Le Moule","country":"GP","lat":16.33164,"lon":-61.34656},{"name":"Les Abymes","country":"GP","lat":16.273,"lon":-61.50507},{"name":"Petit-Bourg","country":"GP","lat":16.19163,"lon":-61.5914},{"name":"Petit-Canal","country":"GP","lat":16.37913,"lon":-61.48716},{"name":"Petites Anses","country":"GP","lat":15.84993,"lon":-61.64457},{"name":"Pointe-à-Pitre","country":"GP","lat":16.23638,"lon":-61.53459},{"name":"Pointe-Noire","country":"GP","lat":16.23218,"lon":-61.78917},{"name":"Port-Louis","country":"GP","lat":16.41749,"lon":-61.53045},{"name":"Saint-Claude","country":"GP","lat":16.02515,"lon":-61.69975},{"name":"Saint-François","country":"GP","lat":16.25236,"lon":-61.27332},{"name":"Sainte-Anne","country":"GP","lat":16.22564,"lon":-61.38098},{"name":"Sainte-Rose","country":"GP","lat":16.33264,"lon":-61.6969},{"name":"Trois-Rivières","country":"GP","lat":15.97595,"lon":-61.64492},{"name":"Vieux-Habitants","country":"GP","lat":16.05866,"lon":-61.76667}]