[{"name":"Acatenango","country":"GT","lat":14.55451,"lon":-90.94368},{"name":"Agua Blanca","country":"GT","lat":14.49805,"lon":-89.64961},{"name":"Aguacatán","country":"GT","lat":15.34222,"lon":-91.31141},{"name":"Almolonga","country":"GT","lat":14.81591,"lon":-91.49464},{"name":"Alotenango","country":"GT","lat":14.48585,"lon":-90.80437},{"name":"Amatitlán","country":"GT","lat":14.4774,"lon":-90.63489},{"name":"Antigua Guatemala","country":"GT","lat":14.56111,"lon":-90.73444},{"name":"Asunción Mita","country":"GT","lat":14.33365,"lon":-89.71094},{"name":"Atescatempa","country":"GT","lat":14.1755,"lon":-89.74184},{"name":"Barberena","country":"GT","lat":14.30739,"lon":-90.36156},{"name":"Barillas","country":"GT","lat":15.80361,"lon":-91.31583},{"name":"Cabañas","country":"GT","lat":14.93333,"lon":-89.8},{"name":"Cabricán","country":"GT","lat":15.07485,"lon":-91.648},{"name":"Cahabón","country":"GT","lat":15.60662,"lon":-89.81172},{"name":"Cajolá","country":"GT","lat":14.92205,"lon":-91.61478},{"name":"Camotán","country":"GT","lat":14.82017,"lon":-89.37224},{"name":"Canillá","country":"GT","lat":15.16549,"lon":-90.85256},{"name":"Cantel","country":"GT","lat":14.81154,"lon":-91.45536},{"name":"Casillas","country":"GT","lat":14.41915,"lon":-90.24328},{"name":"Catarina","country":"GT","lat":14.85354,"lon":-92.07682},{"name":"Chahal","country":"GT","lat":15.79122,"lon":-89.60518},{"name":"Chajul","country":"GT","lat":15.48523,"lon":-91.0352},{"name":"Champerico","country":"GT","lat":14.29206,"lon":-91.91339},{"name":"Chiantla","country":"GT","lat":15.35484,"lon":-91.45807},{"name":"Chicacao","country":"GT","lat":14.54295,"lon":-91.32636},{"name":"Chicamán","country":"GT","lat":15.34786,"lon":-90.79968},{"name":"Chiché","country":"GT","lat":15.00885,"lon":-91.06379},{"name":"Chichicastenango","country":"GT","lat":14.94333,"lon":-91.11116},{"name":"Chimaltenango","country":"GT","lat":14.66111,"lon":-90.81944},{"name":"Chinautla","country":"GT","lat":14.70289,"lon":-90.49983},{"name":"Chinique","country":"GT","lat":15.04147,"lon":-91.02594},{"name":"Chiquimula","country":"GT","lat":14.8,"lon":-89.54583},{"name":"Chiquimulilla","country":"GT","lat":14.0838,"lon":-90.38547},{"name":"Chisec","country":"GT","lat":15.81311,"lon":-90.28896},{"name":"Chuarrancho","country":"GT","lat":14.81794,"lon":-90.51568},{"name":"Ciudad Tecún Umán","country":"GT","lat":14.67737,"lon":-92.14039},{"name":"Ciudad Vieja","country":"GT","lat":14.52396,"lon":-90.76308},{"name":"Coatepeque","country":"GT","lat":14.70413,"lon":-91.86426},{"name":"Cobán","country":"GT","lat":15.47083,"lon":-90.37083},{"name":"Colomba","country":"GT","lat":14.7073,"lon":-91.73167},{"name":"Colotenango","country":"GT","lat":15.40602,"lon":-91.71267},{"name":"Comalapa","country":"GT","lat":14.74086,"lon":-90.88761},{"name":"Comapa","country":"GT","lat":14.11282,"lon":-89.91471},{"name":"Comitancillo","country":"GT","lat":15.08937,"lon":-91.74971},{"name":"Concepción","country":"GT","lat":14.78417,"lon":-91.14754},{"name":"Concepción Chiquirichapa","country":"GT","lat":14.8551,"lon":-91.6236},{"name":"Concepción Huista","country":"GT","lat":15.62378,"lon":-91.66521},{"name":"Concepción Las Minas","country":"GT","lat":14.52173,"lon":-89.45717},{"name":"Concepción Tutuapa","country":"GT","lat":15.2394,"lon":-91.8446},{"name":"Conguaco","country":"GT","lat":14.04417,"lon":-90.03111},{"name":"Cubulco","country":"GT","lat":15.10452,"lon":-90.62871},{"name":"Cuilapa","country":"GT","lat":14.27639,"lon":-90.29889},{"name":"Cuilco","country":"GT","lat":15.40719,"lon":-91.94667},{"name":"Cunén","country":"GT","lat":15.33626,"lon":-91.02776},{"name":"Cuyotenango","country":"GT","lat":14.54006,"lon":-91.57179},{"name":"Dolores","country":"GT","lat":16.51178,"lon":-89.41704},{"name":"El Adelanto","country":"GT","lat":14.17102,"lon":-89.82715},{"name":"El Asintal","country":"GT","lat":14.59626,"lon":-91.72744},{"name":"El Chal","country":"GT","lat":16.64255,"lon":-89.65291},{"name":"El Chol","country":"GT","lat":14.96055,"lon":-90.48799},{"name":"El Estor","country":"GT","lat":15.53221,"lon":-89.33111},{"name":"El Jícaro","country":"GT","lat":14.91333,"lon":-89.89654},{"name":"El Palmar","country":"GT","lat":14.65083,"lon":-91.578},{"name":"El Progreso","country":"GT","lat":14.35604,"lon":-89.84854},{"name":"El Quetzal","country":"GT","lat":14.76865,"lon":-91.81757},{"name":"El Rodeo","country":"GT","lat":14.91447,"lon":-91.97631},{"name":"El Tejar","country":"GT","lat":14.64683,"lon":-90.79122},{"name":"El Tumbador","country":"GT","lat":14.86375,"lon":-91.93416},{"name":"Escuintla","country":"GT","lat":14.3009,"lon":-90.78581},{"name":"Esquipulas","country":"GT","lat":14.56571,"lon":-89.35166},{"name":"Esquipulas Palo Gordo","country":"GT","lat":14.94135,"lon":-91.82564},{"name":"Estanzuela","country":"GT","lat":14.99777,"lon":-89.57285},{"name":"Flores","country":"GT","lat":16.92258,"lon":-89.89941},{"name":"Flores Costa Cuca","country":"GT","lat":14.63238,"lon":-91.86341},{"name":"Fraijanes","country":"GT","lat":14.46528,"lon":-90.44083},{"name":"Fray Bartolomé de Las Casas","country":"GT","lat":15.8051,"lon":-89.8605},{"name":"Génova","country":"GT","lat":14.62216,"lon":-91.8358},{"name":"Granados","country":"GT","lat":14.91649,"lon":-90.52292},{"name":"Gualán","country":"GT","lat":15.11952,"lon":-89.35721},{"name":"Guanagazapa","country":"GT","lat":14.22598,"lon":-90.64332},{"name":"Guastatoya","country":"GT","lat":14.85417,"lon":-90.06944},{"name":"Guatemala City","country":"GT","lat":14.64072,"lon":-90.51327},{"name":"Guazacapán","country":"GT","lat":14.07417,"lon":-90.41667},{"name":"Huehuetenango","country":"GT","lat":15.31918,"lon":-91.47241},{"name":"Huitán","country":"GT","lat":15.0492,"lon":-91.63944},{"name":"Huité","country":"GT","lat":14.92786,"lon":-89.71627},{"name":"Ipala","country":"GT","lat":14.61987,"lon":-89.6194},{"name":"Ixchiguán","country":"GT","lat":15.16375,"lon":-91.93256},{"name":"Ixtahuacán","country":"GT","lat":15.41688,"lon":-91.76927},{"name":"Iztapa","country":"GT","lat":13.93333,"lon":-90.7075},{"name":"Jacaltenango","country":"GT","lat":15.66662,"lon":-91.71177},{"name":"Jalapa","country":"GT","lat":14.63472,"lon":-89.98889},{"name":"Jalpatagua","country":"GT","lat":14.1369,"lon":-90.00908},{"name":"Jerez","country":"GT","lat":14.09083,"lon":-89.7511},{"name":"Jocotán","country":"GT","lat":14.82072,"lon":-89.38991},{"name":"Jocotenango","country":"GT","lat":14.57814,"lon":-90.73804},{"name":"Joyabaj","country":"GT","lat":14.99311,"lon":-90.80161},{"name":"Jutiapa","country":"GT","lat":14.29167,"lon":-89.89583},{"name":"La Blanca","country":"GT","lat":14.57889,"lon":-92.14137},{"name":"La Democracia","country":"GT","lat":14.22919,"lon":-90.94806},{"name":"La Democracia","country":"GT","lat":15.62544,"lon":-91.8867},{"name":"La Esperanza","country":"GT","lat":14.87169,"lon":-91.5614},{"name":"La Gomera","country":"GT","lat":14.08213,"lon":-91.05383},{"name":"La Libertad","country":"GT","lat":16.7885,"lon":-90.11698},{"name":"La Libertad","country":"GT","lat":15.51421,"lon":-91.86944},{"name":"La Máquina","country":"GT","lat":14.30189,"lon":-91.56703},{"name":"La Reforma","country":"GT","lat":14.80104,"lon":-91.82233},{"name":"La Tinta","country":"GT","lat":15.31667,"lon":-89.88333},{"name":"La Unión","country":"GT","lat":14.96656,"lon":-89.29023},{"name":"Lanquín","country":"GT","lat":15.57568,"lon":-89.98078},{"name":"Lívingston","country":"GT","lat":15.82826,"lon":-88.75039},{"name":"Los Amates","country":"GT","lat":15.25645,"lon":-89.09723},{"name":"Magdalena Milpas Altas","country":"GT","lat":14.54801,"lon":-90.67477},{"name":"Malacatán","country":"GT","lat":14.91132,"lon":-92.05788},{"name":"Malacatancito","country":"GT","lat":15.24457,"lon":-91.49901},{"name":"Masagua","country":"GT","lat":14.20306,"lon":-90.84806},{"name":"Mataquescuintla","country":"GT","lat":14.52917,"lon":-90.18417},{"name":"Mazatenango","country":"GT","lat":14.53417,"lon":-91.50333},{"name":"Melchor de Mencos","country":"GT","lat":17.06606,"lon":-89.15229},{"name":"Mixco","country":"GT","lat":14.63077,"lon":-90.60711},{"name":"Momostenango","country":"GT","lat":15.04437,"lon":-91.40864},{"name":"Monjas","country":"GT","lat":14.50309,"lon":-89.87246},{"name":"Morales","country":"GT","lat":15.47225,"lon":-88.8407},{"name":"Morazán","country":"GT","lat":14.93278,"lon":-90.14306},{"name":"Moyuta","country":"GT","lat":14.03861,"lon":-90.08083},{"name":"Nahualá","country":"GT","lat":14.8429,"lon":-91.31799},{"name":"Nebaj","country":"GT","lat":15.40614,"lon":-91.14682},{"name":"Nentón","country":"GT","lat":15.80113,"lon":-91.75423},{"name":"Nueva Concepción","country":"GT","lat":14.2,"lon":-91.3},{"name":"Nueva Santa Rosa","country":"GT","lat":14.38111,"lon":-90.27611},{"name":"Nuevo León","country":"GT","lat":15.79369,"lon":-91.09237},{"name":"Nuevo Progreso","country":"GT","lat":14.79174,"lon":-91.91946},{"name":"Nuevo San Carlos","country":"GT","lat":14.593,"lon":-91.6939},{"name":"Ocós","country":"GT","lat":14.50998,"lon":-92.19298},{"name":"Olintepeque","country":"GT","lat":14.88605,"lon":-91.51472},{"name":"Olopa","country":"GT","lat":14.69229,"lon":-89.35003},{"name":"Oratorio","country":"GT","lat":14.22806,"lon":-90.17583},{"name":"Ostuncalco","country":"GT","lat":14.86899,"lon":-91.62137},{"name":"Pachalum","country":"GT","lat":14.92472,"lon":-90.66278},{"name":"Pajapita","country":"GT","lat":14.72152,"lon":-92.03521},{"name":"Palencia","country":"GT","lat":14.66715,"lon":-90.35721},{"name":"Palestina de los Altos","country":"GT","lat":14.93338,"lon":-91.69403},{"name":"Palín","country":"GT","lat":14.40358,"lon":-90.69659},{"name":"Panajachel","country":"GT","lat":14.74185,"lon":-91.15676},{"name":"Panzos","country":"GT","lat":15.39862,"lon":-89.64147},{"name":"Parramos","country":"GT","lat":14.60891,"lon":-90.80303},{"name":"Pasaco","country":"GT","lat":13.97722,"lon":-90.20639},{"name":"Pastores","country":"GT","lat":14.59433,"lon":-90.75473},{"name":"Patulul","country":"GT","lat":14.42321,"lon":-91.16049},{"name":"Patzicía","country":"GT","lat":14.63194,"lon":-90.92659},{"name":"Patzité","country":"GT","lat":14.96426,"lon":-91.20788},{"name":"Patzún","country":"GT","lat":14.68189,"lon":-91.01397},{"name":"Petapa","country":"GT","lat":14.50189,"lon":-90.56196},{"name":"Playa Grande","country":"GT","lat":15.9855,"lon":-90.77292},{"name":"Pochuta","country":"GT","lat":14.5445,"lon":-91.08904},{"name":"Poptún","country":"GT","lat":16.33111,"lon":-89.41694},{"name":"Pueblo Nuevo","country":"GT","lat":14.64709,"lon":-91.53946},{"name":"Pueblo Nuevo Viñas","country":"GT","lat":14.22576,"lon":-90.47613},{"name":"Puerto Barrios","country":"GT","lat":15.72778,"lon":-88.59444},{"name":"Puerto San José","country":"GT","lat":13.92216,"lon":-90.81906},{"name":"Purulhá","country":"GT","lat":15.23566,"lon":-90.23571},{"name":"Quesada","country":"GT","lat":14.27028,"lon":-90.04028},{"name":"Quetzaltenango","country":"GT","lat":14.83472,"lon":-91.51806},{"name":"Quezaltepeque","country":"GT","lat":14.63553,"lon":-89.44241},{"name":"Rabinal","country":"GT","lat":15.0853,"lon":-90.49255},{"name":"Raxruhá","country":"GT","lat":15.86587,"lon":-90.04061},{"name":"Retalhuleu","country":"GT","lat":14.53611,"lon":-91.67778},{"name":"Río Blanco","country":"GT","lat":15.0382,"lon":-91.68463},{"name":"Río Bravo","country":"GT","lat":14.40042,"lon":-91.31713},{"name":"Río Hondo","country":"GT","lat":15.04505,"lon":-89.58523},{"name":"Sacapulas","country":"GT","lat":15.28801,"lon":-91.08914},{"name":"Salamá","country":"GT","lat":15.10278,"lon":-90.31806},{"name":"Salcajá","country":"GT","lat":14.87964,"lon":-91.45699},{"name":"Samayac","country":"GT","lat":14.58084,"lon":-91.46135},{"name":"San Agustín Acasaguastlán","country":"GT","lat":14.945,"lon":-89.96967},{"name":"San Andrés","country":"GT","lat":16.96863,"lon":-89.91181},{"name":"San Andrés Itzapa","country":"GT","lat":14.62222,"lon":-90.84314},{"name":"San Andrés Sajcabajá","country":"GT","lat":15.17603,"lon":-90.9422},{"name":"San Andrés Semetabaj","country":"GT","lat":14.74497,"lon":-91.13344},{"name":"San Andrés Villa Seca","country":"GT","lat":14.57801,"lon":-91.58539},{"name":"San Andrés Xecul","country":"GT","lat":14.90482,"lon":-91.48307},{"name":"San Antonio Aguas Calientes","country":"GT","lat":14.54676,"lon":-90.78054},{"name":"San Antonio Huista","country":"GT","lat":15.6501,"lon":-91.77163},{"name":"San Antonio Ilotenango","country":"GT","lat":15.05472,"lon":-91.22986},{"name":"San Antonio La Paz","country":"GT","lat":14.75888,"lon":-90.28485},{"name":"San Antonio Palopó","country":"GT","lat":14.69232,"lon":-91.11638},{"name":"San Antonio Sacatepéquez","country":"GT","lat":14.9606,"lon":-91.73154},{"name":"San Antonio Suchitepéquez","country":"GT","lat":14.53938,"lon":-91.41442},{"name":"San Bartolo","country":"GT","lat":15.08438,"lon":-91.45606},{"name":"San Bartolomé Jocotenango","country":"GT","lat":15.19153,"lon":-91.07806},{"name":"San Bartolomé Milpas Altas","country":"GT","lat":14.6069,"lon":-90.67807},{"name":"San Benito","country":"GT","lat":16.91675,"lon":-89.91898},{"name":"San Bernardino","country":"GT","lat":14.5424,"lon":-91.45811},{"name":"San Carlos Alzatate","country":"GT","lat":14.49778,"lon":-90.06028},{"name":"San Carlos Sija","country":"GT","lat":14.98436,"lon":-91.54912},{"name":"San Cristóbal Acasaguastlán","country":"GT","lat":14.92485,"lon":-89.87427},{"name":"San Cristóbal Cucho","country":"GT","lat":14.90505,"lon":-91.78123},{"name":"San Cristóbal Totonicapán","country":"GT","lat":14.91682,"lon":-91.4406},{"name":"San Cristóbal Verapaz","country":"GT","lat":15.36663,"lon":-90.47825},{"name":"San Diego","country":"GT","lat":14.78979,"lon":-89.77639},{"name":"San Felipe","country":"GT","lat":14.62304,"lon":-91.595},{"name":"San Francisco","country":"GT","lat":16.7978,"lon":-89.93507},{"name":"San Francisco El Alto","country":"GT","lat":14.9449,"lon":-91.4431},{"name":"San Francisco la Unión","country":"GT","lat":14.9235,"lon":-91.54157},{"name":"San Francisco Zapotitlán","country":"GT","lat":14.58939,"lon":-91.52144},{"name":"San Gabriel","country":"GT","lat":14.51076,"lon":-91.50745},{"name":"San Gaspar Ixchil","country":"GT","lat":15.38796,"lon":-91.72564},{"name":"San Jacinto","country":"GT","lat":14.67687,"lon":-89.50272},{"name":"San Jerónimo","country":"GT","lat":15.06032,"lon":-90.2405},{"name":"San Jorge","country":"GT","lat":14.92588,"lon":-89.58875},{"name":"San José","country":"GT","lat":16.98333,"lon":-89.9},{"name":"San José Acatempa","country":"GT","lat":14.26528,"lon":-90.12694},{"name":"San José Chacayá","country":"GT","lat":14.77096,"lon":-91.21564},{"name":"San José del Golfo","country":"GT","lat":14.76414,"lon":-90.37228},{"name":"San José El Ídolo","country":"GT","lat":14.45016,"lon":-91.42222},{"name":"San José La Arada","country":"GT","lat":14.72266,"lon":-89.58599},{"name":"San José Ojetenam","country":"GT","lat":15.23443,"lon":-91.97317},{"name":"San José Ojetenán","country":"GT","lat":15.21667,"lon":-91.96667},{"name":"San José Pinula","country":"GT","lat":14.546,"lon":-90.41288},{"name":"San José Poaquil","country":"GT","lat":14.81808,"lon":-90.91248},{"name":"San Juan Atitán","country":"GT","lat":15.42886,"lon":-91.62398},{"name":"San Juan Bautista","country":"GT","lat":14.42274,"lon":-91.17904},{"name":"San Juan Chamelco","country":"GT","lat":15.42433,"lon":-90.33044},{"name":"San Juan Cotzal","country":"GT","lat":15.43368,"lon":-91.03481},{"name":"San Juan Ermita","country":"GT","lat":14.76471,"lon":-89.43014},{"name":"San Juan Ixcoy","country":"GT","lat":15.60022,"lon":-91.44639},{"name":"San Juan La Laguna","country":"GT","lat":14.69453,"lon":-91.28666},{"name":"San Juan Ostuncalco","country":"GT","lat":14.87328,"lon":-91.6897},{"name":"San Juan Sacatepéquez","country":"GT","lat":14.71889,"lon":-90.64417},{"name":"San Juan Tecuaco","country":"GT","lat":14.08361,"lon":-90.26649},{"name":"San Lorenzo","country":"GT","lat":15.03087,"lon":-91.73534},{"name":"San Lorenzo","country":"GT","lat":14.48606,"lon":-91.51263},{"name":"San Lucas Sacatepéquez","country":"GT","lat":14.61075,"lon":-90.65681},{"name":"San Lucas Tolimán","country":"GT","lat":14.59471,"lon":-91.14659},{"name":"San Luis","country":"GT","lat":16.19889,"lon":-89.44028},{"name":"San Luis Jilotepeque","country":"GT","lat":14.64724,"lon":-89.72463},{"name":"San Manuel Chaparrón","country":"GT","lat":14.51987,"lon":-89.76917},{"name":"San Marcos","country":"GT","lat":14.96389,"lon":-91.79444},{"name":"San Marcos La Laguna","country":"GT","lat":14.72504,"lon":-91.25844},{"name":"San Martín Jilotepeque","country":"GT","lat":14.78008,"lon":-90.79259},{"name":"San Martín Sacatepéquez","country":"GT","lat":14.82443,"lon":-91.64192},{"name":"San Martín Zapotitlán","country":"GT","lat":14.60794,"lon":-91.60613},{"name":"San Mateo","country":"GT","lat":14.858,"lon":-91.59004},{"name":"San Mateo Ixtatán","country":"GT","lat":15.83194,"lon":-91.47806},{"name":"San Miguel Acatán","country":"GT","lat":15.70401,"lon":-91.59771},{"name":"San Miguel Chicaj","country":"GT","lat":15.09472,"lon":-90.39442},{"name":"San Miguel Dueñas","country":"GT","lat":14.52241,"lon":-90.79938},{"name":"San Miguel Ixtahuacán","country":"GT","lat":15.27247,"lon":-91.74785},{"name":"San Miguel Panán","country":"GT","lat":14.52865,"lon":-91.36733},{"name":"San Miguel Sigüilá","country":"GT","lat":14.89547,"lon":-91.61457},{"name":"San Pablo","country":"GT","lat":14.93269,"lon":-92.00415},{"name":"San Pablo Jocopilas","country":"GT","lat":14.58882,"lon":-91.45188},{"name":"San Pablo La Laguna","country":"GT","lat":14.72092,"lon":-91.27242},{"name":"San Pedro Ayampuc","country":"GT","lat":14.77943,"lon":-90.45318},{"name":"San Pedro Carchá","country":"GT","lat":15.47745,"lon":-90.31105},{"name":"San Pédro Jocopilas","country":"GT","lat":15.09525,"lon":-91.15135},{"name":"San Pedro La Laguna","country":"GT","lat":14.69297,"lon":-91.27201},{"name":"San Pedro Necta","country":"GT","lat":15.49142,"lon":-91.76551},{"name":"San Pedro Pinula","country":"GT","lat":14.66349,"lon":-89.84625},{"name":"San Pedro Sacatepéquez","country":"GT","lat":14.96807,"lon":-91.76172},{"name":"San Pedro Sacatepéquez","country":"GT","lat":14.68612,"lon":-90.64253},{"name":"San Rafael La Independencia","country":"GT","lat":15.7015,"lon":-91.53553},{"name":"San Rafael Las Flores","country":"GT","lat":14.47604,"lon":-90.17855},{"name":"San Rafael Petzal","country":"GT","lat":15.40487,"lon":-91.66451},{"name":"San Rafael Pie de la Cuesta","country":"GT","lat":14.93052,"lon":-91.91388},{"name":"San Raimundo","country":"GT","lat":14.76462,"lon":-90.59493},{"name":"San Sebastián","country":"GT","lat":14.56177,"lon":-91.64865},{"name":"San Sebastián Coatán","country":"GT","lat":15.73584,"lon":-91.56285},{"name":"San Sebastián Huehuetenango","country":"GT","lat":15.38768,"lon":-91.6153},{"name":"San Vicente Pacaya","country":"GT","lat":14.41466,"lon":-90.63613},{"name":"Sanarate","country":"GT","lat":14.78828,"lon":-90.19876},{"name":"Sansare","country":"GT","lat":14.74572,"lon":-90.11615},{"name":"Santa Ana","country":"GT","lat":16.80582,"lon":-89.82708},{"name":"Santa Ana Huista","country":"GT","lat":15.68085,"lon":-91.82005},{"name":"Santa Apolonia","country":"GT","lat":14.79049,"lon":-90.97267},{"name":"Santa Bárbara","country":"GT","lat":15.31617,"lon":-91.63279},{"name":"Santa Bárbara","country":"GT","lat":14.43563,"lon":-91.22685},{"name":"Santa Catarina Barahona","country":"GT","lat":14.55135,"lon":-90.78598},{"name":"Santa Catarina Ixtahuacán","country":"GT","lat":14.79797,"lon":-91.35866},{"name":"Santa Catarina Mita","country":"GT","lat":14.45131,"lon":-89.74285},{"name":"Santa Catarina Palopó","country":"GT","lat":14.72335,"lon":-91.13428},{"name":"Santa Catarina Pinula","country":"GT","lat":14.57047,"lon":-90.49925},{"name":"Santa Clara La Laguna","country":"GT","lat":14.71509,"lon":-91.30355},{"name":"Santa Cruz Balanyá","country":"GT","lat":14.68522,"lon":-90.91906},{"name":"Santa Cruz del Quiché","country":"GT","lat":15.03085,"lon":-91.14871},{"name":"Santa Cruz La Laguna","country":"GT","lat":14.74421,"lon":-91.20716},{"name":"Santa Cruz Muluá","country":"GT","lat":14.58153,"lon":-91.62441},{"name":"Santa Cruz Naranjo","country":"GT","lat":14.38806,"lon":-90.36972},{"name":"Santa Cruz Verapaz","country":"GT","lat":15.37342,"lon":-90.42857},{"name":"Santa Eulalia","country":"GT","lat":15.7306,"lon":-91.45846},{"name":"Santa Lucía Cotzumalguapa","country":"GT","lat":14.33505,"lon":-91.02339},{"name":"Santa Lucia La Reforma","country":"GT","lat":15.12819,"lon":-91.23619},{"name":"Santa Lucía Milpas Altas","country":"GT","lat":14.57655,"lon":-90.67632},{"name":"Santa Lucía Utatlán","country":"GT","lat":14.77135,"lon":-91.267},{"name":"Santa María Chiquimula","country":"GT","lat":15.02992,"lon":-91.3292},{"name":"Santa María de Jesús","country":"GT","lat":14.49452,"lon":-90.71036},{"name":"Santa María Ixhuatán","country":"GT","lat":14.19,"lon":-90.27472},{"name":"Santa María Visitación","country":"GT","lat":14.71717,"lon":-91.30844},{"name":"Santa Rosa de Lima","country":"GT","lat":14.38806,"lon":-90.29556},{"name":"Santiago Atitlán","country":"GT","lat":14.63823,"lon":-91.22901},{"name":"Santiago Chimaltenango","country":"GT","lat":15.47658,"lon":-91.69656},{"name":"Santiago Sacatepéquez","country":"GT","lat":14.6351,"lon":-90.67654},{"name":"Santo Domingo Suchitepéquez","country":"GT","lat":14.47901,"lon":-91.48327},{"name":"Santo Domingo Xenacoj","country":"GT","lat":14.68057,"lon":-90.70012},{"name":"Santo Tomás La Unión","country":"GT","lat":14.63219,"lon":-91.41075},{"name":"Sayaxché","country":"GT","lat":16.52446,"lon":-90.18801},{"name":"Senahú","country":"GT","lat":15.4164,"lon":-89.82215},{"name":"Sibilia","country":"GT","lat":14.99391,"lon":-91.62371},{"name":"Sibinal","country":"GT","lat":15.14963,"lon":-92.04892},{"name":"Sipacapa","country":"GT","lat":15.21246,"lon":-91.63416},{"name":"Siquinalá","country":"GT","lat":14.30679,"lon":-90.96709},{"name":"Sololá","country":"GT","lat":14.77222,"lon":-91.18333},{"name":"Soloma","country":"GT","lat":15.65841,"lon":-91.42994},{"name":"Sumpango","country":"GT","lat":14.64623,"lon":-90.73427},{"name":"Tacaná","country":"GT","lat":15.24058,"lon":-92.06721},{"name":"Tactic","country":"GT","lat":15.32218,"lon":-90.35448},{"name":"Tajumulco","country":"GT","lat":15.08349,"lon":-91.92225},{"name":"Tamahú","country":"GT","lat":15.3089,"lon":-90.23599},{"name":"Taxisco","country":"GT","lat":14.06719,"lon":-90.46791},{"name":"Tecpán Guatemala","country":"GT","lat":14.76181,"lon":-90.99247},{"name":"Tectitán","country":"GT","lat":15.3063,"lon":-92.06051},{"name":"Teculután","country":"GT","lat":14.98901,"lon":-89.71936},{"name":"Tejutla","country":"GT","lat":15.12254,"lon":-91.80635},{"name":"Tiquisate","country":"GT","lat":14.28356,"lon":-91.36063},{"name":"Todos Santos Cuchumatán","country":"GT","lat":15.50846,"lon":-91.60382},{"name":"Totonicapán","country":"GT","lat":14.91167,"lon":-91.36111},{"name":"Tucurú","country":"GT","lat":15.29402,"lon":-90.11916},{"name":"Unión","country":"GT","lat":15.92176,"lon":-91.77647},{"name":"Uspantán","country":"GT","lat":15.34672,"lon":-90.8705},{"name":"Usumatlán","country":"GT","lat":14.94779,"lon":-89.77712},{"name":"Villa Canales","country":"GT","lat":14.48285,"lon":-90.53425},{"name":"Villa Nueva","country":"GT","lat":14.52512,"lon":-90.58544},{"name":"Yepocapa","country":"GT","lat":14.50195,"lon":-90.95396},{"name":"Yupiltepeque","country":"GT","lat":14.19705,"lon":-89.79262},{"name":"Zacapa","country":"GT","lat":14.97222,"lon":-89.53056},{"name":"Zacualpa","country":"GT","lat":15.02681,"lon":-90.87815},{"name":"Zapotitlán","country":"GT","lat":14.13917,"lon":-89.82628},{"name":"Zaragoza","country":"GT","lat":14.64968,"lon":-90.89034},{"name":"Zunil","country":"GT","lat":14.78463,"lon":-91.48345},{"name":"Zunilito","country":"GT","lat":14.61264,"lon":-91.5098}]