[{"name":"Bafatá","country":"GW","lat":12.16583,"lon":-14.66167},{"name":"Bambadinca","country":"GW","lat":12.02342,"lon":-14.86119},{"name":"Bissau","country":"GW","lat":11.86357,"lon":-15.59767},{"name":"Bissorã","country":"GW","lat":12.22306,"lon":-15.4475},{"name":"Bolama","country":"GW","lat":11.57694,"lon":-15.47611},{"name":"Buba","country":"GW","lat":11.58889,"lon":-14.99583},{"name":"Bubaque","country":"GW","lat":11.28333,"lon":-15.83333},{"name":"Bula","country":"GW","lat":12.10389,"lon":-15.70806},{"name":"Cacheu","country":"GW","lat":12.27444,"lon":-16.16528},{"name":"Cacine","country":"GW","lat":11.11667,"lon":-15.01667},{"name":"Caió","country":"GW","lat":11.92858,"lon":-16.20269},{"name":"Canchungo","country":"GW","lat":12.43333,"lon":-16.08333},{"name":"Canchungo","country":"GW","lat":12.06722,"lon":-16.03333},{"name":"Catió","country":"GW","lat":11.2825,"lon":-15.25472},{"name":"Contuboel","country":"GW","lat":12.39081,"lon":-14.57139},{"name":"Empada","country":"GW","lat":11.55,"lon":-15.23333},{"name":"Farim","country":"GW","lat":12.48389,"lon":-15.22167},{"name":"Fulacunda","country":"GW","lat":11.77665,"lon":-15.17177},{"name":"Gabú","country":"GW","lat":12.28,"lon":-14.22222},{"name":"Ingoré","country":"GW","lat":12.40528,"lon":-15.7975},{"name":"Jabicunda","country":"GW","lat":12.31667,"lon":-14.55},{"name":"Madina do Boé","country":"GW","lat":11.74765,"lon":-14.2113},{"name":"Mansabá","country":"GW","lat":12.29194,"lon":-15.18278},{"name":"Mansôa","country":"GW","lat":12.07333,"lon":-15.31889},{"name":"Nhacra","country":"GW","lat":11.96667,"lon":-15.55},{"name":"Pirada","country":"GW","lat":12.66286,"lon":-14.15427},{"name":"Pitche","country":"GW","lat":12.32344,"lon":-13.95343},{"name":"Prábis","country":"GW","lat":11.8025,"lon":-15.73889},{"name":"Quebo","country":"GW","lat":11.33333,"lon":-14.93333},{"name":"Quinhámel","country":"GW","lat":11.88694,"lon":-15.85556},{"name":"Safim","country":"GW","lat":11.95,"lon":-15.65},{"name":"São Domingos","country":"GW","lat":12.40194,"lon":-16.20056},{"name":"Sonaco","country":"GW","lat":12.4,"lon":-14.48333},{"name":"Tite","country":"GW","lat":11.78333,"lon":-15.4}]