[{"name":"Agalteca","country":"HN","lat":14.45,"lon":-87.26667},{"name":"Agua Azul","country":"HN","lat":14.91667,"lon":-87.96667},{"name":"Agua Azul Rancho","country":"HN","lat":14.9,"lon":-87.95},{"name":"Agua Blanca Sur","country":"HN","lat":15.25,"lon":-87.88333},{"name":"Agua Caliente","country":"HN","lat":14.88333,"lon":-88.81667},{"name":"Agua Fría","country":"HN","lat":13.46889,"lon":-87.55111},{"name":"Agualote","country":"HN","lat":15.33621,"lon":-88.55312},{"name":"Aguas del Padre","country":"HN","lat":14.58081,"lon":-87.87865},{"name":"Ajuterique","country":"HN","lat":14.38304,"lon":-87.70965},{"name":"Amapala","country":"HN","lat":13.29222,"lon":-87.65389},{"name":"Antigua Ocotepeque","country":"HN","lat":14.40131,"lon":-89.19971},{"name":"Arada","country":"HN","lat":14.84582,"lon":-88.30108},{"name":"Aramecina","country":"HN","lat":13.74222,"lon":-87.71028},{"name":"Araulí","country":"HN","lat":13.973,"lon":-86.545},{"name":"Arenal","country":"HN","lat":15.35,"lon":-86.83333},{"name":"Arimís","country":"HN","lat":14.78333,"lon":-86},{"name":"Arizona","country":"HN","lat":15.63333,"lon":-87.31667},{"name":"Armenia","country":"HN","lat":15.46667,"lon":-86.36667},{"name":"Armenta","country":"HN","lat":15.5,"lon":-88.05},{"name":"Atenas de San Cristóbal","country":"HN","lat":15.68333,"lon":-87.31667},{"name":"Atima","country":"HN","lat":14.93253,"lon":-88.48965},{"name":"Auas","country":"HN","lat":15.48333,"lon":-84.33333},{"name":"Auka","country":"HN","lat":14.94087,"lon":-83.83229},{"name":"Ayapa","country":"HN","lat":15.11174,"lon":-87.17557},{"name":"Azacualpa","country":"HN","lat":15.34364,"lon":-88.55226},{"name":"Azacualpa","country":"HN","lat":14.71218,"lon":-88.0901},{"name":"Baja Mar","country":"HN","lat":15.88851,"lon":-87.85547},{"name":"Bálsamo Oriental","country":"HN","lat":15.48333,"lon":-86.33333},{"name":"Baracoa","country":"HN","lat":15.77581,"lon":-87.85255},{"name":"Barra Patuca","country":"HN","lat":15.8,"lon":-84.28333},{"name":"Bejuco","country":"HN","lat":15.13333,"lon":-87.93333},{"name":"Belén Gualcho","country":"HN","lat":14.48333,"lon":-88.8},{"name":"Berlín","country":"HN","lat":14.84281,"lon":-88.49452},{"name":"Bonito Oriental","country":"HN","lat":15.74765,"lon":-85.73559},{"name":"Brus Laguna","country":"HN","lat":15.75,"lon":-84.48333},{"name":"Buenos Aires","country":"HN","lat":15.03333,"lon":-88.96667},{"name":"Callejones","country":"HN","lat":15.16667,"lon":-88.65},{"name":"Camalote","country":"HN","lat":15.33333,"lon":-88.33333},{"name":"Camasca","country":"HN","lat":13.99677,"lon":-88.37973},{"name":"Campamento","country":"HN","lat":14.55,"lon":-86.65},{"name":"Cañaveral","country":"HN","lat":14.98401,"lon":-88.02486},{"name":"Cane","country":"HN","lat":14.27933,"lon":-87.65794},{"name":"Carbajales","country":"HN","lat":15.51667,"lon":-86.35},{"name":"Casa Quemada","country":"HN","lat":15.26667,"lon":-88.55},{"name":"Casa Quemada","country":"HN","lat":15.11667,"lon":-88.08333},{"name":"Cedros","country":"HN","lat":14.6,"lon":-87.11667},{"name":"Ceguaca","country":"HN","lat":14.80232,"lon":-88.20387},{"name":"Cerro Blanco","country":"HN","lat":14.66321,"lon":-87.78535},{"name":"Cerro Grande","country":"HN","lat":13.81667,"lon":-87.25},{"name":"Chalmeca","country":"HN","lat":15.09579,"lon":-88.68036},{"name":"Chivana","country":"HN","lat":15.75,"lon":-87.98333},{"name":"Choloma","country":"HN","lat":15.61444,"lon":-87.95302},{"name":"Chotepe","country":"HN","lat":15.41667,"lon":-87.98333},{"name":"Ciudad Choluteca","country":"HN","lat":13.30028,"lon":-87.19083},{"name":"Cofradía","country":"HN","lat":15.4,"lon":-88.15},{"name":"Cofradía","country":"HN","lat":14.22399,"lon":-87.18014},{"name":"Cololaca","country":"HN","lat":14.3,"lon":-88.88333},{"name":"Comayagua","country":"HN","lat":14.45139,"lon":-87.6375},{"name":"Concepción de Guasistagua","country":"HN","lat":14.60764,"lon":-87.65499},{"name":"Concepción de la Barranca","country":"HN","lat":15.16667,"lon":-88.71667},{"name":"Concepción del Sur","country":"HN","lat":14.8,"lon":-88.16667},{"name":"Concordia","country":"HN","lat":14.61667,"lon":-86.65},{"name":"Copán Ruinas","country":"HN","lat":14.83936,"lon":-89.15583},{"name":"Corocito","country":"HN","lat":15.75,"lon":-85.78333},{"name":"Corozal","country":"HN","lat":15.8,"lon":-86.71667},{"name":"Corpus","country":"HN","lat":13.28889,"lon":-87.03472},{"name":"Corquín","country":"HN","lat":14.56667,"lon":-88.86667},{"name":"Correderos","country":"HN","lat":15.41778,"lon":-88.4552},{"name":"Coxen Hole","country":"HN","lat":16.31553,"lon":-86.53966},{"name":"Coyoles Central","country":"HN","lat":15.4,"lon":-86.66667},{"name":"Cucuyagua","country":"HN","lat":14.64777,"lon":-88.87385},{"name":"Cusuna","country":"HN","lat":15.85,"lon":-85.23333},{"name":"Cuyalí","country":"HN","lat":13.88333,"lon":-86.55},{"name":"Cuyamel","country":"HN","lat":15.66505,"lon":-88.19478},{"name":"Danlí","country":"HN","lat":14.03333,"lon":-86.58333},{"name":"Dolores","country":"HN","lat":14.87459,"lon":-88.81637},{"name":"Dulce Nombre","country":"HN","lat":14.84802,"lon":-88.8316},{"name":"Dulce Nombre de Culmí","country":"HN","lat":15.1,"lon":-85.53333},{"name":"Duyure","country":"HN","lat":13.63333,"lon":-86.81667},{"name":"El Achiotal","country":"HN","lat":14.08333,"lon":-88.75},{"name":"El Agua Dulcita","country":"HN","lat":14.7,"lon":-87.75},{"name":"El Bálsamo","country":"HN","lat":15.06667,"lon":-87.46667},{"name":"El Benque","country":"HN","lat":14.03333,"lon":-86.46667},{"name":"El Chichicaste","country":"HN","lat":14.06667,"lon":-86.3},{"name":"El Chimbo","country":"HN","lat":14.13575,"lon":-87.11879},{"name":"El Ciruelo","country":"HN","lat":15.29443,"lon":-88.5083},{"name":"El Corozal","country":"HN","lat":15.06667,"lon":-88.61667},{"name":"El Corpús","country":"HN","lat":14.69814,"lon":-88.90862},{"name":"El Cubolero","country":"HN","lat":13.46667,"lon":-87.66667},{"name":"El Escanito","country":"HN","lat":14.66667,"lon":-87.1},{"name":"El Escaño de Tepale","country":"HN","lat":14.75,"lon":-87.06667},{"name":"El Guante","country":"HN","lat":14.55,"lon":-87.1},{"name":"El Guantillo","country":"HN","lat":14.6,"lon":-87.3},{"name":"El Guapinol","country":"HN","lat":13.76667,"lon":-87.46667},{"name":"El Guayabito","country":"HN","lat":14.83333,"lon":-86.03333},{"name":"El Juncal","country":"HN","lat":15.45,"lon":-86.43333},{"name":"El Llano","country":"HN","lat":15.17939,"lon":-87.87952},{"name":"El Lolo","country":"HN","lat":14.1345,"lon":-87.2545},{"name":"El Marañón","country":"HN","lat":15.39518,"lon":-88.05437},{"name":"El Milagro","country":"HN","lat":15.4,"lon":-87.96667},{"name":"El Mochito","country":"HN","lat":14.86667,"lon":-88.08333},{"name":"El Negrito","country":"HN","lat":15.31667,"lon":-87.7},{"name":"El Níspero","country":"HN","lat":14.76667,"lon":-88.33333},{"name":"El Obraje","country":"HN","lat":14,"lon":-86.43333},{"name":"El Obraje","country":"HN","lat":13.15417,"lon":-87.13083},{"name":"El Ocote","country":"HN","lat":15.41667,"lon":-86.56667},{"name":"El Ocotón","country":"HN","lat":15.03333,"lon":-88.88333},{"name":"El Olivar","country":"HN","lat":15.08333,"lon":-87.88333},{"name":"El Paraíso","country":"HN","lat":13.86667,"lon":-86.55},{"name":"El Pedernal","country":"HN","lat":14.7,"lon":-87.11667},{"name":"El Perico","country":"HN","lat":15.08333,"lon":-88.1},{"name":"El Pino","country":"HN","lat":15.7,"lon":-86.93333},{"name":"El Plan","country":"HN","lat":15.32641,"lon":-87.94984},{"name":"El Porvenir","country":"HN","lat":15.83333,"lon":-87.93333},{"name":"El Porvenir","country":"HN","lat":15.75,"lon":-86.93333},{"name":"El Porvenir","country":"HN","lat":14.58775,"lon":-87.89253},{"name":"El Porvenir","country":"HN","lat":13.76167,"lon":-87.34583},{"name":"El Progreso","country":"HN","lat":15.4,"lon":-87.8},{"name":"El Puente","country":"HN","lat":13.28333,"lon":-87.11667},{"name":"El Rancho","country":"HN","lat":15.66667,"lon":-87.95},{"name":"El Rincón","country":"HN","lat":14.578,"lon":-87.92815},{"name":"El Rosario","country":"HN","lat":14.8,"lon":-87.76667},{"name":"El Rusio","country":"HN","lat":14.46667,"lon":-86.36667},{"name":"El Sauce","country":"HN","lat":14.5285,"lon":-87.66571},{"name":"El Socorro","country":"HN","lat":14.62708,"lon":-87.90527},{"name":"El Suyatal","country":"HN","lat":14.51667,"lon":-87.21667},{"name":"El Tablón","country":"HN","lat":14.03333,"lon":-87.16667},{"name":"El Terrero","country":"HN","lat":14.06366,"lon":-87.06602},{"name":"El Tigre","country":"HN","lat":14.93333,"lon":-87.98333},{"name":"El Tránsito","country":"HN","lat":14.38333,"lon":-88.91667},{"name":"El Triunfo","country":"HN","lat":13.11667,"lon":-87},{"name":"El Triunfo de la Cruz","country":"HN","lat":15.76667,"lon":-87.43333},{"name":"El Tular","country":"HN","lat":13.46639,"lon":-87.51528},{"name":"El Zapotal del Norte","country":"HN","lat":15.51667,"lon":-88.05},{"name":"Elíxir","country":"HN","lat":15.48333,"lon":-86.3},{"name":"Erandique","country":"HN","lat":14.23787,"lon":-88.46447},{"name":"Esquías","country":"HN","lat":14.74392,"lon":-87.3712},{"name":"Flores","country":"HN","lat":14.29442,"lon":-87.57142},{"name":"Florida","country":"HN","lat":15.02692,"lon":-88.83567},{"name":"Francia","country":"HN","lat":15.85,"lon":-85.58333},{"name":"French Harbor","country":"HN","lat":16.35,"lon":-86.43333},{"name":"Goascorán","country":"HN","lat":13.58333,"lon":-87.61667},{"name":"Gracias","country":"HN","lat":14.59028,"lon":-88.58194},{"name":"Guacamaya","country":"HN","lat":15.02044,"lon":-88.15025},{"name":"Guaimaca","country":"HN","lat":14.53333,"lon":-86.81667},{"name":"Guaimitas","country":"HN","lat":15.5,"lon":-87.71667},{"name":"Gualaco","country":"HN","lat":15.02521,"lon":-86.07076},{"name":"Gualjoco","country":"HN","lat":14.9599,"lon":-88.23735},{"name":"Guanaja","country":"HN","lat":16.44186,"lon":-85.88717},{"name":"Guarizama","country":"HN","lat":14.91667,"lon":-86.33333},{"name":"Guayape","country":"HN","lat":14.71667,"lon":-86.83333},{"name":"Güinope","country":"HN","lat":13.88333,"lon":-86.93333},{"name":"Ilama","country":"HN","lat":15.06809,"lon":-88.22311},{"name":"Intibucá","country":"HN","lat":14.31226,"lon":-88.17608},{"name":"Iralaya","country":"HN","lat":15,"lon":-83.23333},{"name":"Jacaleapa","country":"HN","lat":14.01667,"lon":-86.66667},{"name":"Jamalteca","country":"HN","lat":14.69597,"lon":-87.57908},{"name":"Jericó","country":"HN","lat":15.95,"lon":-85.96667},{"name":"Jesús de Otoro","country":"HN","lat":14.48775,"lon":-87.98181},{"name":"Jícaro Galán","country":"HN","lat":13.53167,"lon":-87.43889},{"name":"Jiquinlaca","country":"HN","lat":14.00595,"lon":-88.35162},{"name":"Jocón","country":"HN","lat":15.28333,"lon":-86.96667},{"name":"Joconal","country":"HN","lat":15.35519,"lon":-88.63295},{"name":"Jutiapa","country":"HN","lat":15.76667,"lon":-86.51667},{"name":"Jutiapa","country":"HN","lat":13.98333,"lon":-86.4},{"name":"Juticalpa","country":"HN","lat":14.66667,"lon":-86.21944},{"name":"Jutiquile","country":"HN","lat":14.71667,"lon":-86.08333},{"name":"La Alianza","country":"HN","lat":13.51222,"lon":-87.72444},{"name":"La Brea","country":"HN","lat":15.8,"lon":-85.96667},{"name":"La Bueso","country":"HN","lat":15.61689,"lon":-87.85688},{"name":"La Ceiba","country":"HN","lat":15.75971,"lon":-86.78221},{"name":"La Concepción","country":"HN","lat":14.7,"lon":-86.23333},{"name":"La Criba","country":"HN","lat":13.45361,"lon":-87.41333},{"name":"La Encarnación","country":"HN","lat":14.66676,"lon":-89.08751},{"name":"La Entrada","country":"HN","lat":15.06381,"lon":-88.74627},{"name":"La Ermita","country":"HN","lat":14.46667,"lon":-87.06667},{"name":"La Esperanza","country":"HN","lat":15.63333,"lon":-85.76667},{"name":"La Esperanza","country":"HN","lat":14.31111,"lon":-88.18056},{"name":"La Estancia","country":"HN","lat":15.28333,"lon":-87.55},{"name":"La Estancia","country":"HN","lat":15.05,"lon":-86.35},{"name":"La Flecha","country":"HN","lat":15.29237,"lon":-88.48953},{"name":"La Guacamaya","country":"HN","lat":15.25,"lon":-87.8},{"name":"La Guama","country":"HN","lat":14.88647,"lon":-87.93703},{"name":"La Guata","country":"HN","lat":15.08333,"lon":-86.38333},{"name":"La Jutosa","country":"HN","lat":15.64166,"lon":-87.99201},{"name":"La Labor","country":"HN","lat":14.48625,"lon":-89.00272},{"name":"La Libertad","country":"HN","lat":14.81132,"lon":-88.58715},{"name":"La Libertad","country":"HN","lat":14.75792,"lon":-87.60759},{"name":"La Lima","country":"HN","lat":15.43333,"lon":-87.91667},{"name":"La Masica","country":"HN","lat":15.61667,"lon":-87.11667},{"name":"La Mina","country":"HN","lat":15.31667,"lon":-87.83333},{"name":"La Paz","country":"HN","lat":14.31944,"lon":-87.67917},{"name":"La Playona","country":"HN","lat":15.11803,"lon":-88.98197},{"name":"La Rosa","country":"HN","lat":15.35,"lon":-87.06667},{"name":"La Sabana","country":"HN","lat":15.37351,"lon":-87.93176},{"name":"La Sarrosa","country":"HN","lat":15.23333,"lon":-87.83333},{"name":"La Trinidad","country":"HN","lat":15.1,"lon":-87.2},{"name":"La Unión","country":"HN","lat":15.71667,"lon":-87},{"name":"La Unión","country":"HN","lat":14.81387,"lon":-88.40845},{"name":"La Virtud","country":"HN","lat":14.06137,"lon":-88.69482},{"name":"La Zumbadora","country":"HN","lat":15.01433,"lon":-88.90117},{"name":"Laguna Seca","country":"HN","lat":14.7,"lon":-86.1},{"name":"Laguna Verde","country":"HN","lat":15.2,"lon":-88.16667},{"name":"Lamaní","country":"HN","lat":14.19626,"lon":-87.62128},{"name":"Langue","country":"HN","lat":13.62083,"lon":-87.6525},{"name":"Las Ánimas","country":"HN","lat":14.25,"lon":-86.56667},{"name":"Las Lajas","country":"HN","lat":14.78333,"lon":-87.75},{"name":"Las Tejeras","country":"HN","lat":14.80442,"lon":-88.59508},{"name":"Las Trojes","country":"HN","lat":14.06667,"lon":-85.98333},{"name":"Las Vegas","country":"HN","lat":15.01667,"lon":-87.45},{"name":"Las Vegas, Santa Barbara","country":"HN","lat":14.87649,"lon":-88.07473},{"name":"Lejamaní","country":"HN","lat":14.36681,"lon":-87.7072},{"name":"Lepaera","country":"HN","lat":14.77876,"lon":-88.5902},{"name":"Lepaterique","country":"HN","lat":14.06667,"lon":-87.46667},{"name":"Liure","country":"HN","lat":13.53583,"lon":-87.09194},{"name":"Loma Alta","country":"HN","lat":15.39818,"lon":-88.56251},{"name":"Lomitas","country":"HN","lat":15.1,"lon":-87.21667},{"name":"Los Caminos","country":"HN","lat":14.95045,"lon":-87.97531},{"name":"Los Llanitos","country":"HN","lat":13.28694,"lon":-87.33444},{"name":"Los Naranjos","country":"HN","lat":14.94398,"lon":-88.03654},{"name":"Los Planes","country":"HN","lat":14.05,"lon":-88.01667},{"name":"Los Tangos","country":"HN","lat":15.14585,"lon":-88.67931},{"name":"Lucerna","country":"HN","lat":14.55817,"lon":-88.9345},{"name":"Mangrove Bight","country":"HN","lat":16.46667,"lon":-85.88333},{"name":"Mangulile","country":"HN","lat":15.06667,"lon":-86.8},{"name":"Manto","country":"HN","lat":14.91667,"lon":-86.38333},{"name":"Marale","country":"HN","lat":14.88333,"lon":-87.15},{"name":"Marcala","country":"HN","lat":14.15661,"lon":-88.03466},{"name":"Marcovia","country":"HN","lat":13.28806,"lon":-87.30972},{"name":"Mata de Plátano","country":"HN","lat":14.6,"lon":-87.28333},{"name":"Mateo","country":"HN","lat":14.07731,"lon":-87.3169},{"name":"Mezapa","country":"HN","lat":15.58333,"lon":-87.65},{"name":"Minas de Oro","country":"HN","lat":14.79611,"lon":-87.34654},{"name":"Mojimán","country":"HN","lat":15.26667,"lon":-87.6},{"name":"Monjarás","country":"HN","lat":13.20056,"lon":-87.37417},{"name":"Monterrey","country":"HN","lat":15.58937,"lon":-87.88138},{"name":"Morazán","country":"HN","lat":15.31667,"lon":-87.6},{"name":"Morocelí","country":"HN","lat":14.11667,"lon":-86.86667},{"name":"Nacaome","country":"HN","lat":13.53611,"lon":-87.4875},{"name":"Naco","country":"HN","lat":15.39106,"lon":-88.18312},{"name":"Namasigüe","country":"HN","lat":13.20472,"lon":-87.13889},{"name":"Naranjito","country":"HN","lat":14.95297,"lon":-88.68333},{"name":"Nombre de Jesús","country":"HN","lat":15.35,"lon":-86.68333},{"name":"Nueva Armenia","country":"HN","lat":15.79556,"lon":-86.49845},{"name":"Nueva Esperanza","country":"HN","lat":15.26667,"lon":-87.6},{"name":"Nueva Jalapa","country":"HN","lat":14.91667,"lon":-88.33333},{"name":"Nueva Ocotepeque","country":"HN","lat":14.43333,"lon":-89.18333},{"name":"Nuevo Chamelecón","country":"HN","lat":15.38333,"lon":-88.01667},{"name":"Ocote Paulino","country":"HN","lat":15.41667,"lon":-87.6},{"name":"Ojo de Agua","country":"HN","lat":14.01667,"lon":-86.35},{"name":"Ojojona","country":"HN","lat":13.93389,"lon":-87.29583},{"name":"Ojos de Agua","country":"HN","lat":14.7057,"lon":-88.81617},{"name":"Ojos de Agua","country":"HN","lat":14.6,"lon":-87.93333},{"name":"Olanchito","country":"HN","lat":15.48131,"lon":-86.57415},{"name":"Omoa","country":"HN","lat":15.77603,"lon":-88.03833},{"name":"Orica","country":"HN","lat":14.7,"lon":-86.95},{"name":"Orocuina","country":"HN","lat":13.48167,"lon":-87.105},{"name":"Oropéndolas","country":"HN","lat":15.01667,"lon":-87.93333},{"name":"Oropolí","country":"HN","lat":13.81667,"lon":-86.81667},{"name":"Paptalaya","country":"HN","lat":15.5,"lon":-84.31667},{"name":"Paujiles","country":"HN","lat":15.1,"lon":-87.35},{"name":"Peña Blanca","country":"HN","lat":15.53333,"lon":-88.05},{"name":"Pespire","country":"HN","lat":13.59222,"lon":-87.36167},{"name":"Petoa","country":"HN","lat":15.26939,"lon":-88.28878},{"name":"Pimienta Vieja","country":"HN","lat":15.23333,"lon":-87.96667},{"name":"Pinalejo","country":"HN","lat":15.38705,"lon":-88.39207},{"name":"Potrerillos","country":"HN","lat":15.63333,"lon":-88.3},{"name":"Potrerillos","country":"HN","lat":15.23008,"lon":-87.96386},{"name":"Potrerillos","country":"HN","lat":14.55137,"lon":-87.8774},{"name":"Prieta","country":"HN","lat":15.5806,"lon":-86.13664},{"name":"Protección","country":"HN","lat":15.02764,"lon":-88.6469},{"name":"Pueblo Nuevo","country":"HN","lat":15.34655,"lon":-87.99041},{"name":"Pueblo Nuevo","country":"HN","lat":15,"lon":-88.75},{"name":"Puerto Alto","country":"HN","lat":15.7,"lon":-87.86667},{"name":"Puerto Castilla","country":"HN","lat":16.01667,"lon":-85.96667},{"name":"Puerto Cortez","country":"HN","lat":15.82562,"lon":-87.92968},{"name":"Puerto Lempira","country":"HN","lat":15.26667,"lon":-83.77222},{"name":"Punta Ocote","country":"HN","lat":15.2,"lon":-87.28333},{"name":"Punta Piedra","country":"HN","lat":15.9,"lon":-85.28333},{"name":"Punuare","country":"HN","lat":14.73333,"lon":-85.96667},{"name":"Quebrada de Arena","country":"HN","lat":15.76667,"lon":-85.91667},{"name":"Quebrada Larga","country":"HN","lat":14.1,"lon":-86.36667},{"name":"Quebrada Seca","country":"HN","lat":15.66065,"lon":-87.9493},{"name":"Quebradas","country":"HN","lat":14.5,"lon":-87.35},{"name":"Quezailica","country":"HN","lat":14.87652,"lon":-88.72714},{"name":"Quimistán","country":"HN","lat":15.34752,"lon":-88.4052},{"name":"Rancho Grande","country":"HN","lat":14.68852,"lon":-87.49525},{"name":"Reitoca","country":"HN","lat":13.82583,"lon":-87.46528},{"name":"Río Abajo","country":"HN","lat":14.16927,"lon":-87.20515},{"name":"Río Blanquito","country":"HN","lat":15.72756,"lon":-87.90151},{"name":"Río Bonito","country":"HN","lat":14.76667,"lon":-87.88333},{"name":"Río Chiquito","country":"HN","lat":15.63407,"lon":-88.24136},{"name":"Río Esteban","country":"HN","lat":15.83333,"lon":-86.3},{"name":"Río Lindo","country":"HN","lat":15.0462,"lon":-87.98632},{"name":"Sabá","country":"HN","lat":15.46667,"lon":-86.25},{"name":"Sabanagrande","country":"HN","lat":13.80778,"lon":-87.25917},{"name":"Salamá","country":"HN","lat":15.75,"lon":-85.96667},{"name":"Salamá","country":"HN","lat":14.83333,"lon":-86.58333},{"name":"Sambo Creek","country":"HN","lat":15.81667,"lon":-86.68333},{"name":"San Agustín","country":"HN","lat":14.81958,"lon":-88.93562},{"name":"San Antonio","country":"HN","lat":15.6,"lon":-87.15},{"name":"San Antonio","country":"HN","lat":15.33333,"lon":-87.15},{"name":"San Antonio de Cortés","country":"HN","lat":15.11611,"lon":-88.04074},{"name":"San Antonio de la Cuesta","country":"HN","lat":14.63333,"lon":-87.6},{"name":"San Antonio del Norte","country":"HN","lat":13.88444,"lon":-87.70306},{"name":"San Buenaventura","country":"HN","lat":15.0243,"lon":-87.99447},{"name":"San Diego","country":"HN","lat":14.05,"lon":-86.46667},{"name":"San Esteban","country":"HN","lat":15.21231,"lon":-85.76996},{"name":"San Fernando","country":"HN","lat":14.68333,"lon":-89.11667},{"name":"San Francisco","country":"HN","lat":15.65,"lon":-87.05},{"name":"San Francisco de Becerra","country":"HN","lat":14.63333,"lon":-86.1},{"name":"San Francisco de Cones","country":"HN","lat":14.51667,"lon":-88.9},{"name":"San Francisco de Coray","country":"HN","lat":13.66139,"lon":-87.53278},{"name":"San Francisco de la Paz","country":"HN","lat":14.9,"lon":-86.2},{"name":"San Francisco de Yojoa","country":"HN","lat":15.01442,"lon":-87.9716},{"name":"San Francisco del Valle","country":"HN","lat":14.43542,"lon":-88.95608},{"name":"San Ignacio","country":"HN","lat":14.65,"lon":-87.03333},{"name":"San Jerónimo","country":"HN","lat":14.96667,"lon":-88.86667},{"name":"San Jerónimo","country":"HN","lat":14.63333,"lon":-87.6},{"name":"San Jerónimo","country":"HN","lat":13.17667,"lon":-87.13639},{"name":"San Joaquín","country":"HN","lat":15.06053,"lon":-88.91193},{"name":"San José","country":"HN","lat":14.90235,"lon":-88.72063},{"name":"San José","country":"HN","lat":15.31667,"lon":-87.16667},{"name":"San José","country":"HN","lat":14.24809,"lon":-87.95951},{"name":"San José de Colinas","country":"HN","lat":15.04101,"lon":-88.30186},{"name":"San José de Comayagua","country":"HN","lat":14.73333,"lon":-88.03333},{"name":"San José de Las Conchas","country":"HN","lat":13.32528,"lon":-87.39556},{"name":"San José de Río Tinto","country":"HN","lat":14.93333,"lon":-85.7},{"name":"San José de Tarros","country":"HN","lat":15.3,"lon":-88.7},{"name":"San José del Boquerón","country":"HN","lat":15.51856,"lon":-87.89786},{"name":"San José del Potrero","country":"HN","lat":14.83999,"lon":-87.28405},{"name":"San Juan de Flores","country":"HN","lat":14.26667,"lon":-87.03333},{"name":"San Juan de Opoa","country":"HN","lat":14.779,"lon":-88.69641},{"name":"San Juan de Planes","country":"HN","lat":14.93333,"lon":-88.78333},{"name":"San Juan Pueblo","country":"HN","lat":15.58333,"lon":-87.23333},{"name":"San Lorenzo","country":"HN","lat":13.42417,"lon":-87.44722},{"name":"San Lucas","country":"HN","lat":13.73333,"lon":-86.95},{"name":"San Luis","country":"HN","lat":15.12692,"lon":-88.43931},{"name":"San Luis","country":"HN","lat":14.74935,"lon":-87.40846},{"name":"San Luis de Planes","country":"HN","lat":14.97603,"lon":-88.1251},{"name":"San Manuel","country":"HN","lat":15.33143,"lon":-87.92115},{"name":"San Marcos","country":"HN","lat":15.30248,"lon":-88.41605},{"name":"San Marcos","country":"HN","lat":14.40788,"lon":-88.95525},{"name":"San Marcos de Colón","country":"HN","lat":13.43333,"lon":-86.8},{"name":"San Matías","country":"HN","lat":13.98333,"lon":-86.63333},{"name":"San Nicolás","country":"HN","lat":15.00341,"lon":-88.75167},{"name":"San Nicolás","country":"HN","lat":14.9423,"lon":-88.32796},{"name":"San Nicolás","country":"HN","lat":14.55,"lon":-86.25},{"name":"San Pedro de Tutule","country":"HN","lat":14.25145,"lon":-87.85414},{"name":"San Pedro Sula","country":"HN","lat":15.50417,"lon":-88.025},{"name":"San Pedro Zacapa","country":"HN","lat":14.7565,"lon":-88.11373},{"name":"San Sebastián","country":"HN","lat":14.24582,"lon":-87.63981},{"name":"San Vicente Centenario","country":"HN","lat":14.89045,"lon":-88.28534},{"name":"Sandy Bay","country":"HN","lat":16.32923,"lon":-86.56446},{"name":"Santa Ana","country":"HN","lat":15.65,"lon":-87.06667},{"name":"Santa Ana","country":"HN","lat":13.93167,"lon":-87.27139},{"name":"Santa Ana de Yusguare","country":"HN","lat":13.30056,"lon":-87.11389},{"name":"Santa Bárbara","country":"HN","lat":14.91944,"lon":-88.23611},{"name":"Santa Cruz","country":"HN","lat":13.86667,"lon":-86.63333},{"name":"Santa Cruz","country":"HN","lat":13.25806,"lon":-87.34833},{"name":"Santa Cruz de Yojoa","country":"HN","lat":14.98086,"lon":-87.89091},{"name":"Santa Elena","country":"HN","lat":15.38333,"lon":-88.13333},{"name":"Santa Lucía","country":"HN","lat":14.41667,"lon":-89.2},{"name":"Santa Lucía","country":"HN","lat":14.11568,"lon":-87.11368},{"name":"Santa María del Real","country":"HN","lat":14.76667,"lon":-85.95},{"name":"Santa Rita","country":"HN","lat":15.16667,"lon":-87.28333},{"name":"Santa Rita","country":"HN","lat":14.91667,"lon":-88.21667},{"name":"Santa Rita, Copan","country":"HN","lat":14.86748,"lon":-89.1},{"name":"Santa Rosa de Aguán","country":"HN","lat":15.95,"lon":-85.71667},{"name":"Santa Rosa de Copán","country":"HN","lat":14.76667,"lon":-88.77917},{"name":"Santiago de Puringla","country":"HN","lat":14.35783,"lon":-87.9041},{"name":"Savannah Bight","country":"HN","lat":16.48458,"lon":-85.84474},{"name":"Sensenti","country":"HN","lat":14.49379,"lon":-88.93761},{"name":"Siguatepeque","country":"HN","lat":14.59691,"lon":-87.83102},{"name":"Silca","country":"HN","lat":14.83333,"lon":-86.53333},{"name":"Sinuapa","country":"HN","lat":14.44305,"lon":-89.18594},{"name":"Subirana","country":"HN","lat":15.2,"lon":-87.45},{"name":"Sula","country":"HN","lat":15.24765,"lon":-88.56047},{"name":"Sulaco","country":"HN","lat":14.91667,"lon":-87.26667},{"name":"Talanga","country":"HN","lat":14.4,"lon":-87.08333},{"name":"Támara","country":"HN","lat":14.16913,"lon":-87.34067},{"name":"Taragual","country":"HN","lat":14.75,"lon":-88.48333},{"name":"Taujica","country":"HN","lat":15.7,"lon":-85.91667},{"name":"Taulabé","country":"HN","lat":14.69251,"lon":-87.96537},{"name":"Teguajinal","country":"HN","lat":15.36667,"lon":-86.6},{"name":"Tegucigalpa","country":"HN","lat":14.0818,"lon":-87.20681},{"name":"Tela","country":"HN","lat":15.77425,"lon":-87.46731},{"name":"Tepanguare","country":"HN","lat":14.33333,"lon":-87.75},{"name":"Tepusteca","country":"HN","lat":15.41667,"lon":-86.31667},{"name":"Teupasenti","country":"HN","lat":14.21667,"lon":-86.7},{"name":"Texíguat","country":"HN","lat":13.64972,"lon":-87.0225},{"name":"Tocoa","country":"HN","lat":15.68333,"lon":-86},{"name":"Tornabé","country":"HN","lat":15.75,"lon":-87.55},{"name":"Toyós","country":"HN","lat":15.55,"lon":-87.65},{"name":"Tras Cerros","country":"HN","lat":15.3,"lon":-88.66667},{"name":"Travesía","country":"HN","lat":15.86267,"lon":-87.90471},{"name":"Trinidad","country":"HN","lat":15.14237,"lon":-88.23321},{"name":"Trinidad de Copán","country":"HN","lat":14.94567,"lon":-88.7422},{"name":"Trojas","country":"HN","lat":15.35,"lon":-86.7},{"name":"Trujillo","country":"HN","lat":15.91667,"lon":-85.95417},{"name":"Valle de Ángeles","country":"HN","lat":14.49921,"lon":-87.63989},{"name":"Valle de Ángeles","country":"HN","lat":14.1578,"lon":-87.04263},{"name":"Vallecillo","country":"HN","lat":14.51667,"lon":-87.4},{"name":"Veracruz","country":"HN","lat":14.91667,"lon":-88.78333},{"name":"Victoria","country":"HN","lat":15.50381,"lon":-87.82625},{"name":"Villa de San Antonio","country":"HN","lat":14.32594,"lon":-87.61351},{"name":"Villa de San Francisco","country":"HN","lat":14.16667,"lon":-86.96667},{"name":"Villa Nueva","country":"HN","lat":14.03169,"lon":-87.14132},{"name":"Villanueva","country":"HN","lat":15.31476,"lon":-87.99383},{"name":"Wawina","country":"HN","lat":15.41667,"lon":-84.43333},{"name":"Yaguacire","country":"HN","lat":14.01573,"lon":-87.216},{"name":"Yamaranguila","country":"HN","lat":14.28333,"lon":-88.24199},{"name":"Yaruchel","country":"HN","lat":14.52794,"lon":-88.81579},{"name":"Yarumela","country":"HN","lat":14.33578,"lon":-87.64557},{"name":"Yorito","country":"HN","lat":15.06667,"lon":-87.28333},{"name":"Yoro","country":"HN","lat":15.1375,"lon":-87.12778},{"name":"Yuscarán","country":"HN","lat":13.94389,"lon":-86.85278},{"name":"Zambrano","country":"HN","lat":14.26667,"lon":-87.4},{"name":"Zamora","country":"HN","lat":15.63333,"lon":-86.06667},{"name":"Zopilotepe","country":"HN","lat":14.6,"lon":-86.26667}]