[{"name":"‘Adi","country":"IL","lat":32.78486,"lon":35.17282},{"name":"‘Amminadav","country":"IL","lat":31.75212,"lon":35.14733},{"name":"‘Ar‘ara","country":"IL","lat":32.49553,"lon":35.09411},{"name":"‘Ar‘ara BaNegev","country":"IL","lat":31.16046,"lon":35.02274},{"name":"‘Aramsha","country":"IL","lat":33.08781,"lon":35.22836},{"name":"‘Arugot","country":"IL","lat":31.73503,"lon":34.77016},{"name":"‘Azriqam","country":"IL","lat":31.7507,"lon":34.69933},{"name":"‘Eilabun","country":"IL","lat":32.83693,"lon":35.40029},{"name":"‘Ein Māhil","country":"IL","lat":32.72304,"lon":35.35303},{"name":"‘Ein Naqūbā","country":"IL","lat":31.79366,"lon":35.12064},{"name":"‘Ein Qunīya","country":"IL","lat":33.23752,"lon":35.73131},{"name":"‘Ein Rāfa","country":"IL","lat":31.7902,"lon":35.11528},{"name":"‘En Ayyala","country":"IL","lat":32.62899,"lon":34.94483},{"name":"‘En Boqeq","country":"IL","lat":31.19941,"lon":35.36253},{"name":"‘En Dor","country":"IL","lat":32.65614,"lon":35.41703},{"name":"‘En HaMifrats","country":"IL","lat":32.90308,"lon":35.09619},{"name":"‘En Ya‘aqov","country":"IL","lat":33.00977,"lon":35.22982},{"name":"‘Ilūṭ","country":"IL","lat":32.71639,"lon":35.25944},{"name":"‘Isfiyā","country":"IL","lat":32.71836,"lon":35.06509},{"name":"‘Olesh","country":"IL","lat":32.33199,"lon":34.98558},{"name":"‘Omer","country":"IL","lat":31.26489,"lon":34.84766},{"name":"‘Uzeir","country":"IL","lat":32.79212,"lon":35.32984},{"name":"Abū Ghaush","country":"IL","lat":31.80592,"lon":35.1093},{"name":"Abū Sinān","country":"IL","lat":32.95891,"lon":35.17152},{"name":"Acre","country":"IL","lat":32.92814,"lon":35.07647},{"name":"Afiqim","country":"IL","lat":32.68046,"lon":35.57776},{"name":"Afula","country":"IL","lat":32.60907,"lon":35.2892},{"name":"Aẖi‘ezer","country":"IL","lat":31.98133,"lon":34.87213},{"name":"Aẖisamakh","country":"IL","lat":31.93503,"lon":34.90739},{"name":"Aẖituv","country":"IL","lat":32.38873,"lon":34.99072},{"name":"Aẖuzzat Baraq","country":"IL","lat":32.64187,"lon":35.33834},{"name":"Al Buţayḩah","country":"IL","lat":32.90871,"lon":35.63199},{"name":"Al Khushnīyah","country":"IL","lat":32.99941,"lon":35.81084},{"name":"Allon HaGalil","country":"IL","lat":32.75742,"lon":35.22089},{"name":"AlSayid Tribe","country":"IL","lat":31.28252,"lon":34.91505},{"name":"Arad","country":"IL","lat":31.25882,"lon":35.21282},{"name":"Ariel","country":"IL","lat":32.1065,"lon":35.18449},{"name":"Ashdod","country":"IL","lat":31.79213,"lon":34.64966},{"name":"Ashdot Ya‘aqov Iẖud","country":"IL","lat":32.65843,"lon":35.58117},{"name":"Ashkelon","country":"IL","lat":31.66926,"lon":34.57149},{"name":"Atlit","country":"IL","lat":32.68889,"lon":34.94236},{"name":"Ayyelet HaShaẖar","country":"IL","lat":33.02224,"lon":35.57716},{"name":"Azor","country":"IL","lat":32.0243,"lon":34.80632},{"name":"Baẖan","country":"IL","lat":32.35082,"lon":35.01862},{"name":"Bāqa el Gharbīya","country":"IL","lat":32.41806,"lon":35.04312},{"name":"Bar Yuẖay","country":"IL","lat":32.99848,"lon":35.44419},{"name":"Bareqet","country":"IL","lat":32.01839,"lon":34.94416},{"name":"Basma","country":"IL","lat":32.52904,"lon":35.10059},{"name":"Basmat Ṭab‘ūn","country":"IL","lat":32.73898,"lon":35.15716},{"name":"Bat H̱efer","country":"IL","lat":32.33307,"lon":35.01272},{"name":"Bat Yam","country":"IL","lat":32.02379,"lon":34.75185},{"name":"Batsra","country":"IL","lat":32.21412,"lon":34.87676},{"name":"Be'er Ganim","country":"IL","lat":31.69973,"lon":34.60978},{"name":"Be’er Ora","country":"IL","lat":29.71053,"lon":34.98019},{"name":"Be’er Toviyya","country":"IL","lat":31.73501,"lon":34.72389},{"name":"Be’er Ya‘aqov","country":"IL","lat":31.93864,"lon":34.83749},{"name":"Be’eri","country":"IL","lat":31.42426,"lon":34.49163},{"name":"Be’erotayim","country":"IL","lat":32.32111,"lon":34.98324},{"name":"Beersheba","country":"IL","lat":31.25181,"lon":34.7913},{"name":"Beit Horon","country":"IL","lat":31.87581,"lon":35.12999},{"name":"Beit Jann","country":"IL","lat":32.96464,"lon":35.38152},{"name":"Ben Zakkay","country":"IL","lat":31.85612,"lon":34.72747},{"name":"Berekhya","country":"IL","lat":31.66895,"lon":34.6258},{"name":"Bet ‘Arif","country":"IL","lat":31.99622,"lon":34.93459},{"name":"Bet ‘Ezra","country":"IL","lat":31.73606,"lon":34.65594},{"name":"Bet Alfa","country":"IL","lat":32.51609,"lon":35.43068},{"name":"Bet Dagan","country":"IL","lat":32.00191,"lon":34.82977},{"name":"Bet El‘azari","country":"IL","lat":31.84429,"lon":34.80368},{"name":"Bet Gamli’él","country":"IL","lat":31.85555,"lon":34.76249},{"name":"Bet Guvrin","country":"IL","lat":31.61294,"lon":34.89571},{"name":"Bet HaShitta","country":"IL","lat":32.55131,"lon":35.43874},{"name":"Bet H̱ashmonay","country":"IL","lat":31.88969,"lon":34.91673},{"name":"Bet H̱ilqiyya","country":"IL","lat":31.79281,"lon":34.81048},{"name":"Bet Qama","country":"IL","lat":31.44749,"lon":34.76235},{"name":"Bet Rabban","country":"IL","lat":31.81677,"lon":34.72937},{"name":"Bet She’an","country":"IL","lat":32.49728,"lon":35.49632},{"name":"Bet Shemesh","country":"IL","lat":31.73072,"lon":34.99293},{"name":"Bet Yehoshua‘","country":"IL","lat":32.25942,"lon":34.86414},{"name":"Bet Yitsẖaq","country":"IL","lat":32.32751,"lon":34.88878},{"name":"Bet Yitsẖaq Sha’ar H̱efer","country":"IL","lat":32.33462,"lon":34.89052},{"name":"Bet Zayit","country":"IL","lat":31.78233,"lon":35.16161},{"name":"Bi’na","country":"IL","lat":32.93066,"lon":35.27157},{"name":"Binyamina","country":"IL","lat":32.5232,"lon":34.94499},{"name":"Binyamina-Giv'at Ada","country":"IL","lat":32.51824,"lon":34.95398},{"name":"Bīr el Maksūr","country":"IL","lat":32.77732,"lon":35.22069},{"name":"Bir Hadaj","country":"IL","lat":31.02416,"lon":34.70857},{"name":"Biẕẕaron","country":"IL","lat":31.79446,"lon":34.72806},{"name":"Bne Dror","country":"IL","lat":32.2615,"lon":34.90196},{"name":"Bne Re’em","country":"IL","lat":31.77029,"lon":34.79105},{"name":"Bnei Ayish","country":"IL","lat":31.79,"lon":34.759},{"name":"Bnei Brak","country":"IL","lat":32.08074,"lon":34.8338},{"name":"Bu'ayna-Nujaydat","country":"IL","lat":32.80966,"lon":35.36987},{"name":"Bu‘eina","country":"IL","lat":32.80636,"lon":35.36486},{"name":"Buqei‘a","country":"IL","lat":32.97747,"lon":35.33345},{"name":"Burgata","country":"IL","lat":32.32635,"lon":34.96236},{"name":"Bustan HaGalil","country":"IL","lat":32.95119,"lon":35.08298},{"name":"Caesarea","country":"IL","lat":32.51888,"lon":34.90459},{"name":"Dabbūrīya","country":"IL","lat":32.69256,"lon":35.37123},{"name":"Daliyat al Karmel","country":"IL","lat":32.69383,"lon":35.04686},{"name":"Deir el Asad","country":"IL","lat":32.93598,"lon":35.26998},{"name":"Deir Ḥannā","country":"IL","lat":32.86196,"lon":35.36365},{"name":"Dimona","country":"IL","lat":31.07079,"lon":35.03269},{"name":"Dolev","country":"IL","lat":31.92609,"lon":35.13393},{"name":"Drijat","country":"IL","lat":31.30069,"lon":35.07632},{"name":"Dvira","country":"IL","lat":31.41222,"lon":34.8254},{"name":"Eilat","country":"IL","lat":29.55805,"lon":34.94821},{"name":"Ein Sarid","country":"IL","lat":32.27413,"lon":34.93408},{"name":"Ein Vered","country":"IL","lat":32.26667,"lon":34.93333},{"name":"El Fureidīs","country":"IL","lat":32.59812,"lon":34.95153},{"name":"El Mazra‘a","country":"IL","lat":32.98338,"lon":35.09837},{"name":"El‘ad","country":"IL","lat":32.04984,"lon":34.95382},{"name":"El‘azar","country":"IL","lat":31.65977,"lon":35.14316},{"name":"Elishama‘","country":"IL","lat":32.15208,"lon":34.92827},{"name":"Elon","country":"IL","lat":33.06365,"lon":35.22009},{"name":"Elyakhin","country":"IL","lat":32.40793,"lon":34.92433},{"name":"Er Reina","country":"IL","lat":32.72339,"lon":35.31622},{"name":"Esh Sheikh Dannūn","country":"IL","lat":32.9941,"lon":35.14805},{"name":"Eshta’ol","country":"IL","lat":31.78072,"lon":35.00994},{"name":"Eṭ Ṭaiyiba","country":"IL","lat":32.26616,"lon":35.00893},{"name":"Eṭ Ṭīra","country":"IL","lat":32.2341,"lon":34.95023},{"name":"Even Shemu’el","country":"IL","lat":31.57641,"lon":34.76342},{"name":"Even Yehuda","country":"IL","lat":32.26959,"lon":34.88759},{"name":"Fassūta","country":"IL","lat":33.04895,"lon":35.30893},{"name":"Fīq","country":"IL","lat":32.77935,"lon":35.70032},{"name":"Gan Ner","country":"IL","lat":32.53106,"lon":35.3377},{"name":"Gan Yavne","country":"IL","lat":31.78737,"lon":34.70659},{"name":"Ganei Tikva","country":"IL","lat":32.05971,"lon":34.8732},{"name":"Gedera","country":"IL","lat":31.81456,"lon":34.77998},{"name":"Gesher HaZiv","country":"IL","lat":33.04039,"lon":35.11065},{"name":"Geva‘ Karmel","country":"IL","lat":32.66002,"lon":34.94874},{"name":"Ghajar","country":"IL","lat":33.27115,"lon":35.62288},{"name":"Gilat","country":"IL","lat":31.3276,"lon":34.65202},{"name":"Gilon","country":"IL","lat":32.90261,"lon":35.23452},{"name":"Gimzo","country":"IL","lat":31.92846,"lon":34.94154},{"name":"Giv‘at Avni","country":"IL","lat":32.77682,"lon":35.43747},{"name":"Giv‘at Brenner","country":"IL","lat":31.86684,"lon":34.80097},{"name":"Giv‘at Ela","country":"IL","lat":32.72377,"lon":35.24469},{"name":"Giv‘at H̱ayyim Iẖud","country":"IL","lat":32.39775,"lon":34.93213},{"name":"Giv‘at H̱ayyim Me’uẖad","country":"IL","lat":32.39171,"lon":34.93115},{"name":"Giv'at Shmuel","country":"IL","lat":32.07817,"lon":34.84858},{"name":"Giv‘at Ye‘arim","country":"IL","lat":31.78653,"lon":35.09182},{"name":"Giv‘ati","country":"IL","lat":31.733,"lon":34.67995},{"name":"Giv'on HaHadasha","country":"IL","lat":31.84927,"lon":35.16106},{"name":"Giv'ot Bar","country":"IL","lat":31.3565,"lon":34.75525},{"name":"Givatayim","country":"IL","lat":32.07225,"lon":34.81253},{"name":"Hadera","country":"IL","lat":32.44192,"lon":34.9039},{"name":"H̱agor","country":"IL","lat":32.13932,"lon":34.94695},{"name":"Haifa","country":"IL","lat":32.81841,"lon":34.9885},{"name":"H̱amam","country":"IL","lat":32.82955,"lon":35.49195},{"name":"Har Adar","country":"IL","lat":31.82754,"lon":35.13093},{"name":"Harduf","country":"IL","lat":32.76342,"lon":35.17469},{"name":"H̱arish","country":"IL","lat":32.46096,"lon":35.0435},{"name":"Hashmonaim","country":"IL","lat":31.92973,"lon":35.0215},{"name":"H̱aspin","country":"IL","lat":32.84571,"lon":35.79295},{"name":"H̱atsor HaGelilit","country":"IL","lat":32.98049,"lon":35.54243},{"name":"HaZore‘im","country":"IL","lat":32.74707,"lon":35.50274},{"name":"H̱emed","country":"IL","lat":32.0159,"lon":34.84284},{"name":"H̱erut","country":"IL","lat":32.24018,"lon":34.91583},{"name":"Herzliya","country":"IL","lat":32.16627,"lon":34.82536},{"name":"Herzliya Pituah","country":"IL","lat":32.17409,"lon":34.8028},{"name":"Hod HaSharon","country":"IL","lat":32.15934,"lon":34.8932},{"name":"H̱olon","country":"IL","lat":32.01034,"lon":34.77918},{"name":"H̱osen","country":"IL","lat":32.99824,"lon":35.29807},{"name":"Hosha‘ya","country":"IL","lat":32.75809,"lon":35.2948},{"name":"H̱ulda","country":"IL","lat":31.83176,"lon":34.88231},{"name":"H̱ura","country":"IL","lat":31.30084,"lon":34.93606},{"name":"Ḥurfeish","country":"IL","lat":33.01711,"lon":35.34835},{"name":"I‘billīn","country":"IL","lat":32.82233,"lon":35.19271},{"name":"Ibṭīn","country":"IL","lat":32.7615,"lon":35.11402},{"name":"Iksāl","country":"IL","lat":32.68164,"lon":35.32365},{"name":"Jaffa","country":"IL","lat":32.05043,"lon":34.75224},{"name":"Jaljūlya","country":"IL","lat":32.1547,"lon":34.95372},{"name":"Jatt","country":"IL","lat":32.39843,"lon":35.03933},{"name":"Jerusalem","country":"IL","lat":31.76904,"lon":35.21633},{"name":"Jīsh","country":"IL","lat":33.02216,"lon":35.44694},{"name":"Jisr ez Zarqā","country":"IL","lat":32.53684,"lon":34.9127},{"name":"Judeida Makr","country":"IL","lat":32.9282,"lon":35.15705},{"name":"Jūlis","country":"IL","lat":32.94267,"lon":35.18278},{"name":"Ka‘abiyya","country":"IL","lat":32.74985,"lon":35.18361},{"name":"Kabri","country":"IL","lat":33.0209,"lon":35.14835},{"name":"Kābūl","country":"IL","lat":32.86856,"lon":35.21171},{"name":"Kadima Zoran","country":"IL","lat":32.27782,"lon":34.9194},{"name":"Kafr Barā","country":"IL","lat":32.13136,"lon":34.97079},{"name":"Kafr Kammā","country":"IL","lat":32.72129,"lon":35.44122},{"name":"Kafr Kannā","country":"IL","lat":32.7466,"lon":35.34242},{"name":"Kafr Mandā","country":"IL","lat":32.81034,"lon":35.26009},{"name":"Kafr Miṣr","country":"IL","lat":32.64521,"lon":35.42147},{"name":"Kafr Qari‘","country":"IL","lat":32.50666,"lon":35.05392},{"name":"Kafr Qāsim","country":"IL","lat":32.11406,"lon":34.97624},{"name":"Kammana","country":"IL","lat":32.91366,"lon":35.35991},{"name":"Kammon","country":"IL","lat":32.90891,"lon":35.36075},{"name":"Karmé Yosef","country":"IL","lat":31.84833,"lon":34.92024},{"name":"Karmi’el","country":"IL","lat":32.91708,"lon":35.30501},{"name":"Katzrin","country":"IL","lat":32.99194,"lon":35.69139},{"name":"Kaukab Abū el Hījā","country":"IL","lat":32.83155,"lon":35.24848},{"name":"Kefar Vitqin","country":"IL","lat":32.38036,"lon":34.87537},{"name":"Kfar Bilu","country":"IL","lat":31.87702,"lon":34.82108},{"name":"Kfar H̱abad","country":"IL","lat":31.98793,"lon":34.8516},{"name":"Kfar HaRo’e","country":"IL","lat":32.39245,"lon":34.91163},{"name":"Kfar Hess","country":"IL","lat":32.24714,"lon":34.93562},{"name":"Kfar H̱ittim","country":"IL","lat":32.79961,"lon":35.50276},{"name":"Kfar Menaẖem","country":"IL","lat":31.73139,"lon":34.83547},{"name":"Kfar NaOranim","country":"IL","lat":31.91982,"lon":35.03669},{"name":"Kfar Netter","country":"IL","lat":32.273,"lon":34.87349},{"name":"Kfar Pines","country":"IL","lat":32.48372,"lon":35.00294},{"name":"Kfar Rosh HaNiqra","country":"IL","lat":33.08607,"lon":35.11348},{"name":"Kfar Saba","country":"IL","lat":32.175,"lon":34.90694},{"name":"Kfar Shmaryahu","country":"IL","lat":32.18529,"lon":34.82082},{"name":"Kfar Syrkin","country":"IL","lat":32.07804,"lon":34.92261},{"name":"Kfar Tavor","country":"IL","lat":32.68655,"lon":35.42118},{"name":"Kfar Veradim","country":"IL","lat":32.99385,"lon":35.27793},{"name":"Kfar Warburg","country":"IL","lat":31.71945,"lon":34.72405},{"name":"Kfar Yasif","country":"IL","lat":32.95451,"lon":35.1623},{"name":"Kfar Yona","country":"IL","lat":32.31669,"lon":34.93507},{"name":"Khirbat Abu Tulūl","country":"IL","lat":31.14229,"lon":34.91424},{"name":"Kiryat Gat","country":"IL","lat":31.60998,"lon":34.76422},{"name":"Kiryat Ono","country":"IL","lat":32.06124,"lon":34.85618},{"name":"Kisra - Sume'a","country":"IL","lat":32.97262,"lon":35.29877},{"name":"Kokhav HaShaẖar","country":"IL","lat":31.96028,"lon":35.34923},{"name":"Kokhav Michael Sobell","country":"IL","lat":31.62804,"lon":34.66904},{"name":"Kokhav Ya’ir","country":"IL","lat":32.22623,"lon":35.00222},{"name":"Kuseifa","country":"IL","lat":31.24535,"lon":35.0931},{"name":"Lahavot H̱aviva","country":"IL","lat":32.39517,"lon":35.00977},{"name":"Lapid","country":"IL","lat":31.91764,"lon":35.03222},{"name":"Laqiyya","country":"IL","lat":31.3185,"lon":34.8589},{"name":"Lehavim","country":"IL","lat":31.37284,"lon":34.81619},{"name":"Li On","country":"IL","lat":31.67744,"lon":34.93464},{"name":"Lod","country":"IL","lat":31.9467,"lon":34.8903},{"name":"Ma‘agan Mikha’el","country":"IL","lat":32.55549,"lon":34.91638},{"name":"Ma‘galim","country":"IL","lat":31.39688,"lon":34.5995},{"name":"Ma’or","country":"IL","lat":32.42306,"lon":35.00513},{"name":"Maale Iron","country":"IL","lat":32.55382,"lon":35.18412},{"name":"maalot Tarshīhā","country":"IL","lat":33.01667,"lon":35.26667},{"name":"Mabbu‘im","country":"IL","lat":31.44965,"lon":34.65477},{"name":"Maggal","country":"IL","lat":32.38506,"lon":35.0368},{"name":"Maghār","country":"IL","lat":32.88984,"lon":35.40703},{"name":"Majd el Kurūm","country":"IL","lat":32.92186,"lon":35.25568},{"name":"Majdal Shams","country":"IL","lat":33.27029,"lon":35.7716},{"name":"Manshīyet Zabda","country":"IL","lat":32.70638,"lon":35.19354},{"name":"Mash‘én","country":"IL","lat":31.65791,"lon":34.62309},{"name":"Matan","country":"IL","lat":32.15856,"lon":34.97413},{"name":"Matsliaẖ","country":"IL","lat":31.90669,"lon":34.87134},{"name":"Matsuva","country":"IL","lat":33.06375,"lon":35.15761},{"name":"Mazkeret Batya","country":"IL","lat":31.85357,"lon":34.84646},{"name":"Mazor","country":"IL","lat":32.05115,"lon":34.92291},{"name":"Mefallesim","country":"IL","lat":31.50125,"lon":34.5637},{"name":"Megadim","country":"IL","lat":32.72815,"lon":34.95631},{"name":"Meisir","country":"IL","lat":32.44445,"lon":35.04134},{"name":"Meitar","country":"IL","lat":31.32726,"lon":34.93855},{"name":"Menaẖemya","country":"IL","lat":32.66662,"lon":35.555},{"name":"Merkaz Shapira","country":"IL","lat":31.69874,"lon":34.70895},{"name":"Mesillat Tsiyyon","country":"IL","lat":31.802,"lon":35.01095},{"name":"Metulla","country":"IL","lat":33.27918,"lon":35.5795},{"name":"Mevasseret Tsiyyon","country":"IL","lat":31.80186,"lon":35.15072},{"name":"Mi‘ilyā","country":"IL","lat":33.02781,"lon":35.25658},{"name":"Midreshet Ben-Gurion","country":"IL","lat":30.85154,"lon":34.7834},{"name":"Migdal","country":"IL","lat":32.8392,"lon":35.50145},{"name":"Migdal Ha‘Emeq","country":"IL","lat":32.67597,"lon":35.23986},{"name":"Mikhmoret","country":"IL","lat":32.40535,"lon":34.87091},{"name":"Mishmar Ha‘Emeq","country":"IL","lat":32.61045,"lon":35.14227},{"name":"Mishmar HaNegev","country":"IL","lat":31.36416,"lon":34.7187},{"name":"Mishmarot","country":"IL","lat":32.48718,"lon":34.98324},{"name":"Mishmeret","country":"IL","lat":32.22818,"lon":34.91835},{"name":"Mitspe Aviv","country":"IL","lat":32.83907,"lon":35.19921},{"name":"Mitspe Netofa","country":"IL","lat":32.80287,"lon":35.38291},{"name":"Mitzpe Ramon","country":"IL","lat":30.60944,"lon":34.80111},{"name":"Miẕpé Yeriẖo","country":"IL","lat":31.81672,"lon":35.39405},{"name":"Modi‘in Makkabbim Re‘ut","country":"IL","lat":31.89385,"lon":35.01504},{"name":"Modiin Ilit","country":"IL","lat":31.93221,"lon":35.04416},{"name":"Moledet","country":"IL","lat":32.58613,"lon":35.44201},{"name":"Moreshet","country":"IL","lat":32.82859,"lon":35.23466},{"name":"Motsa ‘Illit","country":"IL","lat":31.79357,"lon":35.15776},{"name":"Muqeibila","country":"IL","lat":32.51424,"lon":35.29617},{"name":"Muṣmuṣ","country":"IL","lat":32.54358,"lon":35.15619},{"name":"Na'ale","country":"IL","lat":31.96236,"lon":35.06553},{"name":"Na‘an","country":"IL","lat":31.88282,"lon":34.85832},{"name":"Nā‘ūra","country":"IL","lat":32.61403,"lon":35.39168},{"name":"Naẖal Teqoa‘","country":"IL","lat":31.65406,"lon":35.22822},{"name":"Nahariyya","country":"IL","lat":33.00892,"lon":35.09814},{"name":"Naḥf","country":"IL","lat":32.93444,"lon":35.31679},{"name":"Nazareth","country":"IL","lat":32.70056,"lon":35.29722},{"name":"Naẕerat ‘Illit","country":"IL","lat":32.70816,"lon":35.32469},{"name":"Neẖalim","country":"IL","lat":32.06012,"lon":34.91069},{"name":"Nehora","country":"IL","lat":31.62276,"lon":34.70424},{"name":"Neẖusha","country":"IL","lat":31.63064,"lon":34.9531},{"name":"Nein","country":"IL","lat":32.63063,"lon":35.34885},{"name":"Nes Harim","country":"IL","lat":31.74547,"lon":35.0574},{"name":"Nesher","country":"IL","lat":32.76622,"lon":35.04425},{"name":"Ness Ziona","country":"IL","lat":31.92933,"lon":34.79868},{"name":"Netanya","country":"IL","lat":32.33291,"lon":34.85992},{"name":"Netivot","country":"IL","lat":31.42305,"lon":34.58911},{"name":"Nevve Yamin","country":"IL","lat":32.17217,"lon":34.9393},{"name":"Nevve Yaraq","country":"IL","lat":32.13247,"lon":34.92447},{"name":"Nili","country":"IL","lat":31.96396,"lon":35.04853},{"name":"Nir Gallim","country":"IL","lat":31.82542,"lon":34.68282},{"name":"Nir Tsevi","country":"IL","lat":31.95291,"lon":34.86408},{"name":"Niẕẕan","country":"IL","lat":31.73854,"lon":34.62985},{"name":"Niẕẕané ‘Oz","country":"IL","lat":32.306,"lon":35.00374},{"name":"Nof Ayalon","country":"IL","lat":31.87111,"lon":34.99081},{"name":"Nofit","country":"IL","lat":32.76226,"lon":35.1477},{"name":"Nordiyya","country":"IL","lat":32.3147,"lon":34.89617},{"name":"Ofaqim","country":"IL","lat":31.3141,"lon":34.62025},{"name":"Or Akiva","country":"IL","lat":32.5064,"lon":34.92087},{"name":"Or Yehuda","country":"IL","lat":32.02923,"lon":34.85788},{"name":"Ora","country":"IL","lat":31.75519,"lon":35.15613},{"name":"Pardesiyya","country":"IL","lat":32.30577,"lon":34.90911},{"name":"Petaẖ Tiqva","country":"IL","lat":32.08707,"lon":34.88747},{"name":"Poria Illit","country":"IL","lat":32.7319,"lon":35.54635},{"name":"Poriyya","country":"IL","lat":32.74311,"lon":35.53816},{"name":"Qalansuwa","country":"IL","lat":32.28493,"lon":34.98106},{"name":"Qidron","country":"IL","lat":31.81405,"lon":34.79714},{"name":"Qiryat ‘Eqron","country":"IL","lat":31.86119,"lon":34.82275},{"name":"Qiryat Ata","country":"IL","lat":32.81149,"lon":35.11323},{"name":"Qiryat Bialik","country":"IL","lat":32.8275,"lon":35.08583},{"name":"Qiryat Mal’akhi","country":"IL","lat":31.72888,"lon":34.74632},{"name":"Qiryat Motsqin","country":"IL","lat":32.83706,"lon":35.0776},{"name":"Qiryat Shmona","country":"IL","lat":33.20733,"lon":35.57212},{"name":"Qiryat Tiv‘on","country":"IL","lat":32.71618,"lon":35.12494},{"name":"Qiryat Yam","country":"IL","lat":32.84966,"lon":35.06973},{"name":"Qiryat Ye‘arim","country":"IL","lat":31.803,"lon":35.102},{"name":"Ra'anana","country":"IL","lat":32.1836,"lon":34.87386},{"name":"Rahat","country":"IL","lat":31.39547,"lon":34.75699},{"name":"Rama","country":"IL","lat":32.93844,"lon":35.3675},{"name":"Ramat Gan","country":"IL","lat":32.08227,"lon":34.81065},{"name":"Ramat HaKovésh","country":"IL","lat":32.21768,"lon":34.93815},{"name":"Ramat HaSharon","country":"IL","lat":32.14613,"lon":34.8394},{"name":"Ramat HaShofet","country":"IL","lat":32.61102,"lon":35.09472},{"name":"Ramat Yishay","country":"IL","lat":32.70444,"lon":35.1707},{"name":"Ramat Yoẖanan","country":"IL","lat":32.79308,"lon":35.12226},{"name":"Ramla","country":"IL","lat":31.92923,"lon":34.86563},{"name":"Ramot Menashe","country":"IL","lat":32.59784,"lon":35.05656},{"name":"Raqqefet","country":"IL","lat":32.85744,"lon":35.26142},{"name":"Regba","country":"IL","lat":32.97721,"lon":35.09864},{"name":"Reẖovot","country":"IL","lat":31.89421,"lon":34.81199},{"name":"Rekhasim","country":"IL","lat":32.74907,"lon":35.09901},{"name":"Reshafim","country":"IL","lat":32.48126,"lon":35.4762},{"name":"Revava","country":"IL","lat":32.11926,"lon":35.12896},{"name":"Revivim","country":"IL","lat":31.04395,"lon":34.72183},{"name":"Riẖaniya","country":"IL","lat":33.04904,"lon":35.48815},{"name":"Rinnatya","country":"IL","lat":32.04428,"lon":34.9276},{"name":"Rishon LeTsiyyon","country":"IL","lat":31.97102,"lon":34.78939},{"name":"Rishpon","country":"IL","lat":32.20254,"lon":34.82322},{"name":"Rosh Ha‘Ayin","country":"IL","lat":32.09556,"lon":34.95664},{"name":"Rosh Pinna","country":"IL","lat":32.96894,"lon":35.54258},{"name":"Rumat Heib","country":"IL","lat":32.77802,"lon":35.30571},{"name":"Rummāna","country":"IL","lat":32.78783,"lon":35.31091},{"name":"Safed","country":"IL","lat":32.96465,"lon":35.496},{"name":"Sājūr","country":"IL","lat":32.94266,"lon":35.34136},{"name":"Sakhnīn","country":"IL","lat":32.86422,"lon":35.29707},{"name":"Sallama","country":"IL","lat":32.89443,"lon":35.36931},{"name":"Ṣandala","country":"IL","lat":32.52234,"lon":35.32325},{"name":"Savyon","country":"IL","lat":32.04966,"lon":34.8777},{"name":"Sde ‘Uziyyahu","country":"IL","lat":31.75,"lon":34.68333},{"name":"Sde H̱emed","country":"IL","lat":32.16043,"lon":34.94347},{"name":"Sde Neẖemya","country":"IL","lat":33.18756,"lon":35.62235},{"name":"Sde Warburg","country":"IL","lat":32.20361,"lon":34.90722},{"name":"Sde Ya‘aqov","country":"IL","lat":32.69,"lon":35.13861},{"name":"Sderot","country":"IL","lat":31.525,"lon":34.59693},{"name":"Sdot Yam","country":"IL","lat":32.49213,"lon":34.89224},{"name":"Segev","country":"IL","lat":32.86602,"lon":35.25189},{"name":"Segev Shalom","country":"IL","lat":31.19918,"lon":34.83956},{"name":"Sha‘alvim","country":"IL","lat":31.86996,"lon":34.98722},{"name":"Sha‘ar Efrayim","country":"IL","lat":32.29067,"lon":34.9984},{"name":"Sha‘av","country":"IL","lat":32.88943,"lon":35.24093},{"name":"Shave Tsiyyon","country":"IL","lat":32.98098,"lon":35.08331},{"name":"Shefar‘am","country":"IL","lat":32.80583,"lon":35.16895},{"name":"Shefayim","country":"IL","lat":32.21743,"lon":34.82454},{"name":"Shibli","country":"IL","lat":32.69464,"lon":35.39252},{"name":"Shibli–Umm al-Ghanam","country":"IL","lat":32.68395,"lon":35.39621},{"name":"Shimshit","country":"IL","lat":32.73137,"lon":35.24409},{"name":"Shlomi","country":"IL","lat":33.07216,"lon":35.14452},{"name":"Shoham","country":"IL","lat":31.99866,"lon":34.94559},{"name":"Shoresh","country":"IL","lat":31.79711,"lon":35.06525},{"name":"Shtulim","country":"IL","lat":31.77354,"lon":34.68388},{"name":"Sitriyya","country":"IL","lat":31.89238,"lon":34.8438},{"name":"Sūlam","country":"IL","lat":32.60606,"lon":35.33408},{"name":"Taiyiba","country":"IL","lat":32.60415,"lon":35.44483},{"name":"Tal El","country":"IL","lat":32.92825,"lon":35.18128},{"name":"Tal Shaẖar","country":"IL","lat":31.80469,"lon":34.90111},{"name":"Talmon","country":"IL","lat":31.93927,"lon":35.13539},{"name":"Tamra","country":"IL","lat":32.85301,"lon":35.1987},{"name":"Tel ‘Adashim","country":"IL","lat":32.65627,"lon":35.30216},{"name":"Tel Aviv","country":"IL","lat":32.08088,"lon":34.78057},{"name":"Tel Mond","country":"IL","lat":32.24995,"lon":34.91737},{"name":"Tel Qatsir","country":"IL","lat":32.70545,"lon":35.61761},{"name":"Tel Sheva‘","country":"IL","lat":31.24864,"lon":34.86007},{"name":"Tel Yitsẖaq","country":"IL","lat":32.25327,"lon":34.87034},{"name":"Tiberias","country":"IL","lat":32.79221,"lon":35.53124},{"name":"Tifraẖ","country":"IL","lat":31.32657,"lon":34.67689},{"name":"Timrat","country":"IL","lat":32.70302,"lon":35.22359},{"name":"Tirabin al-Sana","country":"IL","lat":31.34479,"lon":34.73867},{"name":"Tirat Karmel","country":"IL","lat":32.76021,"lon":34.97183},{"name":"Tirat Yehuda","country":"IL","lat":32.01392,"lon":34.9342},{"name":"Tselafon","country":"IL","lat":31.80462,"lon":34.9321},{"name":"Tsofit","country":"IL","lat":32.19423,"lon":34.91957},{"name":"Tsrufa","country":"IL","lat":32.64824,"lon":34.94991},{"name":"Tsur Hadassa","country":"IL","lat":31.71912,"lon":35.09708},{"name":"Tsur Itshak","country":"IL","lat":32.24047,"lon":34.99788},{"name":"Tsur Moshe","country":"IL","lat":32.29819,"lon":34.91313},{"name":"Tūbā Zangarīya","country":"IL","lat":32.96606,"lon":35.59304},{"name":"Udim","country":"IL","lat":32.26496,"lon":34.84549},{"name":"Umm Batin","country":"IL","lat":31.27735,"lon":34.88246},{"name":"Umm el Faḥm","country":"IL","lat":32.51725,"lon":35.15349},{"name":"Umm el Quṭūf","country":"IL","lat":32.46718,"lon":35.05811},{"name":"West Jerusalem","country":"IL","lat":31.78199,"lon":35.21961},{"name":"Yad Binyamin","country":"IL","lat":31.7974,"lon":34.82083},{"name":"Yad Rambam","country":"IL","lat":31.89997,"lon":34.90027},{"name":"Yāfā","country":"IL","lat":32.68923,"lon":35.27832},{"name":"Yagur","country":"IL","lat":32.7421,"lon":35.0774},{"name":"Yanuah Jat","country":"IL","lat":32.9798,"lon":35.23806},{"name":"Yanuh-Jat","country":"IL","lat":32.98515,"lon":35.2491},{"name":"Yarẖiv","country":"IL","lat":32.15239,"lon":34.9679},{"name":"Yashresh","country":"IL","lat":31.91481,"lon":34.84911},{"name":"Yavné","country":"IL","lat":31.87808,"lon":34.73983},{"name":"Yavne’el","country":"IL","lat":32.70619,"lon":35.50435},{"name":"Yehud","country":"IL","lat":32.03317,"lon":34.89091},{"name":"Yehud-Monosson","country":"IL","lat":32.0284,"lon":34.8796},{"name":"Yeroẖam","country":"IL","lat":30.98822,"lon":34.93176},{"name":"Yesud HaMa‘ala","country":"IL","lat":33.0592,"lon":35.61033},{"name":"Yif‘at","country":"IL","lat":32.6775,"lon":35.22333},{"name":"Yinnon","country":"IL","lat":31.74199,"lon":34.78229},{"name":"Yirkā","country":"IL","lat":32.95435,"lon":35.21197},{"name":"Yoqne‘am ‘Illit","country":"IL","lat":32.65385,"lon":35.10382},{"name":"Yoqneam","country":"IL","lat":32.65497,"lon":35.11381},{"name":"Yuvallim","country":"IL","lat":32.87756,"lon":35.27031},{"name":"Zalafa","country":"IL","lat":32.54805,"lon":35.1852},{"name":"Zarzir","country":"IL","lat":32.72754,"lon":35.21381},{"name":"Zekharya","country":"IL","lat":31.70927,"lon":34.94488},{"name":"Zemer","country":"IL","lat":32.36658,"lon":35.03312},{"name":"Zetan","country":"IL","lat":31.97534,"lon":34.88928},{"name":"Zikhron Ya‘aqov","country":"IL","lat":32.56645,"lon":34.95628}]