[{"name":"Abashiri","country":"JP","lat":44.02127,"lon":144.26971},{"name":"Abiko","country":"JP","lat":35.86667,"lon":140.01667},{"name":"Abira","country":"JP","lat":42.81667,"lon":141.83333},{"name":"Abu","country":"JP","lat":34.5,"lon":131.46667},{"name":"Agano","country":"JP","lat":37.77392,"lon":139.22192},{"name":"Agano","country":"JP","lat":37.83605,"lon":139.22332},{"name":"Agematsu","country":"JP","lat":35.78461,"lon":137.69268},{"name":"Ageo","country":"JP","lat":35.97145,"lon":139.61382},{"name":"Agui","country":"JP","lat":34.93499,"lon":136.91299},{"name":"Aibetsu","country":"JP","lat":43.90655,"lon":142.57748},{"name":"Aihara","country":"JP","lat":35.6,"lon":139.31667},{"name":"Aioi","country":"JP","lat":34.80361,"lon":134.46806},{"name":"Aira","country":"JP","lat":31.77429,"lon":130.59208},{"name":"Aisai","country":"JP","lat":35.16349,"lon":136.73222},{"name":"Aizu-misato Machi","country":"JP","lat":37.40862,"lon":139.81317},{"name":"Aizu-Wakamatsu","country":"JP","lat":37.49142,"lon":139.94546},{"name":"Ajigasawa","country":"JP","lat":40.77444,"lon":140.20306},{"name":"Ajiki","country":"JP","lat":35.83333,"lon":140.23333},{"name":"Ajima","country":"JP","lat":35.51667,"lon":137.88333},{"name":"Aka","country":"JP","lat":33.59861,"lon":130.87411},{"name":"Akababa","country":"JP","lat":33.09969,"lon":131.07385},{"name":"Akabane","country":"JP","lat":35.78188,"lon":139.72087},{"name":"Akabira","country":"JP","lat":43.55139,"lon":142.05306},{"name":"Akaigawa","country":"JP","lat":43.08333,"lon":140.81722},{"name":"Akaike","country":"JP","lat":33.69189,"lon":130.76531},{"name":"Akaiwa","country":"JP","lat":36.20742,"lon":139.43948},{"name":"Akaiwa","country":"JP","lat":34.80986,"lon":134.02153},{"name":"Akana","country":"JP","lat":35,"lon":132.71667},{"name":"Akaren","country":"JP","lat":28.31667,"lon":129.93333},{"name":"Akasaka","country":"JP","lat":35.67135,"lon":139.73442},{"name":"Akasaka-nakano","country":"JP","lat":37.04725,"lon":140.50194},{"name":"Akashi","country":"JP","lat":34.65524,"lon":135.00687},{"name":"Akatsuka","country":"JP","lat":35.77735,"lon":139.64376},{"name":"Aki","country":"JP","lat":33.5,"lon":133.9},{"name":"Aki-takata","country":"JP","lat":34.67416,"lon":132.68188},{"name":"Akihabara","country":"JP","lat":35.69848,"lon":139.77253},{"name":"Akiruno","country":"JP","lat":35.72854,"lon":139.2318},{"name":"Akishima","country":"JP","lat":35.72085,"lon":139.37999},{"name":"Akita","country":"JP","lat":39.71667,"lon":140.11667},{"name":"Akitsu","country":"JP","lat":35.77419,"lon":139.49052},{"name":"Akkeshi","country":"JP","lat":43.03556,"lon":144.8525},{"name":"Ako","country":"JP","lat":34.75967,"lon":134.37035},{"name":"Akune","country":"JP","lat":32.01667,"lon":130.2},{"name":"Ama","country":"JP","lat":36.09317,"lon":133.09159},{"name":"Ama","country":"JP","lat":35.18307,"lon":136.7997},{"name":"Amagasaki","country":"JP","lat":34.71667,"lon":135.41667},{"name":"Amagi","country":"JP","lat":33.41804,"lon":130.65413},{"name":"Amagi","country":"JP","lat":27.81667,"lon":128.9},{"name":"Amaji","country":"JP","lat":34.99147,"lon":134.75852},{"name":"Amakusa","country":"JP","lat":32.45861,"lon":130.19306},{"name":"Amami","country":"JP","lat":28.3769,"lon":129.49379},{"name":"Ami","country":"JP","lat":36.03333,"lon":140.2},{"name":"Anamizu","country":"JP","lat":37.23333,"lon":136.9},{"name":"Anan","country":"JP","lat":33.91667,"lon":134.65},{"name":"Anjō","country":"JP","lat":34.95828,"lon":137.08054},{"name":"Annaka","country":"JP","lat":36.33011,"lon":138.89585},{"name":"Anpachi","country":"JP","lat":35.33539,"lon":136.66541},{"name":"Aobadai","country":"JP","lat":35.54651,"lon":139.51723},{"name":"Aobadai","country":"JP","lat":35.65149,"lon":139.69301},{"name":"Aoi","country":"JP","lat":35.77432,"lon":139.81654},{"name":"Aoki","country":"JP","lat":36.36865,"lon":138.12565},{"name":"Aomi","country":"JP","lat":35.61893,"lon":139.7791},{"name":"Aomori","country":"JP","lat":40.81667,"lon":140.73333},{"name":"Aoto","country":"JP","lat":35.74974,"lon":139.85405},{"name":"Arai","country":"JP","lat":37.00059,"lon":138.2259},{"name":"Arai","country":"JP","lat":34.68333,"lon":137.56667},{"name":"Arao","country":"JP","lat":32.97888,"lon":130.44572},{"name":"Arashiyama","country":"JP","lat":35.01481,"lon":135.67755},{"name":"Aratokō","country":"JP","lat":38.18444,"lon":140.09306},{"name":"Arida","country":"JP","lat":34.08089,"lon":135.11905},{"name":"Arita","country":"JP","lat":33.18333,"lon":129.9},{"name":"Asagaya-minami","country":"JP","lat":35.70206,"lon":139.63745},{"name":"Asagayakita","country":"JP","lat":35.71091,"lon":139.6372},{"name":"Asago","country":"JP","lat":35.25908,"lon":134.81392},{"name":"Asahi","country":"JP","lat":35.71667,"lon":140.65},{"name":"Asahi","country":"JP","lat":35.97259,"lon":136.12455},{"name":"Asahi","country":"JP","lat":35.03421,"lon":136.66436},{"name":"Asahigaoka","country":"JP","lat":35.73458,"lon":139.67744},{"name":"Asahikawa","country":"JP","lat":43.77063,"lon":142.36489},{"name":"Asahimachi","country":"JP","lat":44.10045,"lon":142.357},{"name":"Asaka","country":"JP","lat":35.80472,"lon":139.60194},{"name":"Asakawa","country":"JP","lat":37.08276,"lon":140.41365},{"name":"Asakuchi","country":"JP","lat":34.53484,"lon":133.60302},{"name":"Asakura","country":"JP","lat":33.41439,"lon":130.71877},{"name":"Asakusa","country":"JP","lat":35.71691,"lon":139.79575},{"name":"Asakusabashi","country":"JP","lat":35.69982,"lon":139.7841},{"name":"Ashibetsu","country":"JP","lat":43.50972,"lon":142.18556},{"name":"Ashida","country":"JP","lat":36.26983,"lon":138.31763},{"name":"Ashigakubo","country":"JP","lat":35.9774,"lon":139.13592},{"name":"Ashikaga","country":"JP","lat":36.33333,"lon":139.45},{"name":"Ashiya","country":"JP","lat":34.72807,"lon":135.30264},{"name":"Ashiya","country":"JP","lat":33.87346,"lon":130.65392},{"name":"Ashoro","country":"JP","lat":43.23722,"lon":143.54278},{"name":"Aso","country":"JP","lat":32.93726,"lon":131.08008},{"name":"Asso","country":"JP","lat":33.7,"lon":135.41667},{"name":"Asuka","country":"JP","lat":34.48085,"lon":135.82039},{"name":"Atami","country":"JP","lat":35.08834,"lon":139.05325},{"name":"Aterazawa","country":"JP","lat":38.38431,"lon":140.21189},{"name":"Atsugi","country":"JP","lat":35.44272,"lon":139.36931},{"name":"Awa","country":"JP","lat":34.09205,"lon":134.28452},{"name":"Awaji","country":"JP","lat":34.47769,"lon":134.93065},{"name":"Awano","country":"JP","lat":35.35,"lon":137.8},{"name":"Awara","country":"JP","lat":36.22309,"lon":136.19236},{"name":"Aya","country":"JP","lat":31.98333,"lon":131.26667},{"name":"Ayabe","country":"JP","lat":35.3,"lon":135.25},{"name":"Ayase","country":"JP","lat":35.43515,"lon":139.4256},{"name":"Azabu-jūban","country":"JP","lat":35.65597,"lon":139.73534},{"name":"Azumino","country":"JP","lat":36.28815,"lon":137.88705},{"name":"Bandō","country":"JP","lat":36.06997,"lon":139.86705},{"name":"Bange","country":"JP","lat":37.56444,"lon":139.82178},{"name":"Banshō","country":"JP","lat":36,"lon":139.3},{"name":"Baraki","country":"JP","lat":35.69798,"lon":139.95117},{"name":"Beppu","country":"JP","lat":33.27945,"lon":131.49751},{"name":"Bibai","country":"JP","lat":43.32472,"lon":141.85861},{"name":"Biei","country":"JP","lat":43.58444,"lon":142.45972},{"name":"Bifuka","country":"JP","lat":44.47528,"lon":142.34306},{"name":"Biratori","country":"JP","lat":42.58333,"lon":142.13333},{"name":"Bizen","country":"JP","lat":34.78674,"lon":134.23542},{"name":"Bōjo","country":"JP","lat":33.32007,"lon":130.42222},{"name":"Bungo-ōno","country":"JP","lat":32.97152,"lon":131.52832},{"name":"Bungo-Takada-shi","country":"JP","lat":33.5567,"lon":131.44506},{"name":"Buzen","country":"JP","lat":33.61153,"lon":131.13002},{"name":"Buzō","country":"JP","lat":35.84083,"lon":139.6711},{"name":"Chabana","country":"JP","lat":27.04873,"lon":128.4182},{"name":"Chatan","country":"JP","lat":26.30948,"lon":127.77024},{"name":"Chiba","country":"JP","lat":35.6,"lon":140.11667},{"name":"Chichibu","country":"JP","lat":35.99028,"lon":139.07639},{"name":"Chigasaki","country":"JP","lat":35.33638,"lon":139.40434},{"name":"Chikugo","country":"JP","lat":33.20537,"lon":130.49183},{"name":"Chikuma","country":"JP","lat":36.52715,"lon":138.08943},{"name":"Chikusei","country":"JP","lat":36.316,"lon":139.98238},{"name":"Chikushino-shi","country":"JP","lat":33.49631,"lon":130.5156},{"name":"China","country":"JP","lat":27.33333,"lon":128.56667},{"name":"Chino","country":"JP","lat":35.9944,"lon":138.15428},{"name":"Chippubetsu","country":"JP","lat":43.76667,"lon":141.96667},{"name":"Chiryū","country":"JP","lat":35,"lon":137.03333},{"name":"Chita","country":"JP","lat":35.00267,"lon":136.8642},{"name":"Chitose","country":"JP","lat":42.81944,"lon":141.65222},{"name":"Chizu","country":"JP","lat":35.26667,"lon":134.23333},{"name":"Chōfu","country":"JP","lat":35.65924,"lon":139.54837},{"name":"Chōnan","country":"JP","lat":35.39701,"lon":140.23503},{"name":"Choshi","country":"JP","lat":35.73333,"lon":140.83333},{"name":"Chūō","country":"JP","lat":35.59465,"lon":138.50275},{"name":"Daiba","country":"JP","lat":35.62772,"lon":139.77326},{"name":"Daigo","country":"JP","lat":36.76667,"lon":140.35},{"name":"Daigyōji","country":"JP","lat":33.59811,"lon":130.85118},{"name":"Daikan’yamachō","country":"JP","lat":35.65125,"lon":139.70502},{"name":"Daisen","country":"JP","lat":39.44116,"lon":140.48961},{"name":"Daitō","country":"JP","lat":34.71378,"lon":135.62033},{"name":"Daitōchō","country":"JP","lat":34.71542,"lon":135.62012},{"name":"Date","country":"JP","lat":37.81667,"lon":140.5},{"name":"Date","country":"JP","lat":42.46806,"lon":140.86806},{"name":"Dazaifu","country":"JP","lat":33.51278,"lon":130.52389},{"name":"Den’enchōfu","country":"JP","lat":35.59548,"lon":139.66535},{"name":"Dōjō","country":"JP","lat":35.85612,"lon":139.61314},{"name":"Dorosaki","country":"JP","lat":36.76955,"lon":137.90358},{"name":"Ebara","country":"JP","lat":35.61298,"lon":139.70315},{"name":"Ebetsu","country":"JP","lat":43.10806,"lon":141.55056},{"name":"Ebi","country":"JP","lat":35.28172,"lon":133.4871},{"name":"Ebie","country":"JP","lat":34.69717,"lon":135.47112},{"name":"Ebina","country":"JP","lat":35.38121,"lon":139.39651},{"name":"Ebina","country":"JP","lat":35.43417,"lon":139.39419},{"name":"Ebino","country":"JP","lat":32.04766,"lon":130.84442},{"name":"Ebisu","country":"JP","lat":35.64595,"lon":139.7155},{"name":"Echigawa","country":"JP","lat":35.16667,"lon":136.2},{"name":"Echizen","country":"JP","lat":35.88571,"lon":136.17073},{"name":"Edosaki","country":"JP","lat":35.95,"lon":140.31667},{"name":"Egota","country":"JP","lat":35.72552,"lon":139.66516},{"name":"Eifuku","country":"JP","lat":35.6755,"lon":139.63992},{"name":"Ena","country":"JP","lat":35.44722,"lon":137.38332},{"name":"Engaru","country":"JP","lat":44.0481,"lon":143.54548},{"name":"Eniwa","country":"JP","lat":42.89357,"lon":141.576},{"name":"Enokichō","country":"JP","lat":35.4304,"lon":139.61363},{"name":"Enzan","country":"JP","lat":35.7,"lon":138.73333},{"name":"Erimo","country":"JP","lat":42.01595,"lon":143.14853},{"name":"Esashi","country":"JP","lat":44.93528,"lon":142.58472},{"name":"Etajima","country":"JP","lat":34.23863,"lon":132.47967},{"name":"Etchūjima","country":"JP","lat":35.66676,"lon":139.79448},{"name":"Fuchū","country":"JP","lat":35.67452,"lon":139.48216},{"name":"Fuchū","country":"JP","lat":34.38793,"lon":132.51001},{"name":"Fuchūchō","country":"JP","lat":34.5735,"lon":133.23513},{"name":"Fudaba","country":"JP","lat":33.45,"lon":133.2},{"name":"Fudai","country":"JP","lat":40,"lon":141.88333},{"name":"Fuefuki","country":"JP","lat":35.63526,"lon":138.63853},{"name":"Fuji","country":"JP","lat":35.16667,"lon":138.68333},{"name":"Fuji-yoshida","country":"JP","lat":35.48486,"lon":138.81123},{"name":"Fujieda","country":"JP","lat":34.86667,"lon":138.26667},{"name":"Fujiidera","country":"JP","lat":34.5676,"lon":135.5974},{"name":"Fujikawaguchiko","country":"JP","lat":35.48933,"lon":138.68832},{"name":"Fujikoto","country":"JP","lat":40.28079,"lon":140.26257},{"name":"Fujimi","country":"JP","lat":35.90087,"lon":138.25041},{"name":"Fujimi","country":"JP","lat":35.84815,"lon":139.55521},{"name":"Fujimino","country":"JP","lat":35.90196,"lon":139.52489},{"name":"Fujimino","country":"JP","lat":35.86142,"lon":139.51532},{"name":"Fujinomiya","country":"JP","lat":35.21667,"lon":138.61667},{"name":"Fujioka","country":"JP","lat":36.25,"lon":139.65},{"name":"Fujioka","country":"JP","lat":36.24624,"lon":139.07204},{"name":"Fujisaki","country":"JP","lat":40.65314,"lon":140.49961},{"name":"Fujisato","country":"JP","lat":35.05638,"lon":136.7447},{"name":"Fujisawa","country":"JP","lat":35.34926,"lon":139.47666},{"name":"Fujishiro","country":"JP","lat":35.91667,"lon":140.11667},{"name":"Fujita","country":"JP","lat":37.8781,"lon":140.55332},{"name":"Fujiyoshida","country":"JP","lat":35.44032,"lon":138.79586},{"name":"Fukagawa","country":"JP","lat":43.70806,"lon":142.03917},{"name":"Fukaura","country":"JP","lat":40.64131,"lon":139.93202},{"name":"Fukawa","country":"JP","lat":35.85,"lon":140.15},{"name":"Fukaya","country":"JP","lat":36.1771,"lon":139.26029},{"name":"Fukayachō","country":"JP","lat":36.2,"lon":139.28333},{"name":"Fuke","country":"JP","lat":34.31581,"lon":135.14713},{"name":"Fuki","country":"JP","lat":34.62996,"lon":135.69643},{"name":"Fukiage-fujimi","country":"JP","lat":36.1,"lon":139.45},{"name":"Fukuchiyama","country":"JP","lat":35.3,"lon":135.11667},{"name":"Fukuechō","country":"JP","lat":32.69732,"lon":128.84561},{"name":"Fukui-shi","country":"JP","lat":36.06443,"lon":136.22257},{"name":"Fukumitsu","country":"JP","lat":36.55751,"lon":136.86945},{"name":"Fukuoka","country":"JP","lat":33.6,"lon":130.41667},{"name":"Fukura","country":"JP","lat":34.25765,"lon":134.71535},{"name":"Fukuroi","country":"JP","lat":34.75,"lon":137.91667},{"name":"Fukushima","country":"JP","lat":37.75,"lon":140.46667},{"name":"Fukushima","country":"JP","lat":41.48031,"lon":140.25267},{"name":"Fukutsu","country":"JP","lat":33.783,"lon":130.49114},{"name":"Fukuyama","country":"JP","lat":34.48333,"lon":133.36667},{"name":"Funabashi","country":"JP","lat":36.7053,"lon":137.311},{"name":"Funabashi","country":"JP","lat":35.72045,"lon":140.01148},{"name":"Funabori","country":"JP","lat":35.6821,"lon":139.86641},{"name":"Funado","country":"JP","lat":35.79406,"lon":139.68111},{"name":"Funagata","country":"JP","lat":38.68889,"lon":140.31944},{"name":"Funagatōge","country":"JP","lat":32.91667,"lon":132.83333},{"name":"Funagoshi","country":"JP","lat":36.10533,"lon":133.00928},{"name":"Funaishikawa","country":"JP","lat":36.46667,"lon":140.56667},{"name":"Funama","country":"JP","lat":43.29028,"lon":140.60056},{"name":"Funehikimachi-funehiki","country":"JP","lat":37.44722,"lon":140.5771},{"name":"Furano","country":"JP","lat":43.35,"lon":142.38333},{"name":"Furubira","country":"JP","lat":43.27333,"lon":140.6375},{"name":"Furudate","country":"JP","lat":40.52934,"lon":141.30553},{"name":"Furukamaya","country":"JP","lat":41.51132,"lon":140.96255},{"name":"Furukawa","country":"JP","lat":38.57167,"lon":140.95556},{"name":"Furukawamen","country":"JP","lat":33.24253,"lon":129.6501},{"name":"Furukuchi","country":"JP","lat":38.73583,"lon":140.13833},{"name":"Furuya-hongō","country":"JP","lat":35.90527,"lon":139.54034},{"name":"Fushimi","country":"JP","lat":35.11426,"lon":138.89742},{"name":"Fusō","country":"JP","lat":35.35782,"lon":136.90983},{"name":"Fussa","country":"JP","lat":35.73667,"lon":139.32361},{"name":"Futaba","country":"JP","lat":35.60463,"lon":139.72225},{"name":"Futtsu","country":"JP","lat":35.3108,"lon":139.81877},{"name":"Fuyugi","country":"JP","lat":36.09644,"lon":139.74531},{"name":"Gamagōri","country":"JP","lat":34.83333,"lon":137.23333},{"name":"Gamō","country":"JP","lat":35.86514,"lon":139.80186},{"name":"Gero","country":"JP","lat":35.8,"lon":137.23333},{"name":"Gifu","country":"JP","lat":35.42291,"lon":136.76039},{"name":"Ginan","country":"JP","lat":35.38834,"lon":136.78483},{"name":"Ginowan","country":"JP","lat":26.26265,"lon":127.76147},{"name":"Ginoza","country":"JP","lat":26.4829,"lon":127.97779},{"name":"Ginza","country":"JP","lat":35.67184,"lon":139.76717},{"name":"Gion","country":"JP","lat":34.43333,"lon":132.46667},{"name":"Gobō","country":"JP","lat":33.88153,"lon":135.1696},{"name":"Gōdo","country":"JP","lat":35.41667,"lon":136.6},{"name":"Gohyakkoku","country":"JP","lat":36.66411,"lon":137.31665},{"name":"Gojō","country":"JP","lat":34.35,"lon":135.7},{"name":"Gojōnome","country":"JP","lat":39.93333,"lon":140.11667},{"name":"Gose","country":"JP","lat":34.45,"lon":135.73333},{"name":"Gosen","country":"JP","lat":37.73333,"lon":139.16667},{"name":"Goshogawara","country":"JP","lat":40.80444,"lon":140.44139},{"name":"Gotemba","country":"JP","lat":35.31859,"lon":138.94343},{"name":"Gotō","country":"JP","lat":32.68418,"lon":128.8068},{"name":"Gōtokuji","country":"JP","lat":35.65028,"lon":139.64727},{"name":"Gōtsuchō","country":"JP","lat":35.00856,"lon":132.2257},{"name":"Gujō","country":"JP","lat":35.73691,"lon":136.95852},{"name":"Gushikawa","country":"JP","lat":26.35937,"lon":127.86735},{"name":"Gyōda","country":"JP","lat":36.14074,"lon":139.46011},{"name":"Habikino","country":"JP","lat":34.55276,"lon":135.59097},{"name":"Haboro","country":"JP","lat":44.35778,"lon":141.70222},{"name":"Hachijō","country":"JP","lat":33.10276,"lon":139.7788},{"name":"Hachimantai","country":"JP","lat":39.89979,"lon":141.12989},{"name":"Hachinohe","country":"JP","lat":40.5,"lon":141.5},{"name":"Hachiōji","country":"JP","lat":35.65583,"lon":139.32389},{"name":"Hachirougata","country":"JP","lat":39.93333,"lon":140.08333},{"name":"Hadano","country":"JP","lat":35.37111,"lon":139.22361},{"name":"Hagi","country":"JP","lat":34.4,"lon":131.41667},{"name":"Haibara-akanedai","country":"JP","lat":34.53333,"lon":135.95},{"name":"Hakodate","country":"JP","lat":41.77583,"lon":140.73667},{"name":"Hakone","country":"JP","lat":35.18945,"lon":139.02649},{"name":"Hakonegasaki","country":"JP","lat":35.76944,"lon":139.35111},{"name":"Hakuba","country":"JP","lat":36.69818,"lon":137.86185},{"name":"Hakui","country":"JP","lat":36.88333,"lon":136.78333},{"name":"Hakuraku","country":"JP","lat":35.48926,"lon":139.62798},{"name":"Hakurōmachi","country":"JP","lat":40.52352,"lon":141.30613},{"name":"Hakusan","country":"JP","lat":36.48204,"lon":136.58684},{"name":"Hamada","country":"JP","lat":34.88333,"lon":132.08333},{"name":"Hamaikawa","country":"JP","lat":39.91362,"lon":140.07422},{"name":"Hamakita","country":"JP","lat":34.8,"lon":137.78333},{"name":"Hamamatsu","country":"JP","lat":34.7,"lon":137.73333},{"name":"Hamamatsuchō","country":"JP","lat":35.65545,"lon":139.75547},{"name":"Hamanaka-sakuraminami","country":"JP","lat":43.15343,"lon":145.10253},{"name":"Hamanoichi","country":"JP","lat":31.71667,"lon":130.73333},{"name":"Hamanose","country":"JP","lat":33.88333,"lon":135.15},{"name":"Hamasaka","country":"JP","lat":35.61667,"lon":134.45},{"name":"Hamatonbetsu","country":"JP","lat":45.13333,"lon":142.38333},{"name":"Hamura","country":"JP","lat":35.76232,"lon":139.31952},{"name":"Hanamaki","country":"JP","lat":39.38333,"lon":141.11667},{"name":"Hanawa","country":"JP","lat":36.94727,"lon":140.41646},{"name":"Hanawa","country":"JP","lat":40.18361,"lon":140.78722},{"name":"Handa","country":"JP","lat":34.88333,"lon":136.93333},{"name":"Haneda","country":"JP","lat":35.54913,"lon":139.7456},{"name":"Hannan","country":"JP","lat":34.33333,"lon":135.25},{"name":"Hannō","country":"JP","lat":35.85194,"lon":139.31806},{"name":"Hanyū","country":"JP","lat":36.16667,"lon":139.53333},{"name":"Hara","country":"JP","lat":35.96667,"lon":138.55},{"name":"Hara","country":"JP","lat":34.04296,"lon":133.92684},{"name":"Hara-machida","country":"JP","lat":35.53333,"lon":139.45},{"name":"Harai","country":"JP","lat":33.52393,"lon":131.16508},{"name":"Haramachi","country":"JP","lat":36.57273,"lon":138.82639},{"name":"Haramachi","country":"JP","lat":33.77037,"lon":132.78977},{"name":"Hario","country":"JP","lat":36.11961,"lon":137.84278},{"name":"Haruta","country":"JP","lat":35.1422,"lon":136.8121},{"name":"Hasaki","country":"JP","lat":35.73333,"lon":140.83333},{"name":"Hashima","country":"JP","lat":35.329,"lon":136.68051},{"name":"Hashimoto","country":"JP","lat":34.31667,"lon":135.61667},{"name":"Hasuda","country":"JP","lat":35.97113,"lon":139.6491},{"name":"Hasune","country":"JP","lat":35.78302,"lon":139.67556},{"name":"Hatchō-muta","country":"JP","lat":33.21071,"lon":130.43386},{"name":"Hatchōbori","country":"JP","lat":35.67533,"lon":139.77529},{"name":"Hatogaya-honchō","country":"JP","lat":35.83314,"lon":139.7425},{"name":"Hatoyama","country":"JP","lat":35.98146,"lon":139.33411},{"name":"Hatsudai","country":"JP","lat":35.67729,"lon":139.68588},{"name":"Hatsukaichi","country":"JP","lat":34.35,"lon":132.33333},{"name":"Hayakawa","country":"JP","lat":35.45,"lon":138.35},{"name":"Hayakawa","country":"JP","lat":35.24187,"lon":139.14247},{"name":"Hayama","country":"JP","lat":35.27651,"lon":139.57733},{"name":"Hayashima","country":"JP","lat":34.60388,"lon":133.82947},{"name":"Hayashino","country":"JP","lat":35,"lon":134.15},{"name":"Heda","country":"JP","lat":34.96277,"lon":138.78543},{"name":"Heian","country":"JP","lat":35.1947,"lon":136.9307},{"name":"Heiwadai","country":"JP","lat":35.75762,"lon":139.65984},{"name":"Hekinan","country":"JP","lat":34.88333,"lon":136.98333},{"name":"Hibarigaoka","country":"JP","lat":35.74524,"lon":139.53611},{"name":"Hida","country":"JP","lat":36.24483,"lon":137.17323},{"name":"Hidaka","country":"JP","lat":35.91664,"lon":139.36233},{"name":"Hidaka","country":"JP","lat":33.53489,"lon":133.37336},{"name":"Hiezu","country":"JP","lat":35.44021,"lon":133.38079},{"name":"Higashi-Matsuyama","country":"JP","lat":36.03333,"lon":139.41667},{"name":"Higashi-nihombashi","country":"JP","lat":35.69322,"lon":139.78628},{"name":"Higashiando","country":"JP","lat":34.60945,"lon":135.7571},{"name":"Higashichichibu","country":"JP","lat":36.05815,"lon":139.19461},{"name":"Higashidate","country":"JP","lat":36.86667,"lon":140.43333},{"name":"Higashiemi","country":"JP","lat":35.06438,"lon":140.06167},{"name":"HIgashifushimi","country":"JP","lat":35.72525,"lon":139.56031},{"name":"Higashigō","country":"JP","lat":33.19081,"lon":130.13804},{"name":"Higashigotanda","country":"JP","lat":35.62506,"lon":139.72841},{"name":"Higashihiroshima","country":"JP","lat":34.40861,"lon":132.73682},{"name":"Higashikagawa","country":"JP","lat":34.21024,"lon":134.33653},{"name":"Higashikagura","country":"JP","lat":43.69663,"lon":142.45143},{"name":"Higashikanagawa","country":"JP","lat":35.47886,"lon":139.63747},{"name":"Higashikawa","country":"JP","lat":43.69898,"lon":142.51031},{"name":"Higashikurume","country":"JP","lat":35.75202,"lon":139.51169},{"name":"Higashimatsushima","country":"JP","lat":38.40886,"lon":141.17901},{"name":"Higashimorichō","country":"JP","lat":42.10961,"lon":140.59923},{"name":"Higashimurayama","country":"JP","lat":35.75459,"lon":139.46852},{"name":"Higashinaka","country":"JP","lat":34.01942,"lon":135.18453},{"name":"Higashine","country":"JP","lat":38.43889,"lon":140.40056},{"name":"Higashinozoe","country":"JP","lat":34.7175,"lon":134.88162},{"name":"Higashiōmi","country":"JP","lat":35.1039,"lon":136.26274},{"name":"Higashiosaka","country":"JP","lat":34.66667,"lon":135.58333},{"name":"Higashiyamato","country":"JP","lat":35.76298,"lon":139.44575},{"name":"Higashiyamato","country":"JP","lat":35.75052,"lon":139.42959},{"name":"Hiji","country":"JP","lat":33.37081,"lon":131.53025},{"name":"Hikari","country":"JP","lat":33.955,"lon":131.95},{"name":"Hikarigaoka","country":"JP","lat":35.75739,"lon":139.62727},{"name":"Hikawa","country":"JP","lat":35.8,"lon":139.1},{"name":"Hikawadai","country":"JP","lat":35.75512,"lon":139.66758},{"name":"Hikiji","country":"JP","lat":33.22912,"lon":131.17965},{"name":"Hikiso","country":"JP","lat":34.54416,"lon":135.7382},{"name":"Hikone","country":"JP","lat":35.25,"lon":136.25},{"name":"Himeji","country":"JP","lat":34.81667,"lon":134.7},{"name":"Himi","country":"JP","lat":36.84666,"lon":136.98355},{"name":"Himimachi","country":"JP","lat":36.85609,"lon":136.9885},{"name":"Hino","country":"JP","lat":35.67306,"lon":139.40028},{"name":"Hino","country":"JP","lat":35,"lon":136.25},{"name":"Hinokage","country":"JP","lat":32.65,"lon":131.4},{"name":"Hioki","country":"JP","lat":31.58333,"lon":130.35},{"name":"Hirado","country":"JP","lat":33.36853,"lon":129.55247},{"name":"Hiragi","country":"JP","lat":34.2706,"lon":134.13074},{"name":"Hirai","country":"JP","lat":35.70768,"lon":139.8425},{"name":"Hirakata","country":"JP","lat":34.81352,"lon":135.64914},{"name":"Hirakawa","country":"JP","lat":40.58728,"lon":140.57107},{"name":"Hiranai","country":"JP","lat":40.92028,"lon":140.95556},{"name":"Hirao","country":"JP","lat":33.93833,"lon":132.07167},{"name":"Hirao","country":"JP","lat":36.74655,"lon":138.41858},{"name":"Hirara","country":"JP","lat":24.80379,"lon":125.30222},{"name":"Hiratachō","country":"JP","lat":35.43333,"lon":132.81667},{"name":"Hiratsuka","country":"JP","lat":35.32785,"lon":139.33735},{"name":"Hirobaba","country":"JP","lat":36.42308,"lon":138.96974},{"name":"Hirokawa","country":"JP","lat":33.24293,"lon":130.55212},{"name":"Hiromi","country":"JP","lat":32.83333,"lon":132.71667},{"name":"Hiroo","country":"JP","lat":42.28234,"lon":143.29765},{"name":"Hirosaki","country":"JP","lat":40.59306,"lon":140.4725},{"name":"Hiroshima","country":"JP","lat":34.4,"lon":132.45},{"name":"Hisai-motomachi","country":"JP","lat":34.66667,"lon":136.46667},{"name":"Hita","country":"JP","lat":33.3213,"lon":130.94098},{"name":"Hitachi","country":"JP","lat":36.6,"lon":140.65},{"name":"Hitachi-Naka","country":"JP","lat":36.39659,"lon":140.53479},{"name":"Hitachi-ota","country":"JP","lat":36.5513,"lon":140.52821},{"name":"Hitachiomiya","country":"JP","lat":36.56447,"lon":140.40269},{"name":"Hitokawame","country":"JP","lat":40.63593,"lon":141.4448},{"name":"Hitoto","country":"JP","lat":36.98583,"lon":136.9033},{"name":"Hitoyoshi","country":"JP","lat":32.21667,"lon":130.75},{"name":"Hiwasaura","country":"JP","lat":33.73255,"lon":134.53743},{"name":"Hizume","country":"JP","lat":39.55,"lon":141.16667},{"name":"Hobaramachi","country":"JP","lat":37.81667,"lon":140.55},{"name":"Hōdatsushimizu","country":"JP","lat":36.86278,"lon":136.79753},{"name":"Hōfu","country":"JP","lat":34.05,"lon":131.56667},{"name":"Hōji","country":"JP","lat":33.91667,"lon":134.41667},{"name":"Hōjō","country":"JP","lat":33.97661,"lon":132.77767},{"name":"Hokota","country":"JP","lat":36.15,"lon":140.51667},{"name":"Hokuryū","country":"JP","lat":43.78333,"lon":141.91667},{"name":"Hokuto","country":"JP","lat":41.81626,"lon":140.63472},{"name":"Hokuto","country":"JP","lat":35.83458,"lon":138.39606},{"name":"Honchō","country":"JP","lat":35.70129,"lon":139.98648},{"name":"Honchō","country":"JP","lat":42.81094,"lon":143.65349},{"name":"Honchō","country":"JP","lat":43.70389,"lon":144.02111},{"name":"Honchō","country":"JP","lat":42.12841,"lon":142.91785},{"name":"Honchō","country":"JP","lat":41.8944,"lon":140.69386},{"name":"Hondomachi-hondo","country":"JP","lat":32.45993,"lon":130.16713},{"name":"Hongō","country":"JP","lat":35.48206,"lon":135.61935},{"name":"Hongō","country":"JP","lat":35.06667,"lon":137.7},{"name":"Hongō","country":"JP","lat":35.41796,"lon":140.35283},{"name":"Honjō","country":"JP","lat":36.2378,"lon":139.19023},{"name":"Honjō","country":"JP","lat":31.98333,"lon":131.33333},{"name":"Honmachi","country":"JP","lat":32.50439,"lon":130.59952},{"name":"Honmachi","country":"JP","lat":43.91145,"lon":144.66737},{"name":"Honmura","country":"JP","lat":34.46078,"lon":133.99717},{"name":"Horikiri","country":"JP","lat":35.74582,"lon":139.82737},{"name":"Horikoshi","country":"JP","lat":34.4575,"lon":134.30126},{"name":"Horokanai","country":"JP","lat":44.01173,"lon":142.15157},{"name":"Horomui","country":"JP","lat":43.06667,"lon":141.65},{"name":"Horonobe","country":"JP","lat":45.01694,"lon":141.85139},{"name":"Hōryūji","country":"JP","lat":34.61234,"lon":135.73754},{"name":"Hōshakuji","country":"JP","lat":36.63333,"lon":139.98333},{"name":"Hotaka","country":"JP","lat":36.3396,"lon":137.88254},{"name":"Hyūga","country":"JP","lat":32.42272,"lon":131.64093},{"name":"Ibara","country":"JP","lat":34.6,"lon":133.46667},{"name":"Ibaraki","country":"JP","lat":34.81641,"lon":135.56828},{"name":"Ibi","country":"JP","lat":35.48333,"lon":136.56667},{"name":"Ibusuki","country":"JP","lat":31.23333,"lon":130.65},{"name":"Ichiba","country":"JP","lat":35.55,"lon":138.05},{"name":"Ichiba","country":"JP","lat":35.55,"lon":137.9},{"name":"Ichigaya-honmurachō","country":"JP","lat":35.69437,"lon":139.72857},{"name":"Ichihara","country":"JP","lat":35.51667,"lon":140.08333},{"name":"Ichikai","country":"JP","lat":36.5433,"lon":140.10204},{"name":"Ichikawa","country":"JP","lat":35.73413,"lon":139.9065},{"name":"Ichikawa-minami","country":"JP","lat":35.72634,"lon":139.90392},{"name":"Ichikawadaimon","country":"JP","lat":35.56667,"lon":138.5},{"name":"Ichikikushikino","country":"JP","lat":31.72934,"lon":130.29305},{"name":"Ichinoe","country":"JP","lat":35.69137,"lon":139.88254},{"name":"Ichinohe","country":"JP","lat":40.21965,"lon":141.28986},{"name":"Ichinomiya","country":"JP","lat":35.3,"lon":136.8},{"name":"Ichinomiya","country":"JP","lat":35.37211,"lon":140.37998},{"name":"Ichinoseki","country":"JP","lat":38.91667,"lon":141.13333},{"name":"Ide","country":"JP","lat":37.29295,"lon":140.98432},{"name":"Ide","country":"JP","lat":34.79965,"lon":135.81247},{"name":"Idogaya-kamimachi","country":"JP","lat":35.43103,"lon":139.59923},{"name":"Ie","country":"JP","lat":26.70972,"lon":127.80917},{"name":"Iga","country":"JP","lat":34.75797,"lon":136.13468},{"name":"Igusa","country":"JP","lat":35.96667,"lon":139.46667},{"name":"Igusa","country":"JP","lat":35.72718,"lon":139.61758},{"name":"Iheya","country":"JP","lat":27.01896,"lon":127.97437},{"name":"Iida","country":"JP","lat":35.51965,"lon":137.82074},{"name":"Iidabashi","country":"JP","lat":35.70019,"lon":139.74888},{"name":"Iijima","country":"JP","lat":35.66667,"lon":137.93333},{"name":"Iijima","country":"JP","lat":36.09005,"lon":136.35994},{"name":"Iitomi","country":"JP","lat":35.43333,"lon":138.43333},{"name":"Iiyama","country":"JP","lat":36.85,"lon":138.36667},{"name":"Iizakamachi","country":"JP","lat":37.83333,"lon":140.45},{"name":"Iizuka","country":"JP","lat":33.63654,"lon":130.68678},{"name":"Ijūin","country":"JP","lat":31.61667,"lon":130.4},{"name":"Ikaruga","country":"JP","lat":34.83475,"lon":134.57803},{"name":"Ikata-chō","country":"JP","lat":33.48833,"lon":132.35417},{"name":"Ikatagoshi","country":"JP","lat":33.50175,"lon":132.34217},{"name":"Ikebukuro","country":"JP","lat":35.73681,"lon":139.70711},{"name":"Ikeda","country":"JP","lat":36.41667,"lon":137.88333},{"name":"Ikeda","country":"JP","lat":34.82208,"lon":135.4298},{"name":"Ikeda","country":"JP","lat":42.92139,"lon":143.45194},{"name":"Ikeda","country":"JP","lat":35.89211,"lon":136.34153},{"name":"Ikedachō","country":"JP","lat":34.02849,"lon":133.80616},{"name":"Ikegami","country":"JP","lat":35.57667,"lon":139.70517},{"name":"Ikegawa","country":"JP","lat":33.6,"lon":133.18333},{"name":"Ikeno","country":"JP","lat":35.43333,"lon":136.58333},{"name":"Iki","country":"JP","lat":33.78286,"lon":129.7209},{"name":"Ikoma","country":"JP","lat":34.68333,"lon":135.7},{"name":"Ikutora","country":"JP","lat":43.15556,"lon":142.57056},{"name":"Imabari","country":"JP","lat":34.07001,"lon":133.00023},{"name":"Imabetsu","country":"JP","lat":41.175,"lon":140.48444},{"name":"Imagane","country":"JP","lat":42.42306,"lon":140.00861},{"name":"Imai","country":"JP","lat":34.51324,"lon":136.12393},{"name":"Imaichi","country":"JP","lat":36.71667,"lon":139.68333},{"name":"Imari","country":"JP","lat":33.29036,"lon":129.88998},{"name":"Imarichō-kō","country":"JP","lat":33.27362,"lon":129.87877},{"name":"Imizu","country":"JP","lat":36.76835,"lon":137.12572},{"name":"Ina","country":"JP","lat":35.82756,"lon":137.95378},{"name":"Inabe","country":"JP","lat":35.11344,"lon":136.57205},{"name":"Inada","country":"JP","lat":36.43333,"lon":140.51667},{"name":"Inagi","country":"JP","lat":35.63295,"lon":139.49967},{"name":"Inakadate","country":"JP","lat":40.63096,"lon":140.55471},{"name":"Inami","country":"JP","lat":33.80914,"lon":135.22052},{"name":"Inami","country":"JP","lat":34.74807,"lon":134.91284},{"name":"Inashiki","country":"JP","lat":35.95633,"lon":140.32356},{"name":"Inatori","country":"JP","lat":34.77574,"lon":139.04087},{"name":"Inawashiro","country":"JP","lat":37.56667,"lon":140.11667},{"name":"Inazawa","country":"JP","lat":35.25,"lon":136.78333},{"name":"Inba","country":"JP","lat":35.77549,"lon":140.2022},{"name":"Innoshima","country":"JP","lat":34.28333,"lon":133.18333},{"name":"Ino","country":"JP","lat":33.55,"lon":133.43333},{"name":"Inokashira","country":"JP","lat":35.69313,"lon":139.5834},{"name":"Inokura","country":"JP","lat":33.80101,"lon":130.68422},{"name":"Inuotose","country":"JP","lat":40.60176,"lon":141.32662},{"name":"Inuyama","country":"JP","lat":35.37995,"lon":136.94295},{"name":"Inzai","country":"JP","lat":35.83479,"lon":140.16361},{"name":"Irino","country":"JP","lat":33.01667,"lon":133},{"name":"Iriya","country":"JP","lat":35.72104,"lon":139.78691},{"name":"Iruma","country":"JP","lat":35.818,"lon":139.368},{"name":"Isa","country":"JP","lat":32.06716,"lon":130.61182},{"name":"Isahaya","country":"JP","lat":32.84111,"lon":130.04306},{"name":"Isawa","country":"JP","lat":35.65,"lon":138.63333},{"name":"Ise","country":"JP","lat":34.48333,"lon":136.7},{"name":"Isehara","country":"JP","lat":35.39932,"lon":139.31019},{"name":"Isen","country":"JP","lat":27.67609,"lon":128.93722},{"name":"Isesaki","country":"JP","lat":36.31667,"lon":139.2},{"name":"Ishigaki","country":"JP","lat":24.34478,"lon":124.15717},{"name":"Ishigami","country":"JP","lat":36.25,"lon":139.15},{"name":"Ishige","country":"JP","lat":36.11667,"lon":139.96667},{"name":"Ishii","country":"JP","lat":34.06752,"lon":134.44208},{"name":"Ishikari","country":"JP","lat":43.23972,"lon":141.35389},{"name":"Ishikawa","country":"JP","lat":26.42333,"lon":127.82139},{"name":"Ishikawa","country":"JP","lat":37.15,"lon":140.45},{"name":"Ishiki","country":"JP","lat":34.8,"lon":137.01667},{"name":"Ishinari","country":"JP","lat":33.36154,"lon":130.40476},{"name":"Ishinomaki","country":"JP","lat":38.41667,"lon":141.3},{"name":"Ishioka","country":"JP","lat":36.18333,"lon":140.26667},{"name":"Ishitsuka","country":"JP","lat":36.48333,"lon":140.38333},{"name":"Isogo","country":"JP","lat":35.4082,"lon":139.61906},{"name":"Isshōchi","country":"JP","lat":32.24232,"lon":130.64497},{"name":"Isumi","country":"JP","lat":35.23005,"lon":140.40492},{"name":"Itabashi","country":"JP","lat":35.74893,"lon":139.71497},{"name":"Itako","country":"JP","lat":35.93333,"lon":140.55},{"name":"Itakura","country":"JP","lat":36.22295,"lon":139.61027},{"name":"Itami","country":"JP","lat":34.78427,"lon":135.40126},{"name":"Itayanagi","country":"JP","lat":40.69546,"lon":140.45502},{"name":"Itō","country":"JP","lat":34.96667,"lon":139.08333},{"name":"Itogawa","country":"JP","lat":34.02619,"lon":135.25281},{"name":"Itoigawa","country":"JP","lat":37.03333,"lon":137.85},{"name":"Itoman","country":"JP","lat":26.12647,"lon":127.66918},{"name":"Itoshima","country":"JP","lat":33.54225,"lon":130.18421},{"name":"Itsukaichi","country":"JP","lat":35.72528,"lon":139.21778},{"name":"Iwade","country":"JP","lat":34.25,"lon":135.31667},{"name":"Iwado","country":"JP","lat":36.16667,"lon":138.73333},{"name":"Iwai","country":"JP","lat":36.05,"lon":139.9},{"name":"Iwai","country":"JP","lat":35.75,"lon":139.23333},{"name":"Iwai","country":"JP","lat":35.55516,"lon":134.36306},{"name":"Iwaizumi","country":"JP","lat":39.85,"lon":141.8},{"name":"Iwaki","country":"JP","lat":37.05,"lon":140.88333},{"name":"Iwakuni","country":"JP","lat":34.16297,"lon":132.22},{"name":"Iwakura","country":"JP","lat":35.28333,"lon":136.86667},{"name":"Iwamizawa","country":"JP","lat":43.20028,"lon":141.75972},{"name":"Iwamotochō","country":"JP","lat":35.69409,"lon":139.77699},{"name":"Iwanai","country":"JP","lat":42.97444,"lon":140.50889},{"name":"Iwanuma","country":"JP","lat":38.10472,"lon":140.85944},{"name":"Iwase","country":"JP","lat":36.35,"lon":140.1},{"name":"Iwashita","country":"JP","lat":32.65273,"lon":130.81159},{"name":"Iwata","country":"JP","lat":34.7,"lon":137.85},{"name":"Iwatsuki","country":"JP","lat":35.96474,"lon":139.69644},{"name":"Iyo","country":"JP","lat":33.75139,"lon":132.70139},{"name":"Izena","country":"JP","lat":26.91651,"lon":127.93136},{"name":"Izu","country":"JP","lat":34.97159,"lon":138.94643},{"name":"Izumi","country":"JP","lat":34.48333,"lon":135.43333},{"name":"Izumi","country":"JP","lat":32.08333,"lon":130.36667},{"name":"Izumiōtsu","country":"JP","lat":34.5,"lon":135.4},{"name":"Izumisano","country":"JP","lat":34.41667,"lon":135.31667},{"name":"Izumisano","country":"JP","lat":34.379,"lon":135.31981},{"name":"Izumizaki","country":"JP","lat":37.15937,"lon":140.29692},{"name":"Izumo","country":"JP","lat":35.36667,"lon":132.76667},{"name":"Izumozaki","country":"JP","lat":37.53333,"lon":138.68333},{"name":"Izunokuni","country":"JP","lat":35.03907,"lon":138.95143},{"name":"Jiyūgaoka","country":"JP","lat":35.61099,"lon":139.66782},{"name":"Jōetsu","country":"JP","lat":37.14828,"lon":138.23642},{"name":"Jōsō","country":"JP","lat":36.03553,"lon":139.96143},{"name":"Jōyō","country":"JP","lat":34.84396,"lon":135.80561},{"name":"Jūjō-nakahara","country":"JP","lat":35.76811,"lon":139.71898},{"name":"Kabukicho","country":"JP","lat":35.6946,"lon":139.70228},{"name":"Kachidoki","country":"JP","lat":35.65775,"lon":139.77489},{"name":"Kadena","country":"JP","lat":26.36519,"lon":127.75857},{"name":"Kadogawa","country":"JP","lat":32.47126,"lon":131.65452},{"name":"Kadoma","country":"JP","lat":34.7381,"lon":135.57442},{"name":"Kafukamura","country":"JP","lat":45.30212,"lon":141.04122},{"name":"Kaga","country":"JP","lat":36.3,"lon":136.33333},{"name":"Kagoshima","country":"JP","lat":31.56667,"lon":130.55},{"name":"Kagurazaka","country":"JP","lat":35.70077,"lon":139.7402},{"name":"Kahoku","country":"JP","lat":36.75758,"lon":136.71162},{"name":"Kai","country":"JP","lat":35.68463,"lon":138.50979},{"name":"Kaigan","country":"JP","lat":35.64901,"lon":139.75928},{"name":"Kainan","country":"JP","lat":34.15166,"lon":135.21398},{"name":"Kaitaichi","country":"JP","lat":34.36667,"lon":132.53333},{"name":"Kaizu","country":"JP","lat":35.20169,"lon":136.63505},{"name":"Kaizuka","country":"JP","lat":34.45,"lon":135.35},{"name":"Kajikazawa","country":"JP","lat":35.55,"lon":138.45},{"name":"Kajiki","country":"JP","lat":31.73333,"lon":130.66667},{"name":"Kajiya","country":"JP","lat":35.06667,"lon":134.91667},{"name":"Kakamigahara","country":"JP","lat":35.41667,"lon":136.86667},{"name":"Kakegawa","country":"JP","lat":34.76667,"lon":138.01667},{"name":"Kakogawa","country":"JP","lat":34.75064,"lon":134.86954},{"name":"Kakogawachō-honmachi","country":"JP","lat":34.76943,"lon":134.82905},{"name":"Kakuda","country":"JP","lat":37.97451,"lon":140.77202},{"name":"Kakunodatemachi","country":"JP","lat":39.58926,"lon":140.56724},{"name":"Kama","country":"JP","lat":33.53488,"lon":130.74228},{"name":"Kamagaya","country":"JP","lat":35.76971,"lon":140.00238},{"name":"Kamaishi","country":"JP","lat":39.27694,"lon":141.86801},{"name":"Kamakura","country":"JP","lat":35.31085,"lon":139.54698},{"name":"Kamata","country":"JP","lat":35.56348,"lon":139.72101},{"name":"Kamatsuka","country":"JP","lat":34.79733,"lon":135.90876},{"name":"Kameda-honchō","country":"JP","lat":37.87214,"lon":139.1099},{"name":"Kameoka","country":"JP","lat":35,"lon":135.58333},{"name":"Kameshima","country":"JP","lat":35.66605,"lon":135.2917},{"name":"Kameyama","country":"JP","lat":34.85,"lon":136.45},{"name":"Kami","country":"JP","lat":33.52936,"lon":130.76479},{"name":"Kami","country":"JP","lat":33.68407,"lon":133.84369},{"name":"Kami-furano","country":"JP","lat":43.45556,"lon":142.46861},{"name":"Kami-yuge","country":"JP","lat":34.26667,"lon":133.21667},{"name":"Kamiamakusa","country":"JP","lat":32.4892,"lon":130.39433},{"name":"Kamiaso","country":"JP","lat":35.54057,"lon":137.11727},{"name":"Kamiatsuma","country":"JP","lat":42.64401,"lon":141.84737},{"name":"Kamifukuoka","country":"JP","lat":35.87266,"lon":139.51369},{"name":"Kamigōri","country":"JP","lat":34.8748,"lon":134.36191},{"name":"Kamigotō","country":"JP","lat":32.98333,"lon":129.08333},{"name":"Kamigyō-ku","country":"JP","lat":35.02954,"lon":135.75666},{"name":"Kamihonbetsu","country":"JP","lat":43.14371,"lon":143.61199},{"name":"Kamiichi","country":"JP","lat":36.7,"lon":137.36667},{"name":"Kamiigusa","country":"JP","lat":35.72262,"lon":139.60639},{"name":"Kamiikusaka","country":"JP","lat":36.41667,"lon":137.93333},{"name":"Kamiiso","country":"JP","lat":41.82013,"lon":140.64482},{"name":"Kamiitoda","country":"JP","lat":33.65617,"lon":130.78224},{"name":"Kamikatagiri","country":"JP","lat":35.61555,"lon":137.90236},{"name":"Kamikawa","country":"JP","lat":43.84,"lon":142.77111},{"name":"Kamikawa","country":"JP","lat":35.07553,"lon":134.74028},{"name":"Kamikijima","country":"JP","lat":36.83529,"lon":138.40825},{"name":"Kamikoizumi","country":"JP","lat":36.26426,"lon":139.42908},{"name":"Kamimaruko","country":"JP","lat":36.31865,"lon":138.27329},{"name":"Kaminakazato","country":"JP","lat":35.74502,"lon":139.74951},{"name":"Kaminokawa","country":"JP","lat":36.43333,"lon":139.91667},{"name":"Kaminokuni","country":"JP","lat":41.80257,"lon":140.11064},{"name":"Kaminoma","country":"JP","lat":34.80802,"lon":136.86441},{"name":"Kaminoseki","country":"JP","lat":33.83338,"lon":132.10932},{"name":"Kaminoyama","country":"JP","lat":38.15389,"lon":140.27361},{"name":"Kamiōi","country":"JP","lat":35.32003,"lon":139.1582},{"name":"Kamirenjaku","country":"JP","lat":35.69423,"lon":139.55495},{"name":"Kamishihoro","country":"JP","lat":43.2351,"lon":143.28524},{"name":"Kamisu","country":"JP","lat":35.89685,"lon":140.66666},{"name":"Kamisunagawa","country":"JP","lat":43.48261,"lon":141.98408},{"name":"Kamitakeda","country":"JP","lat":36.17605,"lon":137.87481},{"name":"Kamitosa","country":"JP","lat":34.44505,"lon":135.80133},{"name":"Kamiya","country":"JP","lat":35.77031,"lon":139.73076},{"name":"Kamiyūbetsu Tonden Shigaichi","country":"JP","lat":44.13556,"lon":143.56722},{"name":"Kamizawa","country":"JP","lat":35.10151,"lon":138.95398},{"name":"Kamo","country":"JP","lat":37.66442,"lon":139.03502},{"name":"Kamogatachō-kamogata","country":"JP","lat":34.53745,"lon":133.58967},{"name":"Kamogawa","country":"JP","lat":35.0969,"lon":140.1003},{"name":"Kamojimachō-jōgejima","country":"JP","lat":34.06803,"lon":134.35033},{"name":"Kan’onji","country":"JP","lat":34.06972,"lon":133.64902},{"name":"Kan’onjichō","country":"JP","lat":34.1276,"lon":133.64598},{"name":"Kanaishima","country":"JP","lat":35.34412,"lon":139.11749},{"name":"Kanamachi","country":"JP","lat":35.76514,"lon":139.86677},{"name":"Kanaura","country":"JP","lat":44.70722,"lon":141.78889},{"name":"Kanaya","country":"JP","lat":34.82022,"lon":138.12775},{"name":"Kanazawa","country":"JP","lat":36.6,"lon":136.61667},{"name":"Kanbara","country":"JP","lat":35.11738,"lon":138.60687},{"name":"Kanda","country":"JP","lat":33.78333,"lon":130.98333},{"name":"Kanda-awajichō","country":"JP","lat":35.69685,"lon":139.76744},{"name":"Kanda-jinbōchō","country":"JP","lat":35.69559,"lon":139.75642},{"name":"Kanegasaki","country":"JP","lat":39.2,"lon":141.11667},{"name":"Kanegusuku","country":"JP","lat":26.19698,"lon":127.72591},{"name":"Kanekomachi","country":"JP","lat":36.41097,"lon":138.99621},{"name":"Kaneyama","country":"JP","lat":38.88389,"lon":140.33667},{"name":"Kani","country":"JP","lat":35.40435,"lon":137.05595},{"name":"Kanie","country":"JP","lat":35.13333,"lon":136.8},{"name":"Kanita","country":"JP","lat":41.04225,"lon":140.64357},{"name":"Kanmaki","country":"JP","lat":34.56419,"lon":135.70627},{"name":"Kannabechō-yahiro","country":"JP","lat":34.55808,"lon":133.41796},{"name":"Kannoura","country":"JP","lat":33.55,"lon":134.3},{"name":"Kanō","country":"JP","lat":34.49323,"lon":135.63887},{"name":"Kanoya","country":"JP","lat":31.38333,"lon":130.85},{"name":"Kanuma","country":"JP","lat":36.55,"lon":139.73333},{"name":"Kanzaki","country":"JP","lat":33.32393,"lon":130.34051},{"name":"Kanzakimachi-kanzaki","country":"JP","lat":33.30895,"lon":130.37383},{"name":"Karasuyama","country":"JP","lat":36.65,"lon":140.15},{"name":"Karatsu","country":"JP","lat":33.4425,"lon":129.96972},{"name":"Karibetsu","country":"JP","lat":45.24781,"lon":142.12642},{"name":"Kariwa","country":"JP","lat":37.42975,"lon":138.61879},{"name":"Kariya","country":"JP","lat":34.98333,"lon":136.98333},{"name":"Kariya","country":"JP","lat":34.75136,"lon":134.38734},{"name":"Karuizawa","country":"JP","lat":36.35,"lon":138.63333},{"name":"Karumai","country":"JP","lat":40.32139,"lon":141.45833},{"name":"Kasado","country":"JP","lat":34.89141,"lon":136.53049},{"name":"Kasagi","country":"JP","lat":34.75,"lon":135.93333},{"name":"Kasai","country":"JP","lat":34.92633,"lon":134.84533},{"name":"Kasaishi","country":"JP","lat":37.2419,"lon":140.33591},{"name":"Kasama","country":"JP","lat":36.38333,"lon":140.26667},{"name":"Kasamatsuchō","country":"JP","lat":35.36667,"lon":136.76667},{"name":"Kasaoka","country":"JP","lat":34.50597,"lon":133.50391},{"name":"Kaseda-shirakame","country":"JP","lat":31.41667,"lon":130.31667},{"name":"Kashiba","country":"JP","lat":34.53472,"lon":135.70925},{"name":"Kashihara","country":"JP","lat":34.58333,"lon":135.61667},{"name":"Kashihara-shi","country":"JP","lat":34.50896,"lon":135.7929},{"name":"Kashima","country":"JP","lat":33.10611,"lon":130.09056},{"name":"Kashima-shi","country":"JP","lat":35.96536,"lon":140.64474},{"name":"Kashiwa","country":"JP","lat":35.86224,"lon":139.97732},{"name":"Kashiwabara","country":"JP","lat":36.80237,"lon":138.19225},{"name":"Kashiwara","country":"JP","lat":34.45,"lon":135.76667},{"name":"Kashiwazaki","country":"JP","lat":37.36667,"lon":138.55},{"name":"Kasuga","country":"JP","lat":33.52594,"lon":130.4611},{"name":"Kasugai","country":"JP","lat":35.24762,"lon":136.97229},{"name":"Kasukabe","country":"JP","lat":35.98308,"lon":139.74966},{"name":"Kasumi","country":"JP","lat":35.63333,"lon":134.63333},{"name":"Kasumigaura","country":"JP","lat":36.15326,"lon":140.24635},{"name":"Katagami","country":"JP","lat":39.87869,"lon":139.99767},{"name":"Katagiri","country":"JP","lat":35.63442,"lon":137.9258},{"name":"Katakai","country":"JP","lat":35.53333,"lon":140.45},{"name":"Katanawa","country":"JP","lat":33.52111,"lon":130.42444},{"name":"Katano","country":"JP","lat":34.79329,"lon":135.68596},{"name":"Katashina","country":"JP","lat":36.83897,"lon":139.2627},{"name":"Katō","country":"JP","lat":34.92422,"lon":135.02609},{"name":"Katori-shi","country":"JP","lat":35.89767,"lon":140.49943},{"name":"Katsumada","country":"JP","lat":35.03333,"lon":134.11667},{"name":"Katsuragi","country":"JP","lat":34.48562,"lon":135.69698},{"name":"Katsuren-haebaru","country":"JP","lat":26.33294,"lon":127.87403},{"name":"Katsuta","country":"JP","lat":36.38333,"lon":140.53333},{"name":"Katsuura","country":"JP","lat":33.63075,"lon":135.94035},{"name":"Katsuura","country":"JP","lat":35.14621,"lon":140.31507},{"name":"Katsuyama","country":"JP","lat":36.06173,"lon":136.50101},{"name":"Kawachi-Nagano","country":"JP","lat":34.44108,"lon":135.58283},{"name":"Kawage","country":"JP","lat":34.80447,"lon":136.54645},{"name":"Kawagoe","country":"JP","lat":35.90861,"lon":139.48528},{"name":"Kawaguchi","country":"JP","lat":35.80521,"lon":139.71072},{"name":"Kawaguchi","country":"JP","lat":33.80208,"lon":134.46759},{"name":"Kawahara","country":"JP","lat":32.80667,"lon":130.89747},{"name":"Kawaharada","country":"JP","lat":37.12749,"lon":140.35049},{"name":"Kawahigashi","country":"JP","lat":31.3725,"lon":131.0075},{"name":"Kawai","country":"JP","lat":34.24681,"lon":135.85864},{"name":"Kawaminami","country":"JP","lat":32.18333,"lon":131.51667},{"name":"Kawamoto","country":"JP","lat":34.98333,"lon":132.5},{"name":"Kawanishi","country":"JP","lat":34.81667,"lon":135.41667},{"name":"Kawanishi","country":"JP","lat":34.88114,"lon":135.3986},{"name":"Kawanoechō","country":"JP","lat":34.01654,"lon":133.57844},{"name":"Kawara","country":"JP","lat":33.66937,"lon":130.8426},{"name":"Kawara","country":"JP","lat":35.47361,"lon":139.27278},{"name":"Kawasaki","country":"JP","lat":35.52056,"lon":139.71722},{"name":"Kawasaki","country":"JP","lat":33.59993,"lon":130.81495},{"name":"Kawasaki","country":"JP","lat":38.17278,"lon":140.63694},{"name":"Kawasugaya","country":"JP","lat":35.36559,"lon":140.34305},{"name":"Kawatana","country":"JP","lat":33.06667,"lon":129.86667},{"name":"Kawazu-ikadaba","country":"JP","lat":34.77158,"lon":138.96626},{"name":"Kazo","country":"JP","lat":36.11667,"lon":139.6},{"name":"Kazuno","country":"JP","lat":40.20825,"lon":140.78327},{"name":"Kemigawa","country":"JP","lat":35.65,"lon":140.06667},{"name":"Kesennuma","country":"JP","lat":38.90112,"lon":141.57746},{"name":"Kiba","country":"JP","lat":35.6706,"lon":139.80697},{"name":"Kichijōji-honchō","country":"JP","lat":35.70558,"lon":139.57694},{"name":"Kihara","country":"JP","lat":36.01667,"lon":140.3},{"name":"Kihoku","country":"JP","lat":34.21052,"lon":136.33475},{"name":"Kihoku-chō","country":"JP","lat":33.25592,"lon":132.68343},{"name":"Kikonai","country":"JP","lat":41.68283,"lon":140.43032},{"name":"Kikuchi","country":"JP","lat":32.98333,"lon":130.81667},{"name":"Kikugawa","country":"JP","lat":34.70291,"lon":138.11978},{"name":"Kikuna","country":"JP","lat":35.50355,"lon":139.63499},{"name":"Kikusuichō","country":"JP","lat":43.55,"lon":141.88333},{"name":"Kimitsu","country":"JP","lat":35.35043,"lon":139.87029},{"name":"Kimobetsu","country":"JP","lat":42.79028,"lon":140.935},{"name":"Kimokawa","country":"JP","lat":34.87969,"lon":135.36698},{"name":"Kin","country":"JP","lat":26.45222,"lon":127.91778},{"name":"Kinoenishi","country":"JP","lat":32.22326,"lon":130.82155},{"name":"Kinokawa","country":"JP","lat":34.26973,"lon":135.41045},{"name":"Kinoshita","country":"JP","lat":35.90059,"lon":137.98777},{"name":"Kinshi","country":"JP","lat":35.69885,"lon":139.81418},{"name":"Kinugawa Onsen","country":"JP","lat":36.84352,"lon":139.71935},{"name":"Kirishima","country":"JP","lat":31.74087,"lon":130.76288},{"name":"Kiryū","country":"JP","lat":36.4,"lon":139.33333},{"name":"Kisai","country":"JP","lat":36.1,"lon":139.58333},{"name":"Kisarazu","country":"JP","lat":35.38329,"lon":139.93254},{"name":"Kishaba","country":"JP","lat":26.30328,"lon":127.79396},{"name":"Kishimoto","country":"JP","lat":35.38333,"lon":133.41667},{"name":"Kishiwada","country":"JP","lat":34.46667,"lon":135.36667},{"name":"Kiso","country":"JP","lat":35.84036,"lon":137.69028},{"name":"Kita","country":"JP","lat":40.02863,"lon":139.95951},{"name":"Kita-Akita","country":"JP","lat":40.19956,"lon":140.39388},{"name":"Kitagata","country":"JP","lat":35.43333,"lon":136.68333},{"name":"Kitagawa","country":"JP","lat":33.44769,"lon":134.04207},{"name":"Kitahama","country":"JP","lat":35.16667,"lon":135.91667},{"name":"Kitahiroshima","country":"JP","lat":42.97583,"lon":141.56722},{"name":"Kitaibaraki","country":"JP","lat":36.78671,"lon":140.74901},{"name":"Kitakami","country":"JP","lat":39.28333,"lon":141.11667},{"name":"Kitakata","country":"JP","lat":37.65,"lon":139.86667},{"name":"Kitakata","country":"JP","lat":37.18981,"lon":140.58498},{"name":"Kitakyushu","country":"JP","lat":33.85181,"lon":130.85034},{"name":"Kitami","country":"JP","lat":43.80306,"lon":143.89083},{"name":"Kitamoto","country":"JP","lat":36.03322,"lon":139.53775},{"name":"Kitanagoya","country":"JP","lat":35.24702,"lon":136.87832},{"name":"Kitaōgawara","country":"JP","lat":34.77428,"lon":135.99786},{"name":"Kitasugama","country":"JP","lat":37.22037,"lon":140.45335},{"name":"Kitsuki","country":"JP","lat":33.41998,"lon":131.61837},{"name":"Kiyose","country":"JP","lat":35.77952,"lon":139.53014},{"name":"Kiyosu","country":"JP","lat":35.21667,"lon":136.83333},{"name":"Kizugawa","country":"JP","lat":34.73668,"lon":135.83994},{"name":"Ko-bae","country":"JP","lat":32.46667,"lon":131.38333},{"name":"Kobatake","country":"JP","lat":34.70581,"lon":133.25035},{"name":"Kobayashi","country":"JP","lat":31.98333,"lon":130.98333},{"name":"Kobe","country":"JP","lat":34.6913,"lon":135.183},{"name":"Kochi","country":"JP","lat":33.55,"lon":133.53333},{"name":"Kōchi","country":"JP","lat":34.70009,"lon":138.93739},{"name":"Kodaira","country":"JP","lat":35.72603,"lon":139.48508},{"name":"Kodamachō-kodamaminami","country":"JP","lat":36.18497,"lon":139.13191},{"name":"Kofu","country":"JP","lat":35.66667,"lon":138.56667},{"name":"Kofu","country":"JP","lat":35.69763,"lon":138.58819},{"name":"Koga","country":"JP","lat":36.18333,"lon":139.71667},{"name":"Koga","country":"JP","lat":33.73333,"lon":130.46667},{"name":"Koga","country":"JP","lat":33.86429,"lon":130.68709},{"name":"Koganei","country":"JP","lat":35.70014,"lon":139.51109},{"name":"Kōge","country":"JP","lat":35.40995,"lon":134.25491},{"name":"Kogota","country":"JP","lat":38.55,"lon":141.05},{"name":"Kogota-ekimae","country":"JP","lat":38.53333,"lon":141.06667},{"name":"Koishiwara","country":"JP","lat":33.47142,"lon":130.82962},{"name":"Kōka","country":"JP","lat":34.9802,"lon":136.15752},{"name":"Kokubu-matsuki","country":"JP","lat":31.73333,"lon":130.76667},{"name":"Kokubunji","country":"JP","lat":35.70222,"lon":139.47556},{"name":"Komaba","country":"JP","lat":35.43333,"lon":137.73333},{"name":"Komae","country":"JP","lat":35.63424,"lon":139.57546},{"name":"Komagane","country":"JP","lat":35.71657,"lon":137.93745},{"name":"Komagome","country":"JP","lat":35.73868,"lon":139.74065},{"name":"Komaki","country":"JP","lat":35.28333,"lon":136.91667},{"name":"Komatsu","country":"JP","lat":36.40263,"lon":136.45088},{"name":"Komatsu","country":"JP","lat":38.0025,"lon":140.04139},{"name":"Komatsushimachō","country":"JP","lat":34,"lon":134.58333},{"name":"Komono","country":"JP","lat":35,"lon":136.51667},{"name":"Komori","country":"JP","lat":33.98333,"lon":135.78333},{"name":"Komoro","country":"JP","lat":36.31667,"lon":138.43333},{"name":"Konan","country":"JP","lat":34.99921,"lon":136.09674},{"name":"Kōnan","country":"JP","lat":35.33165,"lon":136.87042},{"name":"Kōnan","country":"JP","lat":33.58345,"lon":133.78189},{"name":"Konoha","country":"JP","lat":32.91884,"lon":130.62716},{"name":"Kōnosu","country":"JP","lat":36.06868,"lon":139.51684},{"name":"Koori","country":"JP","lat":37.83333,"lon":140.51667},{"name":"Kōra","country":"JP","lat":35.20411,"lon":136.2612},{"name":"Kōraku","country":"JP","lat":35.70686,"lon":139.74549},{"name":"Kōriyama","country":"JP","lat":37.4,"lon":140.38333},{"name":"Kosai","country":"JP","lat":34.70053,"lon":137.52253},{"name":"Kosaka","country":"JP","lat":40.37899,"lon":140.73133},{"name":"Kosawada","country":"JP","lat":40.06449,"lon":140.29092},{"name":"Koseda","country":"JP","lat":30.38796,"lon":130.64924},{"name":"Koshi","country":"JP","lat":36.90591,"lon":137.57129},{"name":"Kōshi","country":"JP","lat":32.89271,"lon":130.77567},{"name":"Koshigaya","country":"JP","lat":35.89035,"lon":139.78916},{"name":"Koshima","country":"JP","lat":30.23461,"lon":130.53517},{"name":"Koshimizu","country":"JP","lat":43.85895,"lon":144.46509},{"name":"Kōshū","country":"JP","lat":35.72422,"lon":138.77106},{"name":"Kosuge","country":"JP","lat":35.75351,"lon":139.82163},{"name":"Kōta","country":"JP","lat":34.87482,"lon":137.17086},{"name":"Kotake","country":"JP","lat":33.6911,"lon":130.71193},{"name":"Kōtari","country":"JP","lat":34.92097,"lon":135.70547},{"name":"Kotohira","country":"JP","lat":34.18333,"lon":133.81667},{"name":"Kotsubaki","country":"JP","lat":35.52556,"lon":139.05306},{"name":"Koumibara","country":"JP","lat":36.05572,"lon":138.47822},{"name":"Kōya","country":"JP","lat":34.21294,"lon":135.62244},{"name":"Kozakai-chō","country":"JP","lat":34.8,"lon":137.35889},{"name":"Kōzaki","country":"JP","lat":35.9,"lon":140.4},{"name":"Kōzan","country":"JP","lat":34.58333,"lon":133.05},{"name":"Kozawa","country":"JP","lat":42.97096,"lon":140.67921},{"name":"Kōzu","country":"JP","lat":35.28173,"lon":139.20895},{"name":"Kōzushima","country":"JP","lat":34.2,"lon":139.13333},{"name":"Kudamatsu","country":"JP","lat":34.00964,"lon":131.86637},{"name":"Kudoyama","country":"JP","lat":34.28914,"lon":135.56035},{"name":"Kuji","country":"JP","lat":40.18778,"lon":141.76889},{"name":"Kukichūō","country":"JP","lat":36.06739,"lon":139.67498},{"name":"Kuma","country":"JP","lat":33.6566,"lon":132.90234},{"name":"Kumagawa","country":"JP","lat":35.44361,"lon":135.90139},{"name":"Kumagaya","country":"JP","lat":36.13497,"lon":139.39004},{"name":"Kumakura","country":"JP","lat":37.15252,"lon":140.16845},{"name":"Kumamoto","country":"JP","lat":32.80589,"lon":130.69181},{"name":"Kumano","country":"JP","lat":33.90389,"lon":136.12214},{"name":"Kumano","country":"JP","lat":34.33284,"lon":132.56967},{"name":"Kumejima","country":"JP","lat":26.34052,"lon":126.80502},{"name":"Kunigami","country":"JP","lat":26.75886,"lon":128.16304},{"name":"Kunisaki","country":"JP","lat":33.5547,"lon":131.72796},{"name":"Kunitachi","country":"JP","lat":35.6833,"lon":139.43848},{"name":"Kuramae","country":"JP","lat":35.70328,"lon":139.79055},{"name":"Kurashiki","country":"JP","lat":34.58333,"lon":133.76667},{"name":"Kurayoshi","country":"JP","lat":35.43333,"lon":133.81667},{"name":"Kure","country":"JP","lat":34.23222,"lon":132.56658},{"name":"Kurihama","country":"JP","lat":35.22796,"lon":139.70212},{"name":"Kurihara","country":"JP","lat":38.75,"lon":141},{"name":"Kurihashi","country":"JP","lat":36.13333,"lon":139.7},{"name":"Kurino","country":"JP","lat":31.95,"lon":130.71667},{"name":"Kurio","country":"JP","lat":30.27123,"lon":130.4236},{"name":"Kuriyama","country":"JP","lat":43.05528,"lon":141.78361},{"name":"Kuriyazawa","country":"JP","lat":38.9,"lon":140.25},{"name":"Kurobe-shi","country":"JP","lat":36.90123,"lon":137.44955},{"name":"Kuroda","country":"JP","lat":35.35,"lon":136.78333},{"name":"Kuroishi","country":"JP","lat":40.64581,"lon":140.58354},{"name":"Kuroishi","country":"JP","lat":40.64437,"lon":140.6227},{"name":"Kuroiso","country":"JP","lat":36.96667,"lon":140.05},{"name":"Kuromatsunai","country":"JP","lat":42.66806,"lon":140.30611},{"name":"Kurono","country":"JP","lat":35.46667,"lon":136.63333},{"name":"Kurume","country":"JP","lat":33.31667,"lon":130.51667},{"name":"Kusano","country":"JP","lat":37.7,"lon":140.75},{"name":"Kusatsu","country":"JP","lat":36.61667,"lon":138.6},{"name":"Kusatsu","country":"JP","lat":35.01667,"lon":135.96667},{"name":"Kushikino","country":"JP","lat":31.71667,"lon":130.26667},{"name":"Kushima","country":"JP","lat":31.48621,"lon":131.2421},{"name":"Kushimoto","country":"JP","lat":33.46839,"lon":135.77909},{"name":"Kushiro","country":"JP","lat":42.975,"lon":144.37472},{"name":"Kutchan","country":"JP","lat":42.90111,"lon":140.74056},{"name":"Kuwana","country":"JP","lat":35.05192,"lon":136.66958},{"name":"Kuzumaki","country":"JP","lat":40.04119,"lon":141.44041},{"name":"Kyōgoku","country":"JP","lat":42.86326,"lon":140.90594},{"name":"Kyōmendao","country":"JP","lat":34.88333,"lon":132.43333},{"name":"Kyōtamba","country":"JP","lat":35.16436,"lon":135.42305},{"name":"Kyōtanabe","country":"JP","lat":34.8045,"lon":135.76681},{"name":"Kyōtango","country":"JP","lat":35.60623,"lon":135.04429},{"name":"Kyoto","country":"JP","lat":35.02107,"lon":135.75385},{"name":"Mabashi","country":"JP","lat":35.81177,"lon":139.92074},{"name":"Machida","country":"JP","lat":35.54028,"lon":139.45083},{"name":"Machiya","country":"JP","lat":35.74804,"lon":139.78128},{"name":"Maebaru-chūō","country":"JP","lat":33.55916,"lon":130.20148},{"name":"Maebashi","country":"JP","lat":36.4,"lon":139.08333},{"name":"Maeda","country":"JP","lat":31.33186,"lon":130.93723},{"name":"Maibara","country":"JP","lat":35.31667,"lon":136.28333},{"name":"Maihama","country":"JP","lat":35.62997,"lon":139.87957},{"name":"Maizuru","country":"JP","lat":35.45,"lon":135.33333},{"name":"Makabe","country":"JP","lat":36.26667,"lon":140.1},{"name":"Maki","country":"JP","lat":37.75,"lon":138.88333},{"name":"Makinohara","country":"JP","lat":34.77437,"lon":138.14831},{"name":"Makkari","country":"JP","lat":42.75778,"lon":140.8025},{"name":"Makubetsu","country":"JP","lat":45.37139,"lon":141.82111},{"name":"Makuhari","country":"JP","lat":35.65,"lon":140.05},{"name":"Makurazaki","country":"JP","lat":31.26667,"lon":130.31667},{"name":"Manazuru","country":"JP","lat":35.15311,"lon":139.13911},{"name":"Manba","country":"JP","lat":36.11667,"lon":138.91667},{"name":"Maniwa","country":"JP","lat":35.10643,"lon":133.72009},{"name":"Marugame","country":"JP","lat":34.28333,"lon":133.78333},{"name":"Marumori","country":"JP","lat":37.91667,"lon":140.76667},{"name":"Maruobara","country":"JP","lat":34.73925,"lon":138.14303},{"name":"Maruoka","country":"JP","lat":36.1534,"lon":136.27029},{"name":"Masaki-chō","country":"JP","lat":33.78757,"lon":132.71124},{"name":"Mashike","country":"JP","lat":43.85194,"lon":141.52139},{"name":"Mashiko","country":"JP","lat":36.46667,"lon":140.1},{"name":"Masuda","country":"JP","lat":35.55,"lon":137.25},{"name":"Masuda","country":"JP","lat":34.66667,"lon":131.85},{"name":"Matsubara","country":"JP","lat":38.02778,"lon":139.99122},{"name":"Matsubara","country":"JP","lat":34.56667,"lon":135.55},{"name":"Matsubase","country":"JP","lat":32.65,"lon":130.66667},{"name":"Matsubushi","country":"JP","lat":35.91898,"lon":139.81128},{"name":"Matsuda-sōryō","country":"JP","lat":35.35063,"lon":139.13861},{"name":"Matsudo","country":"JP","lat":35.77995,"lon":139.90144},{"name":"Matsue","country":"JP","lat":35.48333,"lon":133.05},{"name":"Matsumae","country":"JP","lat":41.42732,"lon":140.10298},{"name":"Matsumaru","country":"JP","lat":33.22749,"lon":132.70763},{"name":"Matsumoto","country":"JP","lat":36.23333,"lon":137.96667},{"name":"Matsusaka","country":"JP","lat":34.57895,"lon":136.53706},{"name":"Matsushige","country":"JP","lat":34.13377,"lon":134.58056},{"name":"Matsushima","country":"JP","lat":38.37357,"lon":141.06105},{"name":"Matsutō","country":"JP","lat":36.51667,"lon":136.56667},{"name":"Matsuura","country":"JP","lat":33.34058,"lon":129.69504},{"name":"Matsuyama","country":"JP","lat":33.83916,"lon":132.76574},{"name":"Matsuzaki","country":"JP","lat":35.46667,"lon":133.9},{"name":"Matsuzaki","country":"JP","lat":34.75326,"lon":138.77613},{"name":"Mejiro","country":"JP","lat":35.7242,"lon":139.70358},{"name":"Memuro-minami","country":"JP","lat":42.90717,"lon":143.0365},{"name":"Mendahigashi","country":"JP","lat":32.2417,"lon":130.89665},{"name":"Menuma","country":"JP","lat":36.22245,"lon":139.38205},{"name":"Mibu","country":"JP","lat":36.41667,"lon":139.8},{"name":"Midori","country":"JP","lat":36.44492,"lon":139.28448},{"name":"Mie","country":"JP","lat":32.96667,"lon":131.58333},{"name":"Mifune","country":"JP","lat":32.71667,"lon":130.8222},{"name":"Mihara","country":"JP","lat":34.4,"lon":133.08333},{"name":"Miharu","country":"JP","lat":37.43333,"lon":140.48333},{"name":"Mikasa","country":"JP","lat":43.25581,"lon":141.88818},{"name":"Miki","country":"JP","lat":34.8,"lon":134.98333},{"name":"Mikuni","country":"JP","lat":36.21494,"lon":136.14832},{"name":"Mikuriya","country":"JP","lat":35.51242,"lon":133.49737},{"name":"Mima","country":"JP","lat":34.05493,"lon":134.13963},{"name":"Mimasaka","country":"JP","lat":35.04138,"lon":134.22443},{"name":"Minabe","country":"JP","lat":33.76857,"lon":135.31845},{"name":"Minakuchichō-matoba","country":"JP","lat":34.96667,"lon":136.16667},{"name":"Minamata","country":"JP","lat":32.21667,"lon":130.4},{"name":"Minami-Alps","country":"JP","lat":35.616,"lon":138.46344},{"name":"Minami-Sōma","country":"JP","lat":37.62908,"lon":140.97868},{"name":"Minamiarupusu","country":"JP","lat":35.60855,"lon":138.46473},{"name":"Minamiashigara","country":"JP","lat":35.31947,"lon":139.1096},{"name":"Minamiawaji","country":"JP","lat":34.27396,"lon":134.77512},{"name":"Minamibōsō","country":"JP","lat":35.03126,"lon":139.92651},{"name":"Minamichita","country":"JP","lat":34.67644,"lon":137.00522},{"name":"Minamida","country":"JP","lat":40.21516,"lon":141.41845},{"name":"Minamiise","country":"JP","lat":34.34967,"lon":136.69945},{"name":"Minamikyushu","country":"JP","lat":31.34689,"lon":130.45612},{"name":"Minamiminowa","country":"JP","lat":35.87291,"lon":137.97503},{"name":"Minaminagareyama","country":"JP","lat":35.8401,"lon":139.89864},{"name":"Minamino","country":"JP","lat":35.62594,"lon":139.31956},{"name":"Minamirinkan","country":"JP","lat":35.49527,"lon":139.44279},{"name":"Minamisanriku","country":"JP","lat":38.67807,"lon":141.44314},{"name":"Minamisatsuma","country":"JP","lat":31.38999,"lon":130.28343},{"name":"Minamishibetsuchō","country":"JP","lat":44.15399,"lon":142.37307},{"name":"Minamishimabara","country":"JP","lat":32.67334,"lon":130.26747},{"name":"Minamiuonuma","country":"JP","lat":37.08259,"lon":138.87413},{"name":"Minamiura","country":"JP","lat":33.72256,"lon":131.64696},{"name":"Minano","country":"JP","lat":36.07356,"lon":139.09994},{"name":"Minari","country":"JP","lat":35.2,"lon":133},{"name":"Minase","country":"JP","lat":34.87724,"lon":135.6651},{"name":"Minato","country":"JP","lat":34.2152,"lon":135.1501},{"name":"Minato","country":"JP","lat":34.63771,"lon":138.89164},{"name":"Minatomirai","country":"JP","lat":35.45958,"lon":139.6303},{"name":"Minawa","country":"JP","lat":35.52278,"lon":139.31944},{"name":"Mine","country":"JP","lat":34.18681,"lon":131.21624},{"name":"Minehama-menagata","country":"JP","lat":40.31744,"lon":140.04065},{"name":"Mino","country":"JP","lat":35.53333,"lon":136.91667},{"name":"Minoh","country":"JP","lat":34.82691,"lon":135.47057},{"name":"Minokamo","country":"JP","lat":35.48199,"lon":137.02166},{"name":"Misasa","country":"JP","lat":35.41,"lon":133.89472},{"name":"Misato, Saitama","country":"JP","lat":35.84373,"lon":139.88347},{"name":"Misawa","country":"JP","lat":40.68682,"lon":141.38969},{"name":"Mishima","country":"JP","lat":35.11667,"lon":138.91667},{"name":"Mishōhirajō","country":"JP","lat":32.96367,"lon":132.5661},{"name":"Mitai","country":"JP","lat":32.7,"lon":131.3},{"name":"Mitaka","country":"JP","lat":35.68361,"lon":139.56002},{"name":"Mitake","country":"JP","lat":35.41667,"lon":137.13333},{"name":"Mito","country":"JP","lat":36.35,"lon":140.45},{"name":"Mitoyo","country":"JP","lat":34.21052,"lon":133.6746},{"name":"Mitsukaidō","country":"JP","lat":36.01667,"lon":139.98333},{"name":"Mitsuke","country":"JP","lat":37.53333,"lon":138.93333},{"name":"Mitsushima","country":"JP","lat":35.26667,"lon":137.85},{"name":"Miura","country":"JP","lat":35.14,"lon":139.61917},{"name":"Miyada","country":"JP","lat":35.76667,"lon":137.95},{"name":"Miyahara","country":"JP","lat":33.12266,"lon":131.07011},{"name":"Miyajima","country":"JP","lat":34.29907,"lon":132.32186},{"name":"Miyajuku","country":"JP","lat":38.30139,"lon":140.14139},{"name":"Miyake","country":"JP","lat":34.08991,"lon":139.5195},{"name":"Miyako","country":"JP","lat":39.64691,"lon":141.94057},{"name":"Miyako","country":"JP","lat":33.6992,"lon":130.92007},{"name":"Miyakojima","country":"JP","lat":24.79016,"lon":125.31109},{"name":"Miyakonojō","country":"JP","lat":31.73333,"lon":131.06667},{"name":"Miyama","country":"JP","lat":33.12102,"lon":130.50007},{"name":"Miyanoura","country":"JP","lat":30.4269,"lon":130.57151},{"name":"Miyaodai","country":"JP","lat":33.84661,"lon":130.71276},{"name":"Miyashiro","country":"JP","lat":36.02229,"lon":139.72951},{"name":"Miyashita","country":"JP","lat":37.47104,"lon":139.64216},{"name":"Miyata","country":"JP","lat":33.70811,"lon":130.65297},{"name":"Miyawaka","country":"JP","lat":33.71706,"lon":130.64117},{"name":"Miyazaki","country":"JP","lat":31.91667,"lon":131.41667},{"name":"Miyazu","country":"JP","lat":35.53638,"lon":135.19934},{"name":"Miyoshi","country":"JP","lat":34.8,"lon":132.85},{"name":"Miyoshi","country":"JP","lat":35.08971,"lon":137.08998},{"name":"Miyoshi","country":"JP","lat":33.92541,"lon":133.85674},{"name":"Miyoshidai","country":"JP","lat":35.83318,"lon":139.54437},{"name":"Miyota","country":"JP","lat":36.33656,"lon":138.51288},{"name":"Mizue","country":"JP","lat":35.69441,"lon":139.89482},{"name":"Mizuho","country":"JP","lat":35.3943,"lon":136.66898},{"name":"Mizumotomachi","country":"JP","lat":43.83764,"lon":144.59606},{"name":"Mizunami","country":"JP","lat":35.36667,"lon":137.25},{"name":"Mizunashi","country":"JP","lat":37.1824,"lon":139.80061},{"name":"Mizusawa","country":"JP","lat":39.13333,"lon":141.13333},{"name":"Mizusawa","country":"JP","lat":38.43417,"lon":140.10139},{"name":"Mobara","country":"JP","lat":35.42583,"lon":140.29608},{"name":"Mobetsu","country":"JP","lat":44.27096,"lon":143.36025},{"name":"Mochibaru","country":"JP","lat":31.75506,"lon":131.12977},{"name":"Mombetsu","country":"JP","lat":44.3525,"lon":143.3525},{"name":"Monbetsu-honchō","country":"JP","lat":42.47939,"lon":142.0715},{"name":"Monzen-nakachō","country":"JP","lat":35.67415,"lon":139.79427},{"name":"Mooka","country":"JP","lat":36.43333,"lon":140.01667},{"name":"Mori","country":"JP","lat":34.83333,"lon":137.93333},{"name":"Moriguchi","country":"JP","lat":34.73333,"lon":135.56667},{"name":"Morioka","country":"JP","lat":39.7,"lon":141.15},{"name":"Morishita","country":"JP","lat":36.61324,"lon":139.04959},{"name":"Moritake","country":"JP","lat":40.0967,"lon":140.07735},{"name":"Moriya","country":"JP","lat":35.93333,"lon":140},{"name":"Moriyama","country":"JP","lat":35.06667,"lon":135.98333},{"name":"Morohongō","country":"JP","lat":35.93556,"lon":139.30444},{"name":"Moroura","country":"JP","lat":33.4736,"lon":129.87202},{"name":"Morowa","country":"JP","lat":35.1,"lon":137.06667},{"name":"Moseushi","country":"JP","lat":43.68778,"lon":141.95917},{"name":"Motegi","country":"JP","lat":36.51667,"lon":140.18333},{"name":"Motobu","country":"JP","lat":26.65901,"lon":127.90667},{"name":"Motomachi","country":"JP","lat":43.82634,"lon":144.09638},{"name":"Motomachi","country":"JP","lat":43.72836,"lon":143.73975},{"name":"Motomiya","country":"JP","lat":37.51391,"lon":140.40063},{"name":"Motona","country":"JP","lat":35.14834,"lon":139.83581},{"name":"Motosu","country":"JP","lat":35.48384,"lon":136.67443},{"name":"Motoyama","country":"JP","lat":33.79399,"lon":133.58105},{"name":"Motoyoyogichō","country":"JP","lat":35.67192,"lon":139.68511},{"name":"Mugiura","country":"JP","lat":33.66585,"lon":134.42293},{"name":"Muikamachi","country":"JP","lat":37.06667,"lon":138.88333},{"name":"Mukai-awagasaki","country":"JP","lat":36.63246,"lon":136.63726},{"name":"Mukawa","country":"JP","lat":42.57194,"lon":141.92639},{"name":"Mukō","country":"JP","lat":34.96545,"lon":135.70415},{"name":"Munakata","country":"JP","lat":33.7957,"lon":130.55895},{"name":"Murakami","country":"JP","lat":38.23333,"lon":139.48333},{"name":"Muramatsu","country":"JP","lat":37.69257,"lon":139.17127},{"name":"Murata","country":"JP","lat":38.11858,"lon":140.72434},{"name":"Murayama","country":"JP","lat":38.46972,"lon":140.41441},{"name":"Mure","country":"JP","lat":36.75124,"lon":138.24018},{"name":"Muroran","country":"JP","lat":42.31722,"lon":140.98806},{"name":"Muroto","country":"JP","lat":33.33282,"lon":134.14169},{"name":"Muroto-misakicho","country":"JP","lat":33.28662,"lon":134.16832},{"name":"Musashimurayama","country":"JP","lat":35.74242,"lon":139.42635},{"name":"Musashino","country":"JP","lat":35.70611,"lon":139.55944},{"name":"Mutsu","country":"JP","lat":41.28944,"lon":141.21694},{"name":"Myōden","country":"JP","lat":35.69355,"lon":139.92902},{"name":"Myoko","country":"JP","lat":37.02534,"lon":138.25561},{"name":"Nabari","country":"JP","lat":34.61667,"lon":136.08333},{"name":"Nagadomi","country":"JP","lat":35.42933,"lon":140.23104},{"name":"Nagahama","country":"JP","lat":35.38333,"lon":136.26667},{"name":"Nagai","country":"JP","lat":38.10361,"lon":140.035},{"name":"Nagakute","country":"JP","lat":35.17325,"lon":137.05667},{"name":"Nagano","country":"JP","lat":36.65,"lon":138.18333},{"name":"Nagano","country":"JP","lat":38.09083,"lon":140.65528},{"name":"Naganohara","country":"JP","lat":36.55,"lon":138.63333},{"name":"Naganuma","country":"JP","lat":43.00583,"lon":141.68972},{"name":"Nagaoda","country":"JP","lat":33.00048,"lon":130.60313},{"name":"Nagaoka","country":"JP","lat":37.45,"lon":138.85},{"name":"Nagaoka","country":"JP","lat":34.93097,"lon":135.69203},{"name":"Nagareyama","country":"JP","lat":35.8563,"lon":139.90266},{"name":"Nagasaki","country":"JP","lat":32.75,"lon":129.88333},{"name":"Nagasaki","country":"JP","lat":38.32639,"lon":140.27639},{"name":"Nagasaki","country":"JP","lat":35.72983,"lon":139.68857},{"name":"Nagasao","country":"JP","lat":35.88333,"lon":140.28333},{"name":"Nagase","country":"JP","lat":35.22952,"lon":139.71555},{"name":"Nagasu","country":"JP","lat":32.93257,"lon":130.44284},{"name":"Nagata","country":"JP","lat":30.39516,"lon":130.42548},{"name":"Nagato","country":"JP","lat":34.38333,"lon":131.2},{"name":"Nagatoro","country":"JP","lat":36.10311,"lon":139.10951},{"name":"Nagatoyomachi","country":"JP","lat":42.69998,"lon":140.06163},{"name":"Nagawa","country":"JP","lat":36.28358,"lon":138.24783},{"name":"Nagi","country":"JP","lat":35.12303,"lon":134.17743},{"name":"Nagiso","country":"JP","lat":35.6086,"lon":137.61063},{"name":"Nago","country":"JP","lat":26.61502,"lon":127.98543},{"name":"Nagoya","country":"JP","lat":35.18147,"lon":136.90641},{"name":"Naha","country":"JP","lat":26.213,"lon":127.67851},{"name":"Nahari","country":"JP","lat":33.41667,"lon":134.01667},{"name":"Naie","country":"JP","lat":43.41833,"lon":141.88778},{"name":"Naka","country":"JP","lat":36.05,"lon":140.16667},{"name":"Naka-furano","country":"JP","lat":43.40278,"lon":142.4225},{"name":"Naka-kawabe","country":"JP","lat":35.48333,"lon":137.06667},{"name":"Naka-niida","country":"JP","lat":38.56861,"lon":140.85361},{"name":"Naka-satsunai","country":"JP","lat":42.7,"lon":143.13333},{"name":"Nakagawa","country":"JP","lat":37.47167,"lon":139.52902},{"name":"Nakagawa","country":"JP","lat":44.81448,"lon":142.07816},{"name":"Nakagusuku","country":"JP","lat":26.25,"lon":127.78333},{"name":"Nakaiburi","country":"JP","lat":34.30339,"lon":135.53322},{"name":"Nakajima","country":"JP","lat":36.46402,"lon":136.5871},{"name":"Nakama","country":"JP","lat":33.81688,"lon":130.70962},{"name":"Nakamatsu","country":"JP","lat":32.83523,"lon":131.04527},{"name":"Nakameguro","country":"JP","lat":35.6389,"lon":139.70065},{"name":"Nakami","country":"JP","lat":38.79717,"lon":140.5103},{"name":"Nakamura","country":"JP","lat":32.98333,"lon":132.93333},{"name":"Nakano","country":"JP","lat":36.75,"lon":138.36667},{"name":"Nakano","country":"JP","lat":35.70449,"lon":139.66946},{"name":"Nakanobu","country":"JP","lat":35.60498,"lon":139.71011},{"name":"Nakanojōmachi","country":"JP","lat":36.58717,"lon":138.84083},{"name":"Nakanokami","country":"JP","lat":30.41472,"lon":130.9056},{"name":"Nakasato","country":"JP","lat":40.96949,"lon":140.43861},{"name":"Nakashibetsu","country":"JP","lat":43.54849,"lon":144.97181},{"name":"Nakatogari","country":"JP","lat":35.13526,"lon":138.9028},{"name":"Nakatonbetsu","country":"JP","lat":44.97413,"lon":142.29263},{"name":"Nakatsu","country":"JP","lat":33.59811,"lon":131.1883},{"name":"Nakatsu","country":"JP","lat":33.46238,"lon":131.14174},{"name":"Nakatsugawa","country":"JP","lat":35.48333,"lon":137.5},{"name":"Nakatsukuma","country":"JP","lat":33.32351,"lon":130.44218},{"name":"Nakayama","country":"JP","lat":36.63333,"lon":138.96667},{"name":"Nakayama","country":"JP","lat":36.6865,"lon":138.36841},{"name":"Nakazawa","country":"JP","lat":35.98333,"lon":138.21667},{"name":"Nakijin","country":"JP","lat":26.67583,"lon":127.97167},{"name":"Nambu","country":"JP","lat":35.28333,"lon":138.45},{"name":"Namegata","country":"JP","lat":36.00705,"lon":140.49623},{"name":"Namerikawa","country":"JP","lat":36.75965,"lon":137.36215},{"name":"Namie","country":"JP","lat":37.48333,"lon":141},{"name":"Namioka","country":"JP","lat":40.71069,"lon":140.59048},{"name":"Nanaku","country":"JP","lat":40.40089,"lon":141.27271},{"name":"Nanao","country":"JP","lat":37.04816,"lon":136.96795},{"name":"Nanjō","country":"JP","lat":26.14447,"lon":127.76697},{"name":"Nankoku","country":"JP","lat":33.56943,"lon":133.64937},{"name":"Nantan","country":"JP","lat":35.1098,"lon":135.49164},{"name":"Nanto","country":"JP","lat":36.51274,"lon":136.89352},{"name":"Nanto-shi","country":"JP","lat":36.56922,"lon":136.91162},{"name":"Nanyō","country":"JP","lat":38.04322,"lon":140.11276},{"name":"Nara-shi","country":"JP","lat":34.68505,"lon":135.80485},{"name":"Narashino","country":"JP","lat":35.68184,"lon":140.04152},{"name":"Narimasu","country":"JP","lat":35.78355,"lon":139.6323},{"name":"Narita","country":"JP","lat":35.78333,"lon":140.31667},{"name":"Narusawa","country":"JP","lat":35.48321,"lon":138.70072},{"name":"Narutō","country":"JP","lat":35.6,"lon":140.41667},{"name":"Narutochō-mitsuishi","country":"JP","lat":34.19933,"lon":134.60932},{"name":"Nasu","country":"JP","lat":37.04209,"lon":140.09379},{"name":"Nasukarasuyama","country":"JP","lat":36.65233,"lon":140.16084},{"name":"Nasushiobara","country":"JP","lat":36.97682,"lon":140.06642},{"name":"Nasushiobara","country":"JP","lat":36.97952,"lon":139.99466},{"name":"Natori-shi","country":"JP","lat":38.16667,"lon":140.88333},{"name":"Nayoro","country":"JP","lat":44.35056,"lon":142.45778},{"name":"Naze","country":"JP","lat":28.36667,"lon":129.48333},{"name":"Negishichō","country":"JP","lat":35.41903,"lon":139.64237},{"name":"Nejime-kawaminan","country":"JP","lat":31.21131,"lon":130.77849},{"name":"Nemuro","country":"JP","lat":43.32361,"lon":145.575},{"name":"Neu","country":"JP","lat":35.23538,"lon":133.44658},{"name":"Neyagawa","country":"JP","lat":34.76615,"lon":135.62759},{"name":"Nezu","country":"JP","lat":35.71886,"lon":139.76467},{"name":"Nichinan","country":"JP","lat":31.6,"lon":131.36667},{"name":"Nihammatsu","country":"JP","lat":35.37278,"lon":139.39167},{"name":"Nihommatsu","country":"JP","lat":37.58333,"lon":140.43333},{"name":"Nihonbashi-bakurochō","country":"JP","lat":35.69328,"lon":139.78172},{"name":"Nihonbashi-Kayabachō","country":"JP","lat":35.67923,"lon":139.77872},{"name":"Niigata","country":"JP","lat":37.92259,"lon":139.04125},{"name":"Niihama","country":"JP","lat":33.96047,"lon":133.30522},{"name":"Niikappu","country":"JP","lat":42.35,"lon":142.31667},{"name":"Niimi","country":"JP","lat":34.98333,"lon":133.46667},{"name":"Niitsu-honchō","country":"JP","lat":37.80024,"lon":139.1224},{"name":"Niiza","country":"JP","lat":35.82088,"lon":139.55791},{"name":"Nikaho","country":"JP","lat":39.27077,"lon":139.93949},{"name":"Niki","country":"JP","lat":43.15,"lon":140.76667},{"name":"Nikkō","country":"JP","lat":36.75,"lon":139.61667},{"name":"Ninohe","country":"JP","lat":40.29081,"lon":141.31334},{"name":"Ninomiya","country":"JP","lat":35.3015,"lon":139.25581},{"name":"Nirasaki","country":"JP","lat":35.7,"lon":138.45},{"name":"Niseko","country":"JP","lat":42.80894,"lon":140.68596},{"name":"Niseko Town","country":"JP","lat":42.77871,"lon":140.66903},{"name":"Nishi-Tokyo-shi","country":"JP","lat":35.72526,"lon":139.5383},{"name":"Nishiarai","country":"JP","lat":35.78469,"lon":139.77882},{"name":"Nishiawakura","country":"JP","lat":35.17942,"lon":134.35043},{"name":"Nishida","country":"JP","lat":36.19999,"lon":133.30508},{"name":"Nishifukuma","country":"JP","lat":33.76627,"lon":130.47461},{"name":"Nishihara","country":"JP","lat":26.25353,"lon":127.74352},{"name":"Nishimagome","country":"JP","lat":35.58878,"lon":139.70397},{"name":"Nishimonai","country":"JP","lat":39.19517,"lon":140.40512},{"name":"Nishina","country":"JP","lat":34.77528,"lon":138.77523},{"name":"Nishinippori","country":"JP","lat":35.73264,"lon":139.76961},{"name":"Nishino","country":"JP","lat":34.16889,"lon":135.35297},{"name":"Nishinomiya","country":"JP","lat":34.71562,"lon":135.33199},{"name":"Nishinoomote","country":"JP","lat":30.73333,"lon":131},{"name":"Nishio","country":"JP","lat":34.86667,"lon":137.05},{"name":"Nishiokoppe","country":"JP","lat":44.33051,"lon":142.94857},{"name":"Nishishinminato","country":"JP","lat":36.77957,"lon":137.07576},{"name":"Nishitawara","country":"JP","lat":34.95556,"lon":134.76835},{"name":"Nishitokorozawa","country":"JP","lat":35.78931,"lon":139.45854},{"name":"Nishitōkyō","country":"JP","lat":35.73355,"lon":139.54761},{"name":"Nishiwaki","country":"JP","lat":34.98419,"lon":134.97407},{"name":"Nishiya","country":"JP","lat":35.16667,"lon":133.88333},{"name":"Nisshin","country":"JP","lat":35.13676,"lon":137.05238},{"name":"Nobeji","country":"JP","lat":40.86667,"lon":141.12611},{"name":"Nobeoka","country":"JP","lat":32.58333,"lon":131.66667},{"name":"Noboribetsu","country":"JP","lat":42.45215,"lon":141.17914},{"name":"Noborito","country":"JP","lat":35.62203,"lon":139.56051},{"name":"Noda","country":"JP","lat":35.94897,"lon":139.86793},{"name":"Noda","country":"JP","lat":40.10639,"lon":141.81778},{"name":"Nōgata","country":"JP","lat":33.74051,"lon":130.72263},{"name":"Nogi","country":"JP","lat":36.22787,"lon":139.73446},{"name":"Nojiri","country":"JP","lat":35.67257,"lon":137.63535},{"name":"Nōkan","country":"JP","lat":30.57332,"lon":130.9564},{"name":"Nomi","country":"JP","lat":36.42902,"lon":136.54564},{"name":"Nomimachi","country":"JP","lat":36.40969,"lon":136.48468},{"name":"Nonoichi","country":"JP","lat":36.53333,"lon":136.61667},{"name":"Noshio","country":"JP","lat":35.77731,"lon":139.50328},{"name":"Noshiro","country":"JP","lat":40.20838,"lon":140.0274},{"name":"Nozawa","country":"JP","lat":37.58725,"lon":139.64676},{"name":"Nukui","country":"JP","lat":35.74045,"lon":139.63136},{"name":"Numabukuro","country":"JP","lat":35.72174,"lon":139.66625},{"name":"Numakunai","country":"JP","lat":39.96667,"lon":141.21667},{"name":"Numata","country":"JP","lat":36.63333,"lon":139.05},{"name":"Numata","country":"JP","lat":43.80306,"lon":141.93889},{"name":"Numazu","country":"JP","lat":35.1,"lon":138.86667},{"name":"Nyūzen","country":"JP","lat":36.93744,"lon":137.50059},{"name":"Ō-zanuki","country":"JP","lat":36.2,"lon":139.51667},{"name":"Ōami","country":"JP","lat":35.51667,"lon":140.31667},{"name":"Ōamishirasato","country":"JP","lat":35.51183,"lon":140.35257},{"name":"Ōarai","country":"JP","lat":36.31409,"lon":140.58389},{"name":"Obama","country":"JP","lat":35.49576,"lon":135.74604},{"name":"Obanazawa","country":"JP","lat":38.60333,"lon":140.40194},{"name":"Obara","country":"JP","lat":35.08333,"lon":132.58333},{"name":"Obata","country":"JP","lat":36.23333,"lon":138.91667},{"name":"Obihiro","country":"JP","lat":42.91722,"lon":143.20444},{"name":"Obirachō","country":"JP","lat":44.01806,"lon":141.66833},{"name":"Obita","country":"JP","lat":32.81667,"lon":129.88333},{"name":"Ōbu","country":"JP","lat":35.01756,"lon":136.94947},{"name":"Obuchi","country":"JP","lat":40.96667,"lon":141.37333},{"name":"Obuse","country":"JP","lat":36.69595,"lon":138.31404},{"name":"Ochi","country":"JP","lat":33.53333,"lon":133.25},{"name":"Oda","country":"JP","lat":35.20103,"lon":132.49967},{"name":"Ōdachō-ōda","country":"JP","lat":35.19025,"lon":132.50846},{"name":"Ōdate","country":"JP","lat":40.27178,"lon":140.55756},{"name":"Odawara","country":"JP","lat":35.25556,"lon":139.15972},{"name":"Ōfunato","country":"JP","lat":39.07167,"lon":141.71667},{"name":"Oga","country":"JP","lat":39.871,"lon":139.84926},{"name":"Ōgaki","country":"JP","lat":35.35,"lon":136.61667},{"name":"Ogano","country":"JP","lat":36.02191,"lon":139.00301},{"name":"Ogasawara","country":"JP","lat":27.09688,"lon":142.20377},{"name":"Ogawa","country":"JP","lat":34.96667,"lon":136.96667},{"name":"Ogawa","country":"JP","lat":36.75,"lon":140.13333},{"name":"Ogawa","country":"JP","lat":34.40498,"lon":135.9702},{"name":"Ogawamachi","country":"JP","lat":36.05342,"lon":139.26612},{"name":"Ogi","country":"JP","lat":33.28028,"lon":130.19503},{"name":"Ōgi","country":"JP","lat":35.76666,"lon":139.77137},{"name":"Ogikubo","country":"JP","lat":35.69822,"lon":139.62372},{"name":"Ōgimi","country":"JP","lat":26.70119,"lon":128.11731},{"name":"Ogōri","country":"JP","lat":33.38738,"lon":130.54865},{"name":"Ogōri-shimogō","country":"JP","lat":34.1,"lon":131.4},{"name":"Ogose","country":"JP","lat":35.95889,"lon":139.29},{"name":"Ōguchi","country":"JP","lat":35.34146,"lon":136.91108},{"name":"Ogunimachi","country":"JP","lat":38.06153,"lon":139.74809},{"name":"Ogura","country":"JP","lat":36.4569,"lon":138.99513},{"name":"Ōgushi","country":"JP","lat":36.02234,"lon":139.4664},{"name":"Ōhara","country":"JP","lat":35.24761,"lon":140.39289},{"name":"Ōharu","country":"JP","lat":35.17457,"lon":136.82014},{"name":"Ōhira","country":"JP","lat":38.47138,"lon":140.8715},{"name":"Ōi","country":"JP","lat":35.85091,"lon":139.51998},{"name":"Oikawa","country":"JP","lat":37.572,"lon":139.88797},{"name":"Ōishida","country":"JP","lat":38.59696,"lon":140.37404},{"name":"Ōiso","country":"JP","lat":35.31558,"lon":139.31625},{"name":"Ōita","country":"JP","lat":33.23333,"lon":131.6},{"name":"Ōizumi-gakuenchō","country":"JP","lat":35.7653,"lon":139.58877},{"name":"Ōizumimachi","country":"JP","lat":35.76478,"lon":139.60216},{"name":"Oji","country":"JP","lat":34.5986,"lon":135.70214},{"name":"Ōji","country":"JP","lat":35.75736,"lon":139.7372},{"name":"Ojika","country":"JP","lat":33.18333,"lon":129.06667},{"name":"Ōjima","country":"JP","lat":35.68917,"lon":139.83282},{"name":"Ojiya","country":"JP","lat":37.3,"lon":138.8},{"name":"Ōka","country":"JP","lat":34.5,"lon":136.55},{"name":"Ōkawa","country":"JP","lat":33.20566,"lon":130.37527},{"name":"Ōkawara","country":"JP","lat":38.05,"lon":140.73361},{"name":"Okaya","country":"JP","lat":36.05659,"lon":138.0451},{"name":"Okayama","country":"JP","lat":34.65,"lon":133.93333},{"name":"Okazaki","country":"JP","lat":34.95,"lon":137.16667},{"name":"Okegawa","country":"JP","lat":36,"lon":139.55722},{"name":"Oketo","country":"JP","lat":43.67993,"lon":143.58993},{"name":"Okinawa","country":"JP","lat":26.33583,"lon":127.80139},{"name":"Okino","country":"JP","lat":32.87009,"lon":130.7917},{"name":"Okoppe","country":"JP","lat":44.46944,"lon":143.12},{"name":"Ōkubo","country":"JP","lat":35.70307,"lon":139.70436},{"name":"Ōkubo-naka","country":"JP","lat":34.4045,"lon":135.34087},{"name":"Ōkuchi-shinohara","country":"JP","lat":32.06779,"lon":130.62439},{"name":"Okugano","country":"JP","lat":34.41667,"lon":131.83333},{"name":"Okuno","country":"JP","lat":34.12245,"lon":134.4927},{"name":"Okunoya","country":"JP","lat":36.28333,"lon":140.41667},{"name":"Okushiri","country":"JP","lat":42.17213,"lon":139.51228},{"name":"Ōma","country":"JP","lat":41.52728,"lon":140.9109},{"name":"Ōmachi","country":"JP","lat":36.5,"lon":137.86667},{"name":"Ōmachi","country":"JP","lat":33.21882,"lon":130.11966},{"name":"Omaezaki","country":"JP","lat":34.59882,"lon":138.21934},{"name":"Ōmagari","country":"JP","lat":39.45,"lon":140.48333},{"name":"Ōmamachō-ōmama","country":"JP","lat":36.43181,"lon":139.27534},{"name":"Ōme","country":"JP","lat":35.78389,"lon":139.24306},{"name":"Omi","country":"JP","lat":36.45,"lon":138.05},{"name":"Omigawa","country":"JP","lat":35.85,"lon":140.61667},{"name":"Ōmihachiman","country":"JP","lat":35.12861,"lon":136.0976},{"name":"Omitama","country":"JP","lat":36.25449,"lon":140.37962},{"name":"Ōmiya","country":"JP","lat":36.73333,"lon":139.86667},{"name":"Ōmiya","country":"JP","lat":36.55,"lon":140.41667},{"name":"Ōmorinaka","country":"JP","lat":35.56667,"lon":139.73333},{"name":"Ōmu","country":"JP","lat":44.57778,"lon":142.96134},{"name":"Ōmura","country":"JP","lat":32.92139,"lon":129.95389},{"name":"Ōmuta","country":"JP","lat":33.03333,"lon":130.45},{"name":"Onagawa Chō","country":"JP","lat":38.4466,"lon":141.44794},{"name":"Ōnishi","country":"JP","lat":34.6795,"lon":136.04265},{"name":"Onna","country":"JP","lat":26.49543,"lon":127.85098},{"name":"Ono","country":"JP","lat":35.98106,"lon":136.48727},{"name":"Ono","country":"JP","lat":34.85,"lon":134.93333},{"name":"Ōno","country":"JP","lat":40.28533,"lon":141.62875},{"name":"Ōno-hara","country":"JP","lat":34.28333,"lon":132.26667},{"name":"Ono-niimachi","country":"JP","lat":37.28749,"lon":140.6328},{"name":"Onoda","country":"JP","lat":34.00139,"lon":131.18361},{"name":"Ōnojō","country":"JP","lat":33.53567,"lon":130.47861},{"name":"Onomichi","country":"JP","lat":34.41667,"lon":133.2},{"name":"Onuma","country":"JP","lat":35.51667,"lon":138.85},{"name":"Osaka","country":"JP","lat":34.69379,"lon":135.50107},{"name":"Ōsaka-sayama","country":"JP","lat":34.49524,"lon":135.55069},{"name":"Ōsaki","country":"JP","lat":31.425,"lon":131.02167},{"name":"Ōsaki","country":"JP","lat":38.58866,"lon":140.973},{"name":"Oshamambe","country":"JP","lat":42.50932,"lon":140.37733},{"name":"Oshiage","country":"JP","lat":35.71119,"lon":139.81718},{"name":"Oshidomari","country":"JP","lat":45.24188,"lon":141.21078},{"name":"Oshima","country":"JP","lat":36.98711,"lon":136.77249},{"name":"Ōshima","country":"JP","lat":33.93975,"lon":132.19085},{"name":"Ōshima","country":"JP","lat":34.74824,"lon":139.36243},{"name":"Oshima-shiriuchi","country":"JP","lat":41.60099,"lon":140.4227},{"name":"Oshino","country":"JP","lat":35.45938,"lon":138.85852},{"name":"Ōshio","country":"JP","lat":37.66667,"lon":139.98333},{"name":"Ōshū","country":"JP","lat":39.13927,"lon":141.1685},{"name":"Ōta","country":"JP","lat":36.3,"lon":139.36667},{"name":"Ōta","country":"JP","lat":39.43185,"lon":140.75093},{"name":"Ōtake","country":"JP","lat":34.20754,"lon":132.22063},{"name":"Ōtaki","country":"JP","lat":35.28784,"lon":140.24363},{"name":"Otaru","country":"JP","lat":43.18944,"lon":141.00222},{"name":"Ōtawara","country":"JP","lat":36.86667,"lon":140.03333},{"name":"Ōtera","country":"JP","lat":37.55811,"lon":139.98798},{"name":"Otobe","country":"JP","lat":41.96778,"lon":140.13806},{"name":"Otofuke","country":"JP","lat":42.99167,"lon":143.20028},{"name":"Otomo","country":"JP","lat":36.08491,"lon":138.77431},{"name":"Ōtsu","country":"JP","lat":35,"lon":135.86667},{"name":"Ōtsuchi","country":"JP","lat":39.36667,"lon":141.9},{"name":"Ōtsuka","country":"JP","lat":35.72403,"lon":139.72868},{"name":"Ōtsuki","country":"JP","lat":35.61851,"lon":138.97396},{"name":"Ōuchi","country":"JP","lat":37.87806,"lon":140.82262},{"name":"Ōuda","country":"JP","lat":34.46667,"lon":135.93333},{"name":"Ōuda-yamaguchi","country":"JP","lat":34.45923,"lon":135.95363},{"name":"Ōwa","country":"JP","lat":36.19944,"lon":139.49465},{"name":"Ōwani","country":"JP","lat":40.5197,"lon":140.56872},{"name":"Owariasahi","country":"JP","lat":35.208,"lon":137.03},{"name":"Ōwarino","country":"JP","lat":37.01169,"lon":138.65466},{"name":"Owase","country":"JP","lat":34.06667,"lon":136.2},{"name":"Oyabe","country":"JP","lat":36.66667,"lon":136.85},{"name":"Oyama","country":"JP","lat":36.3,"lon":139.8},{"name":"Oyama","country":"JP","lat":35.35693,"lon":138.99759},{"name":"Ōyama","country":"JP","lat":34.60359,"lon":138.21719},{"name":"Ōyama-higashichō","country":"JP","lat":35.74968,"lon":139.70607},{"name":"Ōyama-kanaichō","country":"JP","lat":35.74686,"lon":139.70406},{"name":"Ōyama-nishichō","country":"JP","lat":35.74683,"lon":139.6948},{"name":"Oyamazaki","country":"JP","lat":34.89396,"lon":135.68463},{"name":"Ōyanomachi-noboritate","country":"JP","lat":32.59647,"lon":130.43411},{"name":"Ōyauchi","country":"JP","lat":37.2,"lon":140.98333},{"name":"Ōzato","country":"JP","lat":34.96902,"lon":135.41064},{"name":"Ozora","country":"JP","lat":43.91298,"lon":144.16852},{"name":"Ōzu","country":"JP","lat":32.8804,"lon":130.87161},{"name":"Ōzu","country":"JP","lat":33.5,"lon":132.55},{"name":"Pippu","country":"JP","lat":43.86944,"lon":142.47389},{"name":"Rankoshimachi","country":"JP","lat":42.80904,"lon":140.53941},{"name":"Ranzan","country":"JP","lat":36.05528,"lon":139.31503},{"name":"Rausu","country":"JP","lat":44.01806,"lon":145.19197},{"name":"Rebun","country":"JP","lat":42.57389,"lon":140.60056},{"name":"Rifu","country":"JP","lat":38.33092,"lon":140.97691},{"name":"Rikubetsu","country":"JP","lat":43.47095,"lon":143.7458},{"name":"Rikuzen-Takata","country":"JP","lat":39.02032,"lon":141.65418},{"name":"Rikuzentakata","country":"JP","lat":39.03759,"lon":141.60004},{"name":"Rinkan","country":"JP","lat":35.49836,"lon":139.44886},{"name":"Rishiri Town","country":"JP","lat":45.15928,"lon":141.19629},{"name":"Rittō","country":"JP","lat":35.02745,"lon":135.99971},{"name":"Rokuchō","country":"JP","lat":35.78341,"lon":139.81967},{"name":"Rokugō","country":"JP","lat":39.41667,"lon":140.55},{"name":"Roppongi","country":"JP","lat":35.66322,"lon":139.73219},{"name":"Rumoi","country":"JP","lat":43.93444,"lon":141.64278},{"name":"Rusutsu","country":"JP","lat":42.73417,"lon":140.87278},{"name":"Ryōgoku","country":"JP","lat":35.71667,"lon":140.36667},{"name":"Ryōtsu-minato","country":"JP","lat":38.07817,"lon":138.43939},{"name":"Ryūgasaki","country":"JP","lat":35.9,"lon":140.18333},{"name":"Ryūmaichō","country":"JP","lat":36.28333,"lon":139.41667},{"name":"Ryūō","country":"JP","lat":35.65,"lon":138.5},{"name":"Ryūō","country":"JP","lat":35.0608,"lon":136.12453},{"name":"Sabae","country":"JP","lat":35.94647,"lon":136.18498},{"name":"Sadamitsu","country":"JP","lat":34.03167,"lon":134.07063},{"name":"Sado","country":"JP","lat":38.79842,"lon":140.21994},{"name":"Sado","country":"JP","lat":38.02496,"lon":138.35931},{"name":"Saga","country":"JP","lat":33.23333,"lon":130.3},{"name":"Sagae","country":"JP","lat":38.3725,"lon":140.2725},{"name":"Sagamihara","country":"JP","lat":35.56707,"lon":139.24167},{"name":"Sagara","country":"JP","lat":34.68503,"lon":138.20461},{"name":"Saginomiya","country":"JP","lat":35.72446,"lon":139.63724},{"name":"Sai","country":"JP","lat":41.43019,"lon":140.86429},{"name":"Saijō","country":"JP","lat":34.93333,"lon":133.11667},{"name":"Saijō","country":"JP","lat":33.91667,"lon":133.18333},{"name":"Saikai","country":"JP","lat":32.9839,"lon":129.6809},{"name":"Saiki","country":"JP","lat":32.95,"lon":131.9},{"name":"Saikū","country":"JP","lat":34.53333,"lon":136.63333},{"name":"Saikubo","country":"JP","lat":36.52239,"lon":138.54044},{"name":"Saitama","country":"JP","lat":35.90807,"lon":139.65657},{"name":"Saito","country":"JP","lat":32.08199,"lon":131.39957},{"name":"Saka","country":"JP","lat":34.33333,"lon":132.51667},{"name":"Sakado","country":"JP","lat":35.95694,"lon":139.38889},{"name":"Sakae","country":"JP","lat":36.9876,"lon":138.57742},{"name":"Sakahogi","country":"JP","lat":35.42666,"lon":136.98546},{"name":"Sakai","country":"JP","lat":36.1,"lon":139.8},{"name":"Sakai","country":"JP","lat":34.95535,"lon":133.9117},{"name":"Sakai","country":"JP","lat":34.58216,"lon":135.46653},{"name":"Sakai","country":"JP","lat":35.70571,"lon":139.54381},{"name":"Sakai","country":"JP","lat":35.35323,"lon":139.21012},{"name":"Sakai","country":"JP","lat":36.1473,"lon":136.19408},{"name":"Sakai-nakajima","country":"JP","lat":36.26667,"lon":139.25},{"name":"Sakaidechō","country":"JP","lat":34.32278,"lon":133.8356},{"name":"Sakaiminato","country":"JP","lat":35.53774,"lon":133.23094},{"name":"Sakaki","country":"JP","lat":36.46667,"lon":138.18333},{"name":"Sakakita","country":"JP","lat":36.42567,"lon":138.01661},{"name":"Sakamoto","country":"JP","lat":37.91667,"lon":140.9},{"name":"Sakanoue","country":"JP","lat":41.91506,"lon":140.28757},{"name":"Sakaridani","country":"JP","lat":34.27,"lon":132.91667},{"name":"Sakata","country":"JP","lat":38.91667,"lon":139.855},{"name":"Sakawa","country":"JP","lat":33.50744,"lon":133.28478},{"name":"Saki","country":"JP","lat":34.29776,"lon":136.39308},{"name":"Saku","country":"JP","lat":36.21667,"lon":138.48333},{"name":"Sakura","country":"JP","lat":35.71667,"lon":140.23333},{"name":"Sakura","country":"JP","lat":36.72072,"lon":139.98779},{"name":"Sakuradai","country":"JP","lat":35.74405,"lon":139.66071},{"name":"Sakuragaokachō","country":"JP","lat":35.65578,"lon":139.70129},{"name":"Sakuragawa","country":"JP","lat":36.25052,"lon":140.11565},{"name":"Sakurai","country":"JP","lat":34.5,"lon":135.85},{"name":"Samata","country":"JP","lat":32.62114,"lon":130.82129},{"name":"Sanagōchi","country":"JP","lat":33.9931,"lon":134.45328},{"name":"Sanda","country":"JP","lat":34.94716,"lon":135.21389},{"name":"Sandachō","country":"JP","lat":34.88444,"lon":135.22694},{"name":"Sanjō","country":"JP","lat":37.61667,"lon":138.95},{"name":"Sanjūkyūsen","country":"JP","lat":44.03333,"lon":143},{"name":"Sankasho","country":"JP","lat":32.68176,"lon":131.20833},{"name":"Sanmu","country":"JP","lat":35.62756,"lon":140.41762},{"name":"Sannohe","country":"JP","lat":40.37306,"lon":141.25722},{"name":"Sano","country":"JP","lat":36.31667,"lon":139.58333},{"name":"Sanuki","country":"JP","lat":34.26686,"lon":134.22958},{"name":"Sanyōonoda","country":"JP","lat":34.03246,"lon":131.16028},{"name":"Sapporo","country":"JP","lat":43.06667,"lon":141.35},{"name":"Sarabetsu","country":"JP","lat":42.656,"lon":143.18708},{"name":"Sarubetsu","country":"JP","lat":42.87242,"lon":143.3376},{"name":"Sarugamori","country":"JP","lat":41.29113,"lon":141.39643},{"name":"Saruhashi","country":"JP","lat":35.61667,"lon":138.98333},{"name":"Sarushi","country":"JP","lat":33.21667,"lon":130.16667},{"name":"Sasadaira","country":"JP","lat":35.70556,"lon":139.1425},{"name":"Sasaguri","country":"JP","lat":33.61561,"lon":130.55105},{"name":"Sasayama","country":"JP","lat":35.06667,"lon":135.21667},{"name":"Sasazuka","country":"JP","lat":35.67552,"lon":139.6666},{"name":"Sasebo","country":"JP","lat":33.16834,"lon":129.72502},{"name":"Sashiki","country":"JP","lat":32.30173,"lon":130.50376},{"name":"Sashiōgi","country":"JP","lat":35.9141,"lon":139.58046},{"name":"Sato","country":"JP","lat":33.9603,"lon":135.11896},{"name":"Satohata","country":"JP","lat":38.43216,"lon":141.02194},{"name":"Satoshō","country":"JP","lat":34.5138,"lon":133.55687},{"name":"Satte","country":"JP","lat":36.07254,"lon":139.72615},{"name":"Sawara","country":"JP","lat":34.39579,"lon":136.40723},{"name":"Sawara","country":"JP","lat":35.88333,"lon":140.5},{"name":"Sayama","country":"JP","lat":35.85295,"lon":139.41212},{"name":"Sayama","country":"JP","lat":34.51685,"lon":135.56298},{"name":"Sayama","country":"JP","lat":34.87532,"lon":135.75021},{"name":"Sayō","country":"JP","lat":35.00268,"lon":134.35896},{"name":"Seirō","country":"JP","lat":37.98333,"lon":139.255},{"name":"Seisui","country":"JP","lat":28.13692,"lon":129.33067},{"name":"Seiyo","country":"JP","lat":33.38817,"lon":132.63176},{"name":"Seki","country":"JP","lat":37.99009,"lon":140.44759},{"name":"Sekigahara","country":"JP","lat":35.36667,"lon":136.46667},{"name":"Sekimachi","country":"JP","lat":35.48333,"lon":136.91667},{"name":"Sekimachi","country":"JP","lat":33.06336,"lon":130.54258},{"name":"Sekimachi-higashi","country":"JP","lat":35.72568,"lon":139.58355},{"name":"Sekimachi-minami","country":"JP","lat":35.72138,"lon":139.58077},{"name":"Semboku","country":"JP","lat":39.7093,"lon":140.74654},{"name":"Sendagaya","country":"JP","lat":35.67784,"lon":139.70822},{"name":"Sendagi","country":"JP","lat":35.72812,"lon":139.76017},{"name":"Sendai","country":"JP","lat":31.81667,"lon":130.3},{"name":"Sendai","country":"JP","lat":38.26667,"lon":140.86667},{"name":"Senju","country":"JP","lat":35.74888,"lon":139.80261},{"name":"Sennan","country":"JP","lat":34.34835,"lon":135.26842},{"name":"Senzoku","country":"JP","lat":35.72205,"lon":139.79206},{"name":"Setakamachi-takayanagi","country":"JP","lat":33.14858,"lon":130.46548},{"name":"Setamai","country":"JP","lat":39.13333,"lon":141.58333},