[{"name":"Ahero","country":"KE","lat":-0.17359,"lon":34.9189},{"name":"Amagoru","country":"KE","lat":0.63157,"lon":34.32773},{"name":"Archers Post","country":"KE","lat":0.63967,"lon":37.66596},{"name":"Athi River","country":"KE","lat":-1.4563,"lon":36.97826},{"name":"Awasi","country":"KE","lat":-0.16769,"lon":35.08239},{"name":"Awendo","country":"KE","lat":-0.90711,"lon":34.52895},{"name":"Awendo","country":"KE","lat":-0.5,"lon":34.4},{"name":"Bahati","country":"KE","lat":-0.15407,"lon":36.14634},{"name":"Bamba","country":"KE","lat":-3.54099,"lon":39.52268},{"name":"Banissa","country":"KE","lat":3.94102,"lon":40.34248},{"name":"Baragoi","country":"KE","lat":1.78398,"lon":36.78597},{"name":"Baraton","country":"KE","lat":0.25517,"lon":35.0827},{"name":"Baringo","country":"KE","lat":0.46667,"lon":35.96667},{"name":"Bomet","country":"KE","lat":-0.78129,"lon":35.34156},{"name":"Bondo","country":"KE","lat":0.23522,"lon":34.28086},{"name":"Bondo","country":"KE","lat":-0.0962,"lon":34.27322},{"name":"Brooke","country":"KE","lat":-0.33408,"lon":35.32537},{"name":"Bungoma","country":"KE","lat":0.5635,"lon":34.56055},{"name":"Bungoma","country":"KE","lat":0.58333,"lon":34.58333},{"name":"Bura","country":"KE","lat":-1.09431,"lon":39.94185},{"name":"Bura Tana","country":"KE","lat":-1.19326,"lon":39.84049},{"name":"Burnt Forest","country":"KE","lat":0.21684,"lon":35.4325},{"name":"Busia","country":"KE","lat":0.46005,"lon":34.11169},{"name":"Bute","country":"KE","lat":3.35875,"lon":39.41968},{"name":"Butere","country":"KE","lat":0.20694,"lon":34.49006},{"name":"Chaka","country":"KE","lat":-0.35973,"lon":37.00002},{"name":"Chavakali","country":"KE","lat":0.11768,"lon":34.73339},{"name":"Chepareria","country":"KE","lat":1.30583,"lon":35.20365},{"name":"Cheptai","country":"KE","lat":0.79975,"lon":34.4778},{"name":"Chogoria","country":"KE","lat":-0.22954,"lon":37.62732},{"name":"Chuka","country":"KE","lat":-0.33316,"lon":37.64587},{"name":"Chwele","country":"KE","lat":0.76239,"lon":34.54852},{"name":"Dadaab","country":"KE","lat":0.05244,"lon":40.30855},{"name":"Dundori","country":"KE","lat":-0.2519,"lon":36.23641},{"name":"El Wak","country":"KE","lat":2.80922,"lon":40.92885},{"name":"Elburgon","country":"KE","lat":-0.30037,"lon":35.80935},{"name":"Eldama Ravine","country":"KE","lat":0.05196,"lon":35.72734},{"name":"Eldas","country":"KE","lat":2.49184,"lon":39.56653},{"name":"Eldoret","country":"KE","lat":0.52036,"lon":35.26993},{"name":"Emali","country":"KE","lat":-2.08033,"lon":37.47202},{"name":"Embu","country":"KE","lat":-0.53987,"lon":37.45743},{"name":"Endarasha","country":"KE","lat":-0.3055,"lon":36.79596},{"name":"Engineer","country":"KE","lat":-0.60538,"lon":36.57629},{"name":"Ewuaso","country":"KE","lat":-1.14856,"lon":36.49712},{"name":"Faza","country":"KE","lat":-2.05604,"lon":41.11184},{"name":"Funyula","country":"KE","lat":0.27878,"lon":34.11869},{"name":"Garba Tula","country":"KE","lat":0.53392,"lon":38.51878},{"name":"Garissa","country":"KE","lat":-0.45275,"lon":39.64601},{"name":"Garsen","country":"KE","lat":-2.26645,"lon":40.10975},{"name":"Gatundu","country":"KE","lat":-1.05,"lon":36.9},{"name":"Gazi","country":"KE","lat":-4.42402,"lon":39.50588},{"name":"Gilgil","country":"KE","lat":-0.50397,"lon":36.31845},{"name":"Giriftu","country":"KE","lat":2.00039,"lon":39.75191},{"name":"Githiga A","country":"KE","lat":-1.08693,"lon":36.73405},{"name":"Githunguri","country":"KE","lat":-1.05754,"lon":36.77625},{"name":"Githunguri","country":"KE","lat":-1.29996,"lon":36.99047},{"name":"Gongoni","country":"KE","lat":-3.03668,"lon":40.13748},{"name":"Habaswein","country":"KE","lat":1.01659,"lon":39.49122},{"name":"Hola","country":"KE","lat":-1.48256,"lon":40.03341},{"name":"Homa Bay","country":"KE","lat":-0.52731,"lon":34.45714},{"name":"Ijara","country":"KE","lat":-1.59517,"lon":40.51444},{"name":"Ikinu","country":"KE","lat":-1.10804,"lon":36.79161},{"name":"Il","country":"KE","lat":-2.09761,"lon":36.79224},{"name":"Illasit","country":"KE","lat":-2.95887,"lon":37.57112},{"name":"Imara Daima Estate","country":"KE","lat":-1.32323,"lon":36.88021},{"name":"Isebania","country":"KE","lat":-1.22511,"lon":34.46385},{"name":"Isineti","country":"KE","lat":-2.73555,"lon":37.50673},{"name":"Isinya","country":"KE","lat":-1.6792,"lon":36.85056},{"name":"Isiolo","country":"KE","lat":0.35462,"lon":37.58218},{"name":"Iten","country":"KE","lat":0.67028,"lon":35.50806},{"name":"Jebilat","country":"KE","lat":-0.69356,"lon":35.07132},{"name":"Juja","country":"KE","lat":-1.10148,"lon":37.0132},{"name":"Kabarnet","country":"KE","lat":0.49194,"lon":35.74303},{"name":"Kagio","country":"KE","lat":-0.62482,"lon":37.25551},{"name":"Kagumo","country":"KE","lat":-0.47335,"lon":37.23737},{"name":"Kainuk","country":"KE","lat":1.77442,"lon":35.50641},{"name":"Kajiado","country":"KE","lat":-1.85238,"lon":36.77683},{"name":"Kakamega","country":"KE","lat":0.28422,"lon":34.75229},{"name":"Kakuma","country":"KE","lat":3.71363,"lon":34.8572},{"name":"Kaloleni","country":"KE","lat":-3.81413,"lon":39.63144},{"name":"Kampi Ya Moto","country":"KE","lat":-0.12429,"lon":35.93957},{"name":"Kangare","country":"KE","lat":-0.79569,"lon":36.8813},{"name":"Kangema","country":"KE","lat":-0.68553,"lon":36.96463},{"name":"Kangundo","country":"KE","lat":-1.30342,"lon":37.34813},{"name":"Kapcherop","country":"KE","lat":1.04026,"lon":35.32121},{"name":"Kapenguria","country":"KE","lat":1.23889,"lon":35.11194},{"name":"Kapkatet","country":"KE","lat":-0.62966,"lon":35.19441},{"name":"Kapsabet","country":"KE","lat":0.20387,"lon":35.105},{"name":"Kapsoit","country":"KE","lat":-0.31984,"lon":35.21845},{"name":"Kapsokwony","country":"KE","lat":0.85222,"lon":34.70194},{"name":"Kapsowar","country":"KE","lat":0.9789,"lon":35.55854},{"name":"Karatina","country":"KE","lat":-0.4841,"lon":37.12662},{"name":"Karuga","country":"KE","lat":0.03843,"lon":36.29279},{"name":"Karuri","country":"KE","lat":-1.17641,"lon":36.7564},{"name":"Karuri","country":"KE","lat":-0.7,"lon":37.18333},{"name":"Kasuku","country":"KE","lat":-0.13103,"lon":36.37886},{"name":"Kathwana","country":"KE","lat":-0.33139,"lon":37.86861},{"name":"Katito","country":"KE","lat":-0.26934,"lon":34.97197},{"name":"Kavati","country":"KE","lat":-1.23403,"lon":37.91571},{"name":"Kawaida","country":"KE","lat":-1.14639,"lon":36.7598},{"name":"Kebirigo","country":"KE","lat":-0.60292,"lon":34.96124},{"name":"Kendu Bay","country":"KE","lat":-0.3618,"lon":34.65272},{"name":"Kenol","country":"KE","lat":-0.9373,"lon":37.12275},{"name":"Kenyenya","country":"KE","lat":-0.88754,"lon":34.73204},{"name":"Kericho","country":"KE","lat":-0.36774,"lon":35.28314},{"name":"Keringet","country":"KE","lat":-0.46758,"lon":35.68185},{"name":"Keroka","country":"KE","lat":-0.77612,"lon":34.94678},{"name":"Kerugoya","country":"KE","lat":-0.49887,"lon":37.28031},{"name":"Kesses","country":"KE","lat":0.30206,"lon":35.31441},{"name":"Khayega","country":"KE","lat":0.20888,"lon":34.77078},{"name":"Khwisero","country":"KE","lat":0.17124,"lon":34.59466},{"name":"Kiambu","country":"KE","lat":-1.17139,"lon":36.83556},{"name":"Kiambur","country":"KE","lat":0.40778,"lon":36.29533},{"name":"Kianyaga","country":"KE","lat":-0.49546,"lon":37.35027},{"name":"Kiboko","country":"KE","lat":-2.21053,"lon":37.72026},{"name":"Kibwezi","country":"KE","lat":-2.40935,"lon":37.96631},{"name":"Kiganjo","country":"KE","lat":-0.39626,"lon":37.00006},{"name":"Kihancha","country":"KE","lat":-1.19347,"lon":34.61967},{"name":"Kiirua","country":"KE","lat":0.12079,"lon":37.55953},{"name":"Kijabe","country":"KE","lat":-0.948,"lon":36.598},{"name":"Kikima","country":"KE","lat":-1.66208,"lon":37.4469},{"name":"Kikuyu","country":"KE","lat":-1.24627,"lon":36.66291},{"name":"Kilgoris","country":"KE","lat":-1.00819,"lon":34.87809},{"name":"Kilifi","country":"KE","lat":-3.63045,"lon":39.84992},{"name":"Kimana","country":"KE","lat":-2.79884,"lon":37.53708},{"name":"Kimbimbi","country":"KE","lat":-0.62233,"lon":37.36482},{"name":"Kimende","country":"KE","lat":-0.98294,"lon":36.63091},{"name":"Kimilili","country":"KE","lat":0.78775,"lon":34.71562},{"name":"Kiminini","country":"KE","lat":0.89284,"lon":34.92468},{"name":"Kinango","country":"KE","lat":-4.13723,"lon":39.31528},{"name":"Kinna","country":"KE","lat":0.31883,"lon":38.20499},{"name":"Kinoi","country":"KE","lat":-1.6558,"lon":37.37454},{"name":"Kinungi","country":"KE","lat":-0.80415,"lon":36.53133},{"name":"Kipini","country":"KE","lat":-2.52565,"lon":40.5262},{"name":"Kipkelion","country":"KE","lat":-0.19982,"lon":35.46735},{"name":"Kiriaini","country":"KE","lat":-0.87917,"lon":36.88736},{"name":"Kiserian","country":"KE","lat":-1.4275,"lon":36.6865},{"name":"Kisii","country":"KE","lat":-0.68174,"lon":34.76666},{"name":"Kisumu","country":"KE","lat":-0.10221,"lon":34.76171},{"name":"Kitale","country":"KE","lat":1.01572,"lon":35.00622},{"name":"Kitengela","country":"KE","lat":-1.47612,"lon":36.96144},{"name":"Kithii","country":"KE","lat":-1.39897,"lon":37.31378},{"name":"Kithimani","country":"KE","lat":-1.18483,"lon":37.44685},{"name":"Kitui","country":"KE","lat":-1.36696,"lon":38.01055},{"name":"Konza","country":"KE","lat":-1.73947,"lon":37.13195},{"name":"Kutus","country":"KE","lat":-0.57534,"lon":37.3269},{"name":"Kwale","country":"KE","lat":-4.17375,"lon":39.45206},{"name":"Lafey","country":"KE","lat":3.15106,"lon":41.18577},{"name":"Laisamis","country":"KE","lat":1.5932,"lon":37.80595},{"name":"Lamu","country":"KE","lat":-2.27169,"lon":40.90201},{"name":"Lang'ata","country":"KE","lat":-1.3666,"lon":36.73324},{"name":"Lare","country":"KE","lat":0.33727,"lon":37.93749},{"name":"Limuru","country":"KE","lat":-1.1136,"lon":36.64205},{"name":"Litein","country":"KE","lat":-0.58249,"lon":35.18969},{"name":"Lodwar","country":"KE","lat":3.11988,"lon":35.59642},{"name":"Loiyangalani","country":"KE","lat":2.74439,"lon":36.7146},{"name":"Lokichar","country":"KE","lat":2.38116,"lon":35.65123},{"name":"Lokichokio","country":"KE","lat":4.20771,"lon":34.35378},{"name":"Lolgorien","country":"KE","lat":-1.22906,"lon":34.80711},{"name":"Londiani","country":"KE","lat":-0.16552,"lon":35.59359},{"name":"Luanda","country":"KE","lat":0.31354,"lon":34.07146},{"name":"Luanda","country":"KE","lat":0.02333,"lon":34.58661},{"name":"Lugulu","country":"KE","lat":0.39337,"lon":34.30399},{"name":"Lunga-Lunga","country":"KE","lat":-4.55276,"lon":39.12363},{"name":"Maai Mahiu","country":"KE","lat":-0.98855,"lon":36.58537},{"name":"Machakos","country":"KE","lat":-1.52233,"lon":37.26521},{"name":"Mackinnon Road","country":"KE","lat":-3.72332,"lon":39.03019},{"name":"Mado Gashi","country":"KE","lat":0.73112,"lon":39.17388},{"name":"Magadi","country":"KE","lat":-1.90122,"lon":36.287},{"name":"Magena Marabu","country":"KE","lat":-0.91383,"lon":34.79623},{"name":"Mai","country":"KE","lat":-0.98169,"lon":36.58642},{"name":"Mairo Inya","country":"KE","lat":0.02538,"lon":36.40865},{"name":"Majengo","country":"KE","lat":0.04944,"lon":34.72476},{"name":"Maji Mazuri","country":"KE","lat":-0.01966,"lon":35.69138},{"name":"Makindu","country":"KE","lat":-2.27808,"lon":37.81867},{"name":"Makueni Boma","country":"KE","lat":-1.80388,"lon":37.62405},{"name":"Makutano","country":"KE","lat":1.25881,"lon":35.09569},{"name":"Makutano","country":"KE","lat":-1.41187,"lon":37.47088},{"name":"Malaba","country":"KE","lat":0.63513,"lon":34.28165},{"name":"Malava","country":"KE","lat":0.44714,"lon":34.85387},{"name":"Malikisi","country":"KE","lat":0.67694,"lon":34.42167},{"name":"Malindi","country":"KE","lat":-3.21799,"lon":40.11692},{"name":"Mandera","country":"KE","lat":3.93726,"lon":41.85688},{"name":"Maragua","country":"KE","lat":-0.79602,"lon":37.13292},{"name":"Maralal","country":"KE","lat":1.09667,"lon":36.69806},{"name":"Marereni","country":"KE","lat":-2.86041,"lon":40.15057},{"name":"Mariakani","country":"KE","lat":-3.86261,"lon":39.47458},{"name":"Marigat","country":"KE","lat":0.47119,"lon":35.98638},{"name":"Marimanti","country":"KE","lat":-0.15457,"lon":37.97625},{"name":"Marsabit","country":"KE","lat":2.33468,"lon":37.99086},{"name":"Masalani","country":"KE","lat":-1.69405,"lon":40.17015},{"name":"Maseno","country":"KE","lat":-0.00661,"lon":34.60004},{"name":"Masii","country":"KE","lat":-1.46127,"lon":37.43849},{"name":"Matunda","country":"KE","lat":0.84443,"lon":35.13716},{"name":"Matuu","country":"KE","lat":-1.1454,"lon":37.54671},{"name":"Mau Narok","country":"KE","lat":-0.60661,"lon":36.00836},{"name":"Maua","country":"KE","lat":0.2332,"lon":37.94086},{"name":"Maungu","country":"KE","lat":-3.55813,"lon":38.74908},{"name":"Mazeras","country":"KE","lat":-3.96426,"lon":39.5498},{"name":"Mbale","country":"KE","lat":0.08213,"lon":34.72139},{"name":"Mbita","country":"KE","lat":-0.42492,"lon":34.20736},{"name":"Merti","country":"KE","lat":1.06725,"lon":38.6662},{"name":"Meru","country":"KE","lat":0.04626,"lon":37.65587},{"name":"Migori","country":"KE","lat":-1.06343,"lon":34.47313},{"name":"Mitunguu","country":"KE","lat":-0.10886,"lon":37.7826},{"name":"Mlolongo","country":"KE","lat":-1.39639,"lon":36.94028},{"name":"Mogonga","country":"KE","lat":-0.86478,"lon":34.76285},{"name":"Mogotio","country":"KE","lat":-0.02236,"lon":35.96124},{"name":"Moi‘s Bridge","country":"KE","lat":0.87178,"lon":35.12213},{"name":"Mokowe","country":"KE","lat":-2.23679,"lon":40.84555},{"name":"Molo","country":"KE","lat":-0.24849,"lon":35.73194},{"name":"Mombasa","country":"KE","lat":-4.05466,"lon":39.66359},{"name":"Mosocho","country":"KE","lat":-0.58864,"lon":34.73379},{"name":"Mosoriot","country":"KE","lat":0.32059,"lon":35.17599},{"name":"Moyale","country":"KE","lat":3.52661,"lon":39.0561},{"name":"Mpeketoni","country":"KE","lat":-2.38913,"lon":40.69812},{"name":"Msambweni","country":"KE","lat":-4.4619,"lon":39.48265},{"name":"Mtito Andei","country":"KE","lat":-2.68987,"lon":38.16687},{"name":"Mtwapa","country":"KE","lat":-3.93938,"lon":39.74877},{"name":"Muchorwi","country":"KE","lat":-0.3299,"lon":35.68751},{"name":"Muhoroni","country":"KE","lat":-0.15816,"lon":35.19645},{"name":"Muhuru","country":"KE","lat":-0.99862,"lon":34.09614},{"name":"Mukurwe-ini","country":"KE","lat":-0.56092,"lon":37.04759},{"name":"Mulot","country":"KE","lat":-0.93752,"lon":35.42162},{"name":"Mumias","country":"KE","lat":0.33474,"lon":34.48796},{"name":"Murang’a","country":"KE","lat":-0.72104,"lon":37.15259},{"name":"Mwatate","country":"KE","lat":-3.505,"lon":38.37722},{"name":"Mweiga","country":"KE","lat":-0.31977,"lon":36.90194},{"name":"Mwingi","country":"KE","lat":-0.93605,"lon":38.05955},{"name":"Nairagi Enkare","country":"KE","lat":-1.04444,"lon":36.16314},{"name":"Nairobi","country":"KE","lat":-1.28333,"lon":36.81667},{"name":"Naivasha","country":"KE","lat":-0.71383,"lon":36.43261},{"name":"Nakuru","country":"KE","lat":-0.30719,"lon":36.07225},{"name":"Nambare","country":"KE","lat":0.45813,"lon":34.25353},{"name":"Nandi Hills","country":"KE","lat":0.10366,"lon":35.18426},{"name":"Nanyuki","country":"KE","lat":0.00624,"lon":37.07398},{"name":"Naro Moru","country":"KE","lat":-0.16357,"lon":37.01773},{"name":"Narok","country":"KE","lat":-1.08083,"lon":35.87111},{"name":"Ndhiwa","country":"KE","lat":-0.73148,"lon":34.36785},{"name":"Ndori","country":"KE","lat":-0.07892,"lon":34.36329},{"name":"Ndunyu Njeru","country":"KE","lat":-0.54592,"lon":36.56182},{"name":"Ngewa","country":"KE","lat":-1.09196,"lon":36.8659},{"name":"Ngong","country":"KE","lat":-1.3527,"lon":36.6699},{"name":"Njoro","country":"KE","lat":-0.33024,"lon":35.94445},{"name":"Nkubu","country":"KE","lat":-0.06929,"lon":37.66618},{"name":"North Horr","country":"KE","lat":3.32205,"lon":37.07032},{"name":"Ntulelei","country":"KE","lat":-1.09573,"lon":36.08559},{"name":"Nunguni","country":"KE","lat":-1.79324,"lon":37.36276},{"name":"Nyahururu","country":"KE","lat":0.03813,"lon":36.36339},{"name":"Nyambunwa","country":"KE","lat":-0.67783,"lon":34.70722},{"name":"Nyamira","country":"KE","lat":-0.56333,"lon":34.93583},{"name":"Nyandiwa","country":"KE","lat":-0.72265,"lon":34.0591},{"name":"Nyangusu","country":"KE","lat":-0.93263,"lon":34.84421},{"name":"Nyansiongo","country":"KE","lat":-0.7596,"lon":35.0148},{"name":"Nyeri","country":"KE","lat":-0.42013,"lon":36.94759},{"name":"Ogembo","country":"KE","lat":-0.80116,"lon":34.72579},{"name":"Ogunja","country":"KE","lat":0.19019,"lon":34.29916},{"name":"Ol Donyo","country":"KE","lat":-1.084,"lon":37.25274},{"name":"Ol Joro Orok","country":"KE","lat":-0.07473,"lon":36.36288},{"name":"Ol Kalau South Settlement","country":"KE","lat":-0.27444,"lon":36.33999},{"name":"Ol Kalou","country":"KE","lat":-0.27088,"lon":36.37917},{"name":"Olenguruone","country":"KE","lat":-0.5861,"lon":35.68769},{"name":"Oloitokitok","country":"KE","lat":-2.92724,"lon":37.5103},{"name":"Olulung’a","country":"KE","lat":-1.00268,"lon":35.66336},{"name":"Ongata Rongai","country":"KE","lat":-1.3953,"lon":36.764},{"name":"Ortum","country":"KE","lat":1.43735,"lon":35.35629},{"name":"Othaya","country":"KE","lat":-0.54655,"lon":36.93178},{"name":"Oyugis","country":"KE","lat":-0.50974,"lon":34.73067},{"name":"Port Victoria","country":"KE","lat":0.09809,"lon":33.97248},{"name":"Pumwani","country":"KE","lat":-1.28316,"lon":36.84725},{"name":"Rabuor","country":"KE","lat":-0.14989,"lon":34.82584},{"name":"Ramu","country":"KE","lat":3.93147,"lon":41.22295},{"name":"Rironi","country":"KE","lat":-1.15116,"lon":36.63555},{"name":"Rodi","country":"KE","lat":-0.62457,"lon":34.503},{"name":"Rombo","country":"KE","lat":-3.04631,"lon":37.69539},{"name":"Rongai","country":"KE","lat":-0.17344,"lon":35.86313},{"name":"Rongo","country":"KE","lat":-0.75675,"lon":34.59833},{"name":"Ruiru","country":"KE","lat":-1.14665,"lon":36.96087},{"name":"Rumuruti","country":"KE","lat":0.2725,"lon":36.53806},{"name":"Runyenjes","country":"KE","lat":-0.42304,"lon":37.57043},{"name":"Saba Saba","country":"KE","lat":-0.87592,"lon":37.14324},{"name":"Sagana","country":"KE","lat":-0.66806,"lon":37.20875},{"name":"Samburu","country":"KE","lat":-3.7947,"lon":39.26368},{"name":"Sawa Sawa","country":"KE","lat":-4.47166,"lon":39.48463},{"name":"Sega","country":"KE","lat":0.25365,"lon":34.22784},{"name":"Serem","country":"KE","lat":0.07717,"lon":34.85473},{"name":"Shianda","country":"KE","lat":0.31943,"lon":34.57352},{"name":"Shimoni","country":"KE","lat":-4.64756,"lon":39.38175},{"name":"Siakago","country":"KE","lat":-0.57728,"lon":37.63996},{"name":"Siaya","country":"KE","lat":0.0607,"lon":34.28806},{"name":"Simba","country":"KE","lat":-2.15792,"lon":37.59166},{"name":"Sindo","country":"KE","lat":-0.54061,"lon":34.16891},{"name":"Sirisia","country":"KE","lat":0.75471,"lon":34.50351},{"name":"Sololo","country":"KE","lat":3.56392,"lon":38.64321},{"name":"Sondu","country":"KE","lat":-0.3906,"lon":35.01266},{"name":"Sori","country":"KE","lat":-0.8409,"lon":34.15978},{"name":"Sotik","country":"KE","lat":-0.69069,"lon":35.11102},{"name":"South Kinangop","country":"KE","lat":-0.7264,"lon":36.65258},{"name":"Subukia","country":"KE","lat":-0.01644,"lon":36.20927},{"name":"Suguta","country":"KE","lat":0.82495,"lon":36.68928},{"name":"Sultan Hamud","country":"KE","lat":-2.02042,"lon":37.37212},{"name":"Tabaka","country":"KE","lat":-0.74743,"lon":34.66682},{"name":"Takaba","country":"KE","lat":3.35528,"lon":40.22278},{"name":"Takaungu","country":"KE","lat":-3.6835,"lon":39.85687},{"name":"Tala","country":"KE","lat":-1.26849,"lon":37.32186},{"name":"Tarbaj","country":"KE","lat":2.2085,"lon":40.11812},{"name":"Taveta","country":"KE","lat":-3.39879,"lon":37.68336},{"name":"Thika","country":"KE","lat":-1.03326,"lon":37.06933},{"name":"Timau","country":"KE","lat":0.0835,"lon":37.23925},{"name":"Timboroa","country":"KE","lat":0.0855,"lon":35.53021},{"name":"Tinganga","country":"KE","lat":-1.13033,"lon":36.81358},{"name":"Turbo","country":"KE","lat":0.63367,"lon":35.04815},{"name":"Ukunda","country":"KE","lat":-4.2929,"lon":39.56404},{"name":"Upper Gilgil","country":"KE","lat":-0.21209,"lon":36.27248},{"name":"Usenge","country":"KE","lat":-0.06731,"lon":34.0566},{"name":"Vipingo","country":"KE","lat":-3.81466,"lon":39.81282},{"name":"Voi","country":"KE","lat":-3.39605,"lon":38.55609},{"name":"Wajir","country":"KE","lat":1.7471,"lon":40.05732},{"name":"Wamba","country":"KE","lat":0.98016,"lon":37.32349},{"name":"Wamunyu","country":"KE","lat":-1.40983,"lon":37.56358},{"name":"Wanguru","country":"KE","lat":-0.68393,"lon":37.35701},{"name":"Watamu","country":"KE","lat":-3.35335,"lon":40.02095},{"name":"Webuye","country":"KE","lat":0.6004,"lon":34.77119},{"name":"Witu","country":"KE","lat":-2.38892,"lon":40.43827},{"name":"Wiyumiririe","country":"KE","lat":-0.07732,"lon":36.57959},{"name":"Wote","country":"KE","lat":-1.78079,"lon":37.62882},{"name":"Wundanyi","country":"KE","lat":-3.39642,"lon":38.35729},{"name":"Yala","country":"KE","lat":0.09438,"lon":34.53602}]