[{"name":"Adda-Douéni","country":"KM","lat":-12.2925,"lon":44.49722},{"name":"Antsahé","country":"KM","lat":-12.35639,"lon":44.5225},{"name":"Assimpao","country":"KM","lat":-12.23306,"lon":44.31972},{"name":"Bahani","country":"KM","lat":-11.63972,"lon":43.28417},{"name":"Bambadjani","country":"KM","lat":-11.47861,"lon":43.37722},{"name":"Bambao","country":"KM","lat":-12.20325,"lon":44.51638},{"name":"Bandajou","country":"KM","lat":-12.19167,"lon":44.28694},{"name":"Bandamadji-Domba","country":"KM","lat":-11.78788,"lon":43.45356},{"name":"Barakani","country":"KM","lat":-12.13861,"lon":44.43026},{"name":"Bimbini","country":"KM","lat":-12.18833,"lon":44.23556},{"name":"Boungouéni","country":"KM","lat":-12.20556,"lon":44.29944},{"name":"Bouni","country":"KM","lat":-11.48694,"lon":43.38833},{"name":"Chandra","country":"KM","lat":-12.195,"lon":44.46472},{"name":"Chezani","country":"KM","lat":-11.4314,"lon":43.39625},{"name":"Chindini","country":"KM","lat":-11.92328,"lon":43.49109},{"name":"Chironkamba","country":"KM","lat":-12.19111,"lon":44.3525},{"name":"Chitrouni","country":"KM","lat":-12.18583,"lon":44.33556},{"name":"Chouani","country":"KM","lat":-11.8233,"lon":43.29429},{"name":"Daji","country":"KM","lat":-12.32583,"lon":44.48861},{"name":"Dembéni","country":"KM","lat":-11.87361,"lon":43.39778},{"name":"Djoyézi","country":"KM","lat":-12.30587,"lon":43.77425},{"name":"Domoni","country":"KM","lat":-12.26067,"lon":44.52947},{"name":"Douniani","country":"KM","lat":-11.42111,"lon":43.28889},{"name":"Dzahadjou","country":"KM","lat":-11.85287,"lon":43.34987},{"name":"Dziani","country":"KM","lat":-12.18333,"lon":44.48333},{"name":"Fomboni","country":"KM","lat":-12.28759,"lon":43.74344},{"name":"Foumbouni","country":"KM","lat":-11.86537,"lon":43.49529},{"name":"Hajoho","country":"KM","lat":-12.12434,"lon":44.48881},{"name":"Hantsindzi","country":"KM","lat":-11.43178,"lon":43.41102},{"name":"Harembo","country":"KM","lat":-12.15108,"lon":44.49828},{"name":"Héroumbili","country":"KM","lat":-11.54389,"lon":43.37972},{"name":"Hoani","country":"KM","lat":-12.25083,"lon":43.67472},{"name":"Ikoni","country":"KM","lat":-11.74487,"lon":43.2371},{"name":"Itsandra","country":"KM","lat":-11.67638,"lon":43.26466},{"name":"Itsandzéni","country":"KM","lat":-11.47278,"lon":43.38444},{"name":"Ivouani","country":"KM","lat":-11.39157,"lon":43.39454},{"name":"Kangani","country":"KM","lat":-12.32102,"lon":44.4727},{"name":"Kavani","country":"KM","lat":-12.19194,"lon":44.26944},{"name":"Koimbani","country":"KM","lat":-11.62306,"lon":43.35667},{"name":"Koki","country":"KM","lat":-12.17139,"lon":44.44167},{"name":"Koni-Djodjo","country":"KM","lat":-12.22972,"lon":44.48167},{"name":"Koni-Ngani","country":"KM","lat":-12.21583,"lon":44.48},{"name":"Koua","country":"KM","lat":-11.40514,"lon":43.34713},{"name":"Kyo","country":"KM","lat":-12.33222,"lon":44.51917},{"name":"Limbi","country":"KM","lat":-12.23944,"lon":44.50528},{"name":"Lingoni","country":"KM","lat":-12.25583,"lon":44.41833},{"name":"Madjeouéni","country":"KM","lat":-11.82167,"lon":43.27806},{"name":"Magnassini-Nindri","country":"KM","lat":-12.27806,"lon":44.41583},{"name":"Mandza","country":"KM","lat":-11.41806,"lon":43.29528},{"name":"Maraharé","country":"KM","lat":-12.23083,"lon":44.31333},{"name":"Mavingouni","country":"KM","lat":-11.71953,"lon":43.26233},{"name":"Mbéni","country":"KM","lat":-11.50139,"lon":43.3775},{"name":"Mirontsi","country":"KM","lat":-12.1604,"lon":44.40986},{"name":"Mitsamiouli","country":"KM","lat":-11.38472,"lon":43.28444},{"name":"Mitsoudjé","country":"KM","lat":-11.81209,"lon":43.28043},{"name":"Mjamaoué","country":"KM","lat":-12.19361,"lon":44.31},{"name":"Mjimandra","country":"KM","lat":-12.19167,"lon":44.37028},{"name":"Mnoungou","country":"KM","lat":-11.51778,"lon":43.37389},{"name":"Mohoro","country":"KM","lat":-11.82701,"lon":43.45436},{"name":"Moroni","country":"KM","lat":-11.70216,"lon":43.25506},{"name":"Moutsamoudou","country":"KM","lat":-12.16672,"lon":44.39944},{"name":"Moya","country":"KM","lat":-12.30967,"lon":44.43685},{"name":"Mramani","country":"KM","lat":-12.34639,"lon":44.52861},{"name":"Mrémani","country":"KM","lat":-12.30833,"lon":44.49861},{"name":"Mtakoudja","country":"KM","lat":-12.26111,"lon":43.70361},{"name":"Mtsamdou","country":"KM","lat":-11.60694,"lon":43.38056},{"name":"Mvouni","country":"KM","lat":-11.71965,"lon":43.2752},{"name":"Nioumachoua","country":"KM","lat":-12.36139,"lon":43.71528},{"name":"Nioumamilima","country":"KM","lat":-11.85461,"lon":43.44607},{"name":"Ntsaouéni","country":"KM","lat":-11.46583,"lon":43.26278},{"name":"Ntsoudjini","country":"KM","lat":-11.66077,"lon":43.27157},{"name":"Ongoni","country":"KM","lat":-12.17028,"lon":44.50694},{"name":"Ouanani","country":"KM","lat":-12.3375,"lon":43.7975},{"name":"Ouani","country":"KM","lat":-12.13554,"lon":44.42493},{"name":"Ouellah","country":"KM","lat":-11.39028,"lon":43.33194},{"name":"Ouhozi","country":"KM","lat":-11.405,"lon":43.28222},{"name":"Ourovéni","country":"KM","lat":-11.91375,"lon":43.49804},{"name":"Oussivo","country":"KM","lat":-11.585,"lon":43.26722},{"name":"Ouzini","country":"KM","lat":-12.26722,"lon":44.47972},{"name":"Pajé","country":"KM","lat":-12.16972,"lon":44.38806},{"name":"Patsi","country":"KM","lat":-12.15556,"lon":44.43722},{"name":"Salimani","country":"KM","lat":-11.8115,"lon":43.26823},{"name":"Séléa","country":"KM","lat":-11.78756,"lon":43.27036},{"name":"Sima","country":"KM","lat":-12.19556,"lon":44.27667},{"name":"Singani","country":"KM","lat":-11.84784,"lon":43.31731},{"name":"Tsidjé","country":"KM","lat":-11.70137,"lon":43.27057},{"name":"Tsimbeo","country":"KM","lat":-12.20583,"lon":44.46472},{"name":"Vanadjou","country":"KM","lat":-11.6075,"lon":43.27611},{"name":"Vanambouani","country":"KM","lat":-11.61139,"lon":43.25306},{"name":"Vouani","country":"KM","lat":-12.24417,"lon":44.37444},{"name":"Ziroudani","country":"KM","lat":-12.3325,"lon":43.7775}]