[{"name":"Andong","country":"KR","lat":36.56636,"lon":128.72275},{"name":"Annae","country":"KR","lat":36.39435,"lon":127.66031},{"name":"Annam","country":"KR","lat":36.3568,"lon":127.67282},{"name":"Ansan-si","country":"KR","lat":37.32361,"lon":126.82194},{"name":"Anseong","country":"KR","lat":37.01083,"lon":127.27028},{"name":"Anyang-si","country":"KR","lat":37.3925,"lon":126.92694},{"name":"Apae","country":"KR","lat":34.86689,"lon":126.31279},{"name":"Asan","country":"KR","lat":36.78361,"lon":127.00417},{"name":"Baekjeon","country":"KR","lat":35.55344,"lon":127.63557},{"name":"Baeksu","country":"KR","lat":35.28401,"lon":126.42038},{"name":"Bangsan","country":"KR","lat":38.2088,"lon":127.95028},{"name":"Bannam","country":"KR","lat":34.90444,"lon":126.65175},{"name":"Beobwon","country":"KR","lat":37.84902,"lon":126.87533},{"name":"Beolgyo","country":"KR","lat":34.84897,"lon":127.34052},{"name":"Beonam","country":"KR","lat":35.53236,"lon":127.54372},{"name":"Beopseong","country":"KR","lat":35.3627,"lon":126.4462},{"name":"Biin","country":"KR","lat":36.14029,"lon":126.603},{"name":"Bonggang","country":"KR","lat":35.0117,"lon":127.58128},{"name":"Bongnae","country":"KR","lat":34.89322,"lon":127.13128},{"name":"Boryeong","country":"KR","lat":36.34931,"lon":126.59772},{"name":"Boseong","country":"KR","lat":34.77148,"lon":127.07996},{"name":"Bucheon-si","country":"KR","lat":37.49889,"lon":126.78306},{"name":"Bulgap","country":"KR","lat":35.20946,"lon":126.50768},{"name":"Bupyeong","country":"KR","lat":37.50533,"lon":126.72202},{"name":"Busan","country":"KR","lat":35.10168,"lon":129.03004},{"name":"Buyeo","country":"KR","lat":36.27472,"lon":126.90906},{"name":"Byeollyang","country":"KR","lat":34.87479,"lon":127.45159},{"name":"Byeonggok","country":"KR","lat":35.53064,"lon":127.68155},{"name":"Changnyeong","country":"KR","lat":35.54145,"lon":128.49506},{"name":"Changpyeong","country":"KR","lat":35.23904,"lon":127.01792},{"name":"Changsu","country":"KR","lat":35.64842,"lon":127.51523},{"name":"Changwon","country":"KR","lat":35.22806,"lon":128.68111},{"name":"Cheonan","country":"KR","lat":36.8065,"lon":127.1522},{"name":"Cheongha","country":"KR","lat":36.19797,"lon":129.33911},{"name":"Cheongju-si","country":"KR","lat":36.63722,"lon":127.48972},{"name":"Cheongnam","country":"KR","lat":36.35339,"lon":126.95233},{"name":"Cheongpung","country":"KR","lat":34.87676,"lon":126.97029},{"name":"Cheongpyeong","country":"KR","lat":37.7355,"lon":127.4174},{"name":"Cheongsan","country":"KR","lat":36.34655,"lon":127.79366},{"name":"Cheongseong","country":"KR","lat":36.3272,"lon":127.75978},{"name":"Cheongsong gun","country":"KR","lat":36.43351,"lon":129.057},{"name":"Cheongyang","country":"KR","lat":36.45156,"lon":126.80365},{"name":"Cheorwon","country":"KR","lat":38.20917,"lon":127.2175},{"name":"Chilbo","country":"KR","lat":35.60319,"lon":126.99342},{"name":"Chinch'ŏn","country":"KR","lat":36.85667,"lon":127.44333},{"name":"Chinju","country":"KR","lat":35.19278,"lon":128.08472},{"name":"Chuncheon","country":"KR","lat":37.87472,"lon":127.73417},{"name":"Chungju","country":"KR","lat":36.97666,"lon":127.9287},{"name":"Chupungnyeong","country":"KR","lat":36.21712,"lon":127.9919},{"name":"Daegu","country":"KR","lat":35.87028,"lon":128.59111},{"name":"Daehap","country":"KR","lat":35.61365,"lon":128.47165},{"name":"Daejeon","country":"KR","lat":36.34913,"lon":127.38493},{"name":"Daema","country":"KR","lat":35.30183,"lon":126.57748},{"name":"Daesan","country":"KR","lat":35.34168,"lon":126.60327},{"name":"Damyang","country":"KR","lat":35.31889,"lon":126.98389},{"name":"Deokjin","country":"KR","lat":34.81951,"lon":126.69688},{"name":"Dodong-ri","country":"KR","lat":37.49505,"lon":130.90434},{"name":"Dongbok","country":"KR","lat":35.07,"lon":127.13028},{"name":"Donggye","country":"KR","lat":35.44168,"lon":127.24264},{"name":"Donghae City","country":"KR","lat":37.54389,"lon":129.10694},{"name":"Dongi","country":"KR","lat":36.2844,"lon":127.6199},{"name":"Dongmyeon","country":"KR","lat":38.20135,"lon":128.04327},{"name":"Dongmyeon","country":"KR","lat":35.03069,"lon":127.03837},{"name":"Dongnae","country":"KR","lat":35.20159,"lon":129.08477},{"name":"Dongnae","country":"KR","lat":37.84747,"lon":127.76164},{"name":"Dopo","country":"KR","lat":34.84601,"lon":126.64367},{"name":"Eisen","country":"KR","lat":35.9675,"lon":128.93083},{"name":"Gaigeturi","country":"KR","lat":33.46444,"lon":126.31833},{"name":"Gampo","country":"KR","lat":35.80538,"lon":129.5011},{"name":"Gangdong","country":"KR","lat":37.72899,"lon":128.95419},{"name":"Ganghwa-gun","country":"KR","lat":37.74722,"lon":126.48556},{"name":"Gangjin","country":"KR","lat":35.53034,"lon":127.16357},{"name":"Gangneung","country":"KR","lat":37.75266,"lon":128.87239},{"name":"Gapyeong","country":"KR","lat":37.83101,"lon":127.51059},{"name":"Geumjeong","country":"KR","lat":34.86348,"lon":126.74895},{"name":"Geumseong","country":"KR","lat":34.96449,"lon":127.79025},{"name":"Gijang","country":"KR","lat":35.24417,"lon":129.21389},{"name":"Gimcheon","country":"KR","lat":36.12176,"lon":128.11981},{"name":"Gongeum","country":"KR","lat":35.37825,"lon":126.51141},{"name":"Gongju","country":"KR","lat":36.45556,"lon":127.12472},{"name":"Goseong","country":"KR","lat":34.97631,"lon":128.32361},{"name":"Goyang-si","country":"KR","lat":37.65639,"lon":126.835},{"name":"Gujeong","country":"KR","lat":37.71904,"lon":128.8799},{"name":"Gumi","country":"KR","lat":36.1136,"lon":128.336},{"name":"Gunbuk","country":"KR","lat":36.33055,"lon":127.53366},{"name":"Gunbuk","country":"KR","lat":36.1678,"lon":127.5274},{"name":"Gunnam","country":"KR","lat":35.24032,"lon":126.4528},{"name":"Gunpo","country":"KR","lat":37.3675,"lon":126.94694},{"name":"Gunsan","country":"KR","lat":35.97861,"lon":126.71139},{"name":"Gunseo","country":"KR","lat":36.27887,"lon":127.52689},{"name":"Gunseo","country":"KR","lat":35.25851,"lon":126.47516},{"name":"Guri-si","country":"KR","lat":37.5986,"lon":127.1394},{"name":"Gurim","country":"KR","lat":35.4536,"lon":127.10232},{"name":"Guryongpo","country":"KR","lat":35.98994,"lon":129.55377},{"name":"Gwanchon","country":"KR","lat":35.67463,"lon":127.27065},{"name":"Gwangjeok","country":"KR","lat":37.82566,"lon":126.98349},{"name":"Gwangju","country":"KR","lat":37.41,"lon":127.25722},{"name":"Gwangju","country":"KR","lat":35.15472,"lon":126.91556},{"name":"Gwangmyeong","country":"KR","lat":37.47722,"lon":126.86639},{"name":"Gwangtan","country":"KR","lat":37.78055,"lon":126.85004},{"name":"Gwangyang","country":"KR","lat":34.9414,"lon":127.69569},{"name":"Gwanin","country":"KR","lat":38.15921,"lon":127.24935},{"name":"Gyeombaek","country":"KR","lat":34.82987,"lon":127.15181},{"name":"Gyeongju","country":"KR","lat":35.84278,"lon":129.21167},{"name":"Gyeongsan-si","country":"KR","lat":35.82333,"lon":128.73778},{"name":"Gyodong","country":"KR","lat":37.78272,"lon":126.28117},{"name":"Gyuam","country":"KR","lat":36.27549,"lon":126.88418},{"name":"Hadong","country":"KR","lat":35.068,"lon":127.75147},{"name":"Haean","country":"KR","lat":38.28634,"lon":128.13774},{"name":"Haebo","country":"KR","lat":35.18122,"lon":126.60102},{"name":"Haeje","country":"KR","lat":35.11073,"lon":126.29458},{"name":"Haenam","country":"KR","lat":34.57111,"lon":126.59889},{"name":"Haeri","country":"KR","lat":35.46144,"lon":126.53914},{"name":"Haeryong","country":"KR","lat":34.91406,"lon":127.53764},{"name":"Hajeom","country":"KR","lat":37.77419,"lon":126.41226},{"name":"Haksan","country":"KR","lat":36.0976,"lon":127.6844},{"name":"Hamyeol","country":"KR","lat":36.07595,"lon":126.96405},{"name":"Hanam","country":"KR","lat":37.54,"lon":127.20556},{"name":"Hancheolli","country":"KR","lat":34.97411,"lon":127.00028},{"name":"Haseong","country":"KR","lat":37.71953,"lon":126.63107},{"name":"Hayang","country":"KR","lat":35.91333,"lon":128.82},{"name":"Heunghae","country":"KR","lat":36.10945,"lon":129.34517},{"name":"Hoenam","country":"KR","lat":36.44445,"lon":127.58033},{"name":"Hongch’ŏn","country":"KR","lat":37.6918,"lon":127.8857},{"name":"Hongnong","country":"KR","lat":35.39587,"lon":126.44531},{"name":"Hongseong","country":"KR","lat":36.6009,"lon":126.665},{"name":"Hwacheon","country":"KR","lat":38.10705,"lon":127.70632},{"name":"Hwado","country":"KR","lat":37.6525,"lon":127.3075},{"name":"Hwanam","country":"KR","lat":36.44874,"lon":127.90601},{"name":"Hwanggan","country":"KR","lat":36.2324,"lon":127.9083},{"name":"Hwaseong-si","country":"KR","lat":37.20682,"lon":126.8169},{"name":"Hwasun","country":"KR","lat":35.06125,"lon":126.98746},{"name":"Hwawŏn","country":"KR","lat":35.80167,"lon":128.50083},{"name":"Hwayang","country":"KR","lat":34.70846,"lon":127.6134},{"name":"Hyeonpung","country":"KR","lat":35.69557,"lon":128.44608},{"name":"Icheon-si","country":"KR","lat":37.27917,"lon":127.4425},{"name":"Iksan","country":"KR","lat":35.94389,"lon":126.95444},{"name":"Ilgwang","country":"KR","lat":35.264,"lon":129.23349},{"name":"Illo","country":"KR","lat":34.85258,"lon":126.48952},{"name":"Imja","country":"KR","lat":35.08457,"lon":126.11105},{"name":"Imsil","country":"KR","lat":35.61306,"lon":127.27944},{"name":"Incheon","country":"KR","lat":37.45646,"lon":126.70515},{"name":"Ingye","country":"KR","lat":35.41261,"lon":127.14135},{"name":"Iwon","country":"KR","lat":36.24613,"lon":127.61964},{"name":"Iyang","country":"KR","lat":34.88953,"lon":126.98778},{"name":"Jangan","country":"KR","lat":35.31296,"lon":129.24244},{"name":"Jangheung","country":"KR","lat":34.68164,"lon":126.90694},{"name":"Jangheung","country":"KR","lat":37.71727,"lon":126.94122},{"name":"Jangpyeong","country":"KR","lat":36.3414,"lon":126.893},{"name":"Jangseong","country":"KR","lat":35.29778,"lon":126.78444},{"name":"Jeju City","country":"KR","lat":33.50972,"lon":126.52194},{"name":"Jenzan","country":"KR","lat":36.24083,"lon":128.2975},{"name":"Jeongeup","country":"KR","lat":35.60004,"lon":126.91699},{"name":"Jeongnyang","country":"KR","lat":35.08337,"lon":127.77696},{"name":"Jeongok","country":"KR","lat":38.02596,"lon":127.07021},{"name":"Jeonju","country":"KR","lat":35.82194,"lon":127.14889},{"name":"Jido","country":"KR","lat":35.06132,"lon":126.20753},{"name":"Jinan-gun","country":"KR","lat":35.79167,"lon":127.42528},{"name":"Jinjam","country":"KR","lat":36.30029,"lon":127.31719},{"name":"Jinjeop","country":"KR","lat":37.72722,"lon":127.18992},{"name":"Jinsang","country":"KR","lat":35.02117,"lon":127.71976},{"name":"Jinwol","country":"KR","lat":34.9791,"lon":127.75807},{"name":"Joseong","country":"KR","lat":34.80915,"lon":127.24754},{"name":"Juam","country":"KR","lat":35.07733,"lon":127.23496},{"name":"Jumunjin","country":"KR","lat":37.89139,"lon":128.82583},{"name":"Kimhae","country":"KR","lat":35.23417,"lon":128.88111},{"name":"Kimje","country":"KR","lat":35.80167,"lon":126.88889},{"name":"Kinzan","country":"KR","lat":36.10306,"lon":127.48889},{"name":"Koch'ang","country":"KR","lat":35.43333,"lon":126.7},{"name":"Koesan","country":"KR","lat":36.81083,"lon":127.79472},{"name":"Kosong","country":"KR","lat":38.37881,"lon":128.4676},{"name":"Kunwi","country":"KR","lat":36.23472,"lon":128.57278},{"name":"Kurye","country":"KR","lat":35.20944,"lon":127.46444},{"name":"Kwangyang","country":"KR","lat":34.97528,"lon":127.58917},{"name":"Kyosai","country":"KR","lat":34.85028,"lon":128.58861},{"name":"Masan","country":"KR","lat":35.12725,"lon":126.83149},{"name":"Mijo","country":"KR","lat":34.7128,"lon":128.04605},{"name":"Miryang","country":"KR","lat":35.49333,"lon":128.74889},{"name":"Miryeok","country":"KR","lat":34.80134,"lon":127.08749},{"name":"Mokpo","country":"KR","lat":34.81282,"lon":126.39181},{"name":"Muan","country":"KR","lat":34.99014,"lon":126.47899},{"name":"Mundeok","country":"KR","lat":34.92966,"lon":127.17236},{"name":"Mungyeong","country":"KR","lat":36.59458,"lon":128.19946},{"name":"Mungyeong","country":"KR","lat":36.73528,"lon":128.10833},{"name":"Munsan","country":"KR","lat":37.85944,"lon":126.785},{"name":"Myoryang","country":"KR","lat":35.25755,"lon":126.54315},{"name":"Naesŏ","country":"KR","lat":35.24972,"lon":128.52},{"name":"Nagwol","country":"KR","lat":35.20248,"lon":126.13757},{"name":"Naju","country":"KR","lat":35.0292,"lon":126.7175},{"name":"Nammyeon","country":"KR","lat":34.77247,"lon":127.88668},{"name":"Nammyeon","country":"KR","lat":35.00782,"lon":127.09621},{"name":"Namsa","country":"KR","lat":35.93333,"lon":127.05},{"name":"Namyangju","country":"KR","lat":37.63667,"lon":127.21417},{"name":"Nangen","country":"KR","lat":35.41,"lon":127.38583},{"name":"Nasan","country":"KR","lat":35.11447,"lon":126.60908},{"name":"Neietsu","country":"KR","lat":37.18447,"lon":128.46821},{"name":"Nodong","country":"KR","lat":34.79802,"lon":127.07073},{"name":"Nonsan","country":"KR","lat":36.20389,"lon":127.08472},{"name":"Ocheon","country":"KR","lat":35.97046,"lon":129.41222},{"name":"Oeseo","country":"KR","lat":34.9142,"lon":127.27727},{"name":"Okcheon","country":"KR","lat":36.3012,"lon":127.568},{"name":"Okgok","country":"KR","lat":34.9903,"lon":127.69875},{"name":"Onam","country":"KR","lat":37.69834,"lon":127.20579},{"name":"Ongnyong","country":"KR","lat":35.01766,"lon":127.61925},{"name":"Osan","country":"KR","lat":37.15222,"lon":127.07056},{"name":"Paju","country":"KR","lat":37.83278,"lon":126.81694},{"name":"Palgeum","country":"KR","lat":34.78566,"lon":126.14288},{"name":"Pohang","country":"KR","lat":36.02917,"lon":129.36481},{"name":"Puan","country":"KR","lat":35.72806,"lon":126.73194},{"name":"Pubal","country":"KR","lat":37.29167,"lon":127.50778},{"name":"Pyeongchang","country":"KR","lat":37.37028,"lon":128.39306},{"name":"Pyeongtaek","country":"KR","lat":36.99472,"lon":127.08889},{"name":"Samseung","country":"KR","lat":36.397,"lon":127.73201},{"name":"Sangha","country":"KR","lat":35.44487,"lon":126.49517},{"name":"Sangju","country":"KR","lat":36.41528,"lon":128.16056},{"name":"Sangju","country":"KR","lat":34.72423,"lon":127.98521},{"name":"Sangsa","country":"KR","lat":34.93944,"lon":127.45523},{"name":"Sangwol","country":"KR","lat":36.2948,"lon":127.1409},{"name":"Sannae","country":"KR","lat":35.56782,"lon":127.03012},{"name":"Sanseo","country":"KR","lat":35.58362,"lon":127.39679},{"name":"Santyoku","country":"KR","lat":37.44056,"lon":129.17083},{"name":"Seji","country":"KR","lat":34.92007,"lon":126.7494},{"name":"Sejong","country":"KR","lat":36.59245,"lon":127.29223},{"name":"Seogwipo","country":"KR","lat":33.25333,"lon":126.56181},{"name":"Seolcheon","country":"KR","lat":36.009,"lon":127.7901},{"name":"Seonghwan","country":"KR","lat":36.91556,"lon":127.13139},{"name":"Seongnam-si","country":"KR","lat":37.43861,"lon":127.13778},{"name":"Seongsu","country":"KR","lat":35.6309,"lon":127.33344},{"name":"Seonwon","country":"KR","lat":37.71223,"lon":126.48439},{"name":"Seosan","country":"KR","lat":36.78167,"lon":126.45222},{"name":"Seosang","country":"KR","lat":35.68185,"lon":127.68774},{"name":"Seoseok","country":"KR","lat":37.7119,"lon":128.18713},{"name":"Seoul","country":"KR","lat":37.566,"lon":126.9784},{"name":"Seungju","country":"KR","lat":35.01532,"lon":127.3897},{"name":"Sijong","country":"KR","lat":34.86886,"lon":126.60706},{"name":"Simcheon","country":"KR","lat":36.23734,"lon":127.72248},{"name":"Simwon","country":"KR","lat":35.52448,"lon":126.55107},{"name":"Sinan","country":"KR","lat":34.8262,"lon":126.10863},{"name":"Sinan","country":"KR","lat":34.83394,"lon":126.35133},{"name":"Sindong","country":"KR","lat":37.81735,"lon":127.71656},{"name":"Singwang","country":"KR","lat":36.12911,"lon":129.2636},{"name":"Sinhyeon","country":"KR","lat":34.8825,"lon":128.62667},{"name":"Sinseo","country":"KR","lat":38.18561,"lon":127.10819},{"name":"Sintansin","country":"KR","lat":36.45361,"lon":127.43111},{"name":"Sokcho","country":"KR","lat":38.20701,"lon":128.59181},{"name":"Songgangdong","country":"KR","lat":36.43387,"lon":127.37587},{"name":"Songgwang","country":"KR","lat":34.97504,"lon":127.26377},{"name":"Songhae","country":"KR","lat":37.7636,"lon":126.46577},{"name":"Ssangchi","country":"KR","lat":35.50202,"lon":127.00283},{"name":"Su-dong","country":"KR","lat":37.70353,"lon":127.3258},{"name":"Suncheon","country":"KR","lat":34.9505,"lon":127.48784},{"name":"Suwon","country":"KR","lat":37.29111,"lon":127.00889},{"name":"T’aebaek","country":"KR","lat":37.1759,"lon":128.9889},{"name":"Taesal-li","country":"KR","lat":36.9714,"lon":126.4542},{"name":"Tangjin","country":"KR","lat":36.89444,"lon":126.62972},{"name":"Tanhyeon","country":"KR","lat":37.8024,"lon":126.71598},{"name":"Tongjin","country":"KR","lat":37.69191,"lon":126.59855},{"name":"Toseong","country":"KR","lat":38.25679,"lon":128.55968},{"name":"Uijeongbu-si","country":"KR","lat":37.7415,"lon":127.0474},{"name":"Uiwang","country":"KR","lat":37.36528,"lon":126.94778},{"name":"Ulsan","country":"KR","lat":35.53722,"lon":129.31667},{"name":"Ungsang","country":"KR","lat":35.40611,"lon":129.16861},{"name":"Wabu","country":"KR","lat":37.58972,"lon":127.22028},{"name":"Waegwan","country":"KR","lat":35.99251,"lon":128.39785},{"name":"Wanju","country":"KR","lat":35.84509,"lon":127.14752},{"name":"Wolgot","country":"KR","lat":37.71646,"lon":126.55429},{"name":"Wŏnju","country":"KR","lat":37.35139,"lon":127.94528},{"name":"Yanggu","country":"KR","lat":38.10583,"lon":127.98944},{"name":"Yangju","country":"KR","lat":37.83311,"lon":127.06169},{"name":"Yangp'yŏng","country":"KR","lat":37.48972,"lon":127.49056},{"name":"Yangsa","country":"KR","lat":37.79872,"lon":126.408},{"name":"Yangsan","country":"KR","lat":35.34199,"lon":129.03358},{"name":"Yecheon","country":"KR","lat":36.6574,"lon":128.45514},{"name":"Yeoju","country":"KR","lat":37.29583,"lon":127.63389},{"name":"Yeomsan","country":"KR","lat":35.21831,"lon":126.37194},{"name":"Yeoncheon","country":"KR","lat":38.10113,"lon":127.07727},{"name":"Yeongam","country":"KR","lat":34.80059,"lon":126.69669},{"name":"Yeongdeok","country":"KR","lat":36.41366,"lon":129.37},{"name":"Yeongdong","country":"KR","lat":36.175,"lon":127.77639},{"name":"Yeonggwang","country":"KR","lat":35.27814,"lon":126.51181},{"name":"Yeongju","country":"KR","lat":36.82167,"lon":128.63083},{"name":"Yeonil","country":"KR","lat":36.00446,"lon":129.3185},{"name":"Yeosu","country":"KR","lat":34.76062,"lon":127.66215},{"name":"Yesan","country":"KR","lat":36.67756,"lon":126.84272},{"name":"Yongan","country":"KR","lat":36.11962,"lon":126.95283},{"name":"Yonghwa","country":"KR","lat":36.0213,"lon":127.7665},{"name":"Yongsan","country":"KR","lat":36.2603,"lon":127.8285},{"name":"Yongsan-dong","country":"KR","lat":37.5445,"lon":126.9837},{"name":"Yŏnmu","country":"KR","lat":36.12944,"lon":127.1},{"name":"Yuchi","country":"KR","lat":34.80247,"lon":126.83899},{"name":"Yureo","country":"KR","lat":34.87102,"lon":127.18702},{"name":"Yuseong","country":"KR","lat":36.35389,"lon":127.33667}]