[{"name":"Abay","country":"KZ","lat":49.63539,"lon":72.86523},{"name":"Abay","country":"KZ","lat":41.34682,"lon":68.9504},{"name":"Akbakay","country":"KZ","lat":45.1294,"lon":72.67169},{"name":"Akkistau","country":"KZ","lat":47.22107,"lon":51.0063},{"name":"Akkol","country":"KZ","lat":51.99374,"lon":70.94704},{"name":"Akkol’","country":"KZ","lat":48.77358,"lon":53.18177},{"name":"Akkol’","country":"KZ","lat":53.29617,"lon":69.59997},{"name":"Akkuly","country":"KZ","lat":51.46967,"lon":77.77857},{"name":"Aksu","country":"KZ","lat":52.04023,"lon":76.92748},{"name":"Aksu","country":"KZ","lat":42.42193,"lon":69.82709},{"name":"Aksu","country":"KZ","lat":52.44422,"lon":71.95761},{"name":"Aksu-Ayuly","country":"KZ","lat":48.76788,"lon":73.67272},{"name":"Aksuat","country":"KZ","lat":48.71667,"lon":83.7},{"name":"Aksuat","country":"KZ","lat":47.76124,"lon":82.80858},{"name":"Aktas","country":"KZ","lat":49.77952,"lon":72.96128},{"name":"Aktau","country":"KZ","lat":50.23466,"lon":73.06662},{"name":"Aktau","country":"KZ","lat":48.03333,"lon":72.83333},{"name":"Aktobe","country":"KZ","lat":50.27969,"lon":57.20718},{"name":"Aktogay","country":"KZ","lat":48.31636,"lon":74.98293},{"name":"Aktogay","country":"KZ","lat":48.16667,"lon":75.3},{"name":"Algha","country":"KZ","lat":49.89863,"lon":57.32787},{"name":"Almaty","country":"KZ","lat":43.25,"lon":76.91667},{"name":"Altay","country":"KZ","lat":49.73626,"lon":84.25416},{"name":"Altayskiy","country":"KZ","lat":50.24593,"lon":82.36252},{"name":"Amangeldi","country":"KZ","lat":50.18271,"lon":65.18966},{"name":"Aqadyr","country":"KZ","lat":48.26014,"lon":72.85851},{"name":"Aqmol","country":"KZ","lat":51.06568,"lon":70.97777},{"name":"Aqsay","country":"KZ","lat":51.1681,"lon":52.99782},{"name":"Aqshataū","country":"KZ","lat":47.98917,"lon":74.0575},{"name":"Aqtoghay","country":"KZ","lat":53.00888,"lon":75.98495},{"name":"Aqtoghay","country":"KZ","lat":46.95068,"lon":79.67621},{"name":"Aral","country":"KZ","lat":46.80174,"lon":61.66312},{"name":"Arkalyk","country":"KZ","lat":50.25031,"lon":66.90384},{"name":"Arshaly","country":"KZ","lat":50.83112,"lon":72.17995},{"name":"Arykbalyk","country":"KZ","lat":52.95625,"lon":68.20185},{"name":"Arys","country":"KZ","lat":42.43015,"lon":68.8087},{"name":"Asa","country":"KZ","lat":43.03735,"lon":71.14737},{"name":"Ashchysay","country":"KZ","lat":43.5537,"lon":68.89792},{"name":"Astana","country":"KZ","lat":51.1801,"lon":71.44598},{"name":"Astrakhanka","country":"KZ","lat":51.53068,"lon":69.79685},{"name":"Asubulak","country":"KZ","lat":49.54026,"lon":82.99471},{"name":"Asyqata","country":"KZ","lat":40.8946,"lon":68.3643},{"name":"Atakent","country":"KZ","lat":40.84782,"lon":68.50643},{"name":"Atbasar","country":"KZ","lat":51.80854,"lon":68.35823},{"name":"Atbasar","country":"KZ","lat":51.8,"lon":68.33333},{"name":"Atyrau","country":"KZ","lat":47.11667,"lon":51.88333},{"name":"Auezov","country":"KZ","lat":49.71003,"lon":81.58018},{"name":"Auliyekol'","country":"KZ","lat":52.3585,"lon":64.13429},{"name":"Ayagoz","country":"KZ","lat":47.96447,"lon":80.43437},{"name":"Ayat","country":"KZ","lat":52.83554,"lon":62.52078},{"name":"Badamsha","country":"KZ","lat":50.56183,"lon":58.2772},{"name":"Baikonur","country":"KZ","lat":45.61667,"lon":63.31667},{"name":"Bakanas","country":"KZ","lat":44.80595,"lon":76.27464},{"name":"Balkashino","country":"KZ","lat":52.51779,"lon":68.7516},{"name":"Balpyk Bi","country":"KZ","lat":44.90115,"lon":78.22933},{"name":"Balqash","country":"KZ","lat":46.84546,"lon":74.98213},{"name":"Balykshi","country":"KZ","lat":47.06667,"lon":51.86667},{"name":"Bautino","country":"KZ","lat":44.54479,"lon":50.24629},{"name":"Bauyrzhan Momyshuly","country":"KZ","lat":42.61419,"lon":70.76975},{"name":"Bayanaul","country":"KZ","lat":50.79304,"lon":75.70123},{"name":"Baychunas","country":"KZ","lat":47.2404,"lon":52.9403},{"name":"Bayganin","country":"KZ","lat":48.68975,"lon":55.87512},{"name":"Bayzhansay","country":"KZ","lat":43.16708,"lon":69.91459},{"name":"Belköl","country":"KZ","lat":44.81384,"lon":65.58778},{"name":"Belogorskiy","country":"KZ","lat":49.47887,"lon":83.14138},{"name":"Belousovka","country":"KZ","lat":50.13287,"lon":82.52481},{"name":"Besqaraghay","country":"KZ","lat":50.88671,"lon":79.48229},{"name":"Bestobe","country":"KZ","lat":52.49795,"lon":73.09592},{"name":"Beyneu","country":"KZ","lat":45.31667,"lon":55.2},{"name":"Birlestik","country":"KZ","lat":53.58414,"lon":68.35382},{"name":"Bishkul","country":"KZ","lat":54.77763,"lon":69.09951},{"name":"Boko","country":"KZ","lat":49.05632,"lon":81.63721},{"name":"Borodulikha","country":"KZ","lat":50.71841,"lon":80.9295},{"name":"Borovskoy","country":"KZ","lat":53.7927,"lon":64.18268},{"name":"Botaqara","country":"KZ","lat":50.05928,"lon":73.71524},{"name":"Bulayevo","country":"KZ","lat":54.90596,"lon":70.44155},{"name":"Būrabay","country":"KZ","lat":53.08382,"lon":70.31379},{"name":"Burlin","country":"KZ","lat":51.42781,"lon":52.71076},{"name":"Burunday","country":"KZ","lat":43.35567,"lon":76.85477},{"name":"Chapayev","country":"KZ","lat":50.18888,"lon":51.16978},{"name":"Chemolgan","country":"KZ","lat":43.37633,"lon":76.62456},{"name":"Chernak","country":"KZ","lat":43.40025,"lon":68.0237},{"name":"Chiganak","country":"KZ","lat":44.83056,"lon":70.00194},{"name":"Chundzha","country":"KZ","lat":43.53813,"lon":79.46582},{"name":"Denisovka","country":"KZ","lat":52.44772,"lon":61.74942},{"name":"Derzhavinsk","country":"KZ","lat":51.09718,"lon":66.31875},{"name":"Dolinka","country":"KZ","lat":49.67685,"lon":72.67822},{"name":"Dossor","country":"KZ","lat":47.53234,"lon":52.9709},{"name":"Druzhba","country":"KZ","lat":45.25332,"lon":82.48044},{"name":"Dzhambul","country":"KZ","lat":47.20618,"lon":71.39496},{"name":"Egindiköl","country":"KZ","lat":51.05227,"lon":69.47511},{"name":"Ekibastuz","country":"KZ","lat":51.72371,"lon":75.32287},{"name":"Embi","country":"KZ","lat":48.82981,"lon":58.15042},{"name":"Esik","country":"KZ","lat":43.3552,"lon":77.45245},{"name":"Esil","country":"KZ","lat":51.95453,"lon":66.40772},{"name":"Fort-Shevchenko","country":"KZ","lat":44.50654,"lon":50.26388},{"name":"Fyodorov","country":"KZ","lat":53.63809,"lon":62.69653},{"name":"Glubokoye","country":"KZ","lat":50.13887,"lon":82.31114},{"name":"Granitogorsk","country":"KZ","lat":42.744,"lon":73.46848},{"name":"Inderbor","country":"KZ","lat":48.55,"lon":51.78333},{"name":"Irtyshsk","country":"KZ","lat":53.33365,"lon":75.45775},{"name":"Kalbatau","country":"KZ","lat":49.33009,"lon":81.57275},{"name":"Kalkaman","country":"KZ","lat":51.95349,"lon":76.02723},{"name":"Kandyagash","country":"KZ","lat":49.46917,"lon":57.41865},{"name":"Kantagi","country":"KZ","lat":43.52786,"lon":68.58287},{"name":"Karaaul","country":"KZ","lat":48.94509,"lon":79.25502},{"name":"Karabas","country":"KZ","lat":46.53333,"lon":76.2},{"name":"Karabulak","country":"KZ","lat":44.90881,"lon":78.49044},{"name":"Karagandy","country":"KZ","lat":49.80187,"lon":73.10211},{"name":"Karasu","country":"KZ","lat":52.65995,"lon":65.48421},{"name":"Karatau","country":"KZ","lat":43.17959,"lon":70.4592},{"name":"Karatobe","country":"KZ","lat":49.68914,"lon":53.51005},{"name":"Karaton","country":"KZ","lat":46.43685,"lon":53.48905},{"name":"Kazalinsk","country":"KZ","lat":45.76257,"lon":62.10334},{"name":"Kaztalovka","country":"KZ","lat":49.76702,"lon":48.6893},{"name":"Kazygurt","country":"KZ","lat":41.7564,"lon":69.3839},{"name":"Kegen","country":"KZ","lat":43.01451,"lon":79.22638},{"name":"Kentau","country":"KZ","lat":43.51672,"lon":68.50463},{"name":"Khantau","country":"KZ","lat":44.22627,"lon":73.7941},{"name":"Khromtau","country":"KZ","lat":50.25161,"lon":58.43574},{"name":"Kishkenekol’","country":"KZ","lat":53.63589,"lon":72.34079},{"name":"Kokpekty","country":"KZ","lat":48.75,"lon":82.4},{"name":"Kokpekty","country":"KZ","lat":48.7553,"lon":82.38617},{"name":"Kokshetau","country":"KZ","lat":53.28333,"lon":69.4},{"name":"Koktal","country":"KZ","lat":49.65,"lon":73.51667},{"name":"Kokterek","country":"KZ","lat":42.49442,"lon":70.25478},{"name":"Koktobe","country":"KZ","lat":51.52983,"lon":77.47146},{"name":"Konayev","country":"KZ","lat":43.86681,"lon":77.06304},{"name":"Korday","country":"KZ","lat":43.03882,"lon":74.71287},{"name":"Koshi","country":"KZ","lat":50.97075,"lon":71.35311},{"name":"Kostanay","country":"KZ","lat":53.21435,"lon":63.62463},{"name":"Krasnogorskiy","country":"KZ","lat":52.2456,"lon":66.52081},{"name":"Krugloozërnoye","country":"KZ","lat":51.08167,"lon":51.29052},{"name":"Kulan","country":"KZ","lat":42.91018,"lon":72.71571},{"name":"Kurchatov","country":"KZ","lat":50.75617,"lon":78.54188},{"name":"Kurchum","country":"KZ","lat":48.56603,"lon":83.66146},{"name":"Kuryk","country":"KZ","lat":43.18032,"lon":51.68116},{"name":"Kushoky","country":"KZ","lat":50.23091,"lon":73.40146},{"name":"Kyzylorda","country":"KZ","lat":44.85278,"lon":65.50917},{"name":"Kyzylzhar","country":"KZ","lat":49.98197,"lon":72.60761},{"name":"Lenger","country":"KZ","lat":42.18152,"lon":69.88582},{"name":"Leningradskoye","country":"KZ","lat":53.53319,"lon":71.54252},{"name":"Leninskiy","country":"KZ","lat":52.25346,"lon":76.78211},{"name":"Lepsy","country":"KZ","lat":46.23426,"lon":78.94034},{"name":"Lisakovsk","country":"KZ","lat":52.54488,"lon":62.49893},{"name":"Lugovoy","country":"KZ","lat":42.94197,"lon":72.76098},{"name":"Makhambet","country":"KZ","lat":47.67061,"lon":51.58598},{"name":"Makinsk","country":"KZ","lat":52.6329,"lon":70.41911},{"name":"Maleyevsk","country":"KZ","lat":49.81441,"lon":84.29102},{"name":"Maloye Ganyushkino","country":"KZ","lat":46.6,"lon":49.26667},{"name":"Mamlyutka","country":"KZ","lat":54.93896,"lon":68.53889},{"name":"Mangistau","country":"KZ","lat":43.69088,"lon":51.32237},{"name":"Maqat","country":"KZ","lat":47.64967,"lon":53.34291},{"name":"Marqaköl","country":"KZ","lat":48.42648,"lon":85.73474},{"name":"Martuk","country":"KZ","lat":50.74746,"lon":56.50611},{"name":"Matay","country":"KZ","lat":45.8996,"lon":78.72039},{"name":"Mayqayyng","country":"KZ","lat":51.45981,"lon":75.80232},{"name":"Merke","country":"KZ","lat":42.87183,"lon":73.19648},{"name":"Miyaly","country":"KZ","lat":48.88548,"lon":53.79168},{"name":"Moyynkum","country":"KZ","lat":44.28314,"lon":72.94369},{"name":"Moyynty","country":"KZ","lat":47.21968,"lon":73.35437},{"name":"Munayshy","country":"KZ","lat":43.49988,"lon":52.09745},{"name":"Mynaral","country":"KZ","lat":45.44344,"lon":73.65453},{"name":"Myrzakent","country":"KZ","lat":40.66338,"lon":68.5451},{"name":"Narynkol","country":"KZ","lat":42.72636,"lon":80.17495},{"name":"Novaya Bukhtarma","country":"KZ","lat":49.62873,"lon":83.52102},{"name":"Novaya Shūl’ba","country":"KZ","lat":50.53978,"lon":81.32882},{"name":"Novodolinskiy","country":"KZ","lat":49.7065,"lon":72.70807},{"name":"Novoishimskiy","country":"KZ","lat":53.19806,"lon":66.76944},{"name":"Novoishimskoye","country":"KZ","lat":53.2035,"lon":66.81431},{"name":"Novokazalinsk","country":"KZ","lat":45.84806,"lon":62.15254},{"name":"Nura","country":"KZ","lat":50.26159,"lon":71.54802},{"name":"Obaghan","country":"KZ","lat":53.07952,"lon":64.29521},{"name":"Ognyovka","country":"KZ","lat":49.68368,"lon":83.01687},{"name":"Oktyabr'","country":"KZ","lat":52.11106,"lon":65.67578},{"name":"Oral","country":"KZ","lat":51.23333,"lon":51.36667},{"name":"Osakarovka","country":"KZ","lat":50.56315,"lon":72.57278},{"name":"Otegen Batyra","country":"KZ","lat":43.41845,"lon":77.02187},{"name":"Oytal","country":"KZ","lat":42.90573,"lon":73.26972},{"name":"Ozernyy","country":"KZ","lat":46.80714,"lon":75.036},{"name":"Pavlodar","country":"KZ","lat":52.28333,"lon":76.96667},{"name":"Peremetnoe","country":"KZ","lat":51.19801,"lon":50.85291},{"name":"Pervomayka","country":"KZ","lat":43.37361,"lon":76.94},{"name":"Pervorossiyskoye","country":"KZ","lat":49.71739,"lon":83.8486},{"name":"Petropavl","country":"KZ","lat":54.86667,"lon":69.15},{"name":"Presnovka","country":"KZ","lat":54.6693,"lon":67.14912},{"name":"Prigorodnoye","country":"KZ","lat":49.69244,"lon":75.58438},{"name":"Priozersk","country":"KZ","lat":46.03106,"lon":73.70247},{"name":"Qamysty","country":"KZ","lat":51.96382,"lon":61.78641},{"name":"Qarabalyq","country":"KZ","lat":53.75019,"lon":62.0584},{"name":"Qaramengdi","country":"KZ","lat":51.65708,"lon":64.22535},{"name":"Qarazhal","country":"KZ","lat":48.01085,"lon":70.80058},{"name":"Qarqaraly","country":"KZ","lat":49.41244,"lon":75.47228},{"name":"Qashar","country":"KZ","lat":53.36799,"lon":62.86839},{"name":"Qasym Qaysenov","country":"KZ","lat":49.87386,"lon":82.49485},{"name":"Qobda","country":"KZ","lat":50.14928,"lon":55.66889},{"name":"Qogham","country":"KZ","lat":42.82774,"lon":68.28074},{"name":"Qorghalzhyn","country":"KZ","lat":50.58371,"lon":70.0189},{"name":"Qulsary","country":"KZ","lat":46.95307,"lon":54.01978},{"name":"Qusmuryn","country":"KZ","lat":52.45144,"lon":64.61682},{"name":"Ridder","country":"KZ","lat":50.34524,"lon":83.51562},{"name":"Rudnyy","country":"KZ","lat":52.97244,"lon":63.11055},{"name":"Saksaul’skiy","country":"KZ","lat":47.08152,"lon":61.15239},{"name":"Samarskoye","country":"KZ","lat":49.02247,"lon":83.36634},{"name":"Saran","country":"KZ","lat":49.80245,"lon":72.83186},{"name":"Sarqant","country":"KZ","lat":45.41322,"lon":79.91713},{"name":"Saryaghash","country":"KZ","lat":41.46042,"lon":69.16791},{"name":"Sarykamys","country":"KZ","lat":47.78333,"lon":78.71667},{"name":"Sarykemer","country":"KZ","lat":43.00929,"lon":71.5101},{"name":"Sarykol'","country":"KZ","lat":53.31891,"lon":65.53923},{"name":"Saryozek","country":"KZ","lat":44.36178,"lon":77.97279},{"name":"Saryshaghan","country":"KZ","lat":46.11805,"lon":73.61336},{"name":"Sastobe","country":"KZ","lat":42.5533,"lon":69.99835},{"name":"Satpayev","country":"KZ","lat":47.90409,"lon":67.54112},{"name":"Saumalkol’","country":"KZ","lat":53.2927,"lon":68.105},{"name":"Say-Otes","country":"KZ","lat":44.32787,"lon":53.53216},{"name":"Sayaq","country":"KZ","lat":47,"lon":77.26667},{"name":"Saykhin","country":"KZ","lat":48.85611,"lon":46.83361},{"name":"Saykhin","country":"KZ","lat":48.81441,"lon":46.76946},{"name":"Sayram","country":"KZ","lat":42.3025,"lon":69.75758},{"name":"Selo Temirbeka Zhurgenova","country":"KZ","lat":50.43326,"lon":60.5004},{"name":"Semey","country":"KZ","lat":50.42675,"lon":80.26669},{"name":"Sergeyevka","country":"KZ","lat":53.88139,"lon":67.40882},{"name":"Shakhan","country":"KZ","lat":49.81958,"lon":72.65407},{"name":"Shakhtinsk","country":"KZ","lat":49.70713,"lon":72.59321},{"name":"Shalkar","country":"KZ","lat":48.03333,"lon":48.9},{"name":"Shalqar","country":"KZ","lat":47.83154,"lon":59.61926},{"name":"Shalqīya","country":"KZ","lat":44.00947,"lon":67.41062},{"name":"Shantobe","country":"KZ","lat":52.45376,"lon":68.17475},{"name":"Shar","country":"KZ","lat":49.5872,"lon":81.04883},{"name":"Sharbaqty","country":"KZ","lat":52.49087,"lon":78.15556},{"name":"Shardara","country":"KZ","lat":41.25832,"lon":67.96991},{"name":"Shaul’der","country":"KZ","lat":42.79097,"lon":68.37172},{"name":"Shayan","country":"KZ","lat":43.03399,"lon":69.38048},{"name":"Shchuchinsk","country":"KZ","lat":52.93592,"lon":70.18895},{"name":"Shemonaikha","country":"KZ","lat":50.62899,"lon":81.91092},{"name":"Shetpe","country":"KZ","lat":44.13922,"lon":52.15305},{"name":"Shevchenko","country":"KZ","lat":43.64806,"lon":51.17222},{"name":"Shiyeli","country":"KZ","lat":44.17057,"lon":66.73376},{"name":"Sholakkorgan","country":"KZ","lat":43.76453,"lon":69.17856},{"name":"Shortandy","country":"KZ","lat":51.69934,"lon":70.99129},{"name":"Shu","country":"KZ","lat":43.60507,"lon":73.76221},{"name":"Shubarköl","country":"KZ","lat":48.88222,"lon":68.80722},{"name":"Shubarkuduk","country":"KZ","lat":49.14391,"lon":56.48196},{"name":"Shubarshi","country":"KZ","lat":48.58022,"lon":57.18289},{"name":"Shymkent","country":"KZ","lat":42.3,"lon":69.6},{"name":"Shyngyrlau","country":"KZ","lat":51.09959,"lon":54.08412},{"name":"Smirnovo","country":"KZ","lat":54.5148,"lon":69.42732},{"name":"Stepnogorsk","country":"KZ","lat":52.35062,"lon":71.88161},{"name":"Stepnyak","country":"KZ","lat":52.83489,"lon":70.78861},{"name":"Suykbulak","country":"KZ","lat":49.70837,"lon":81.04854},{"name":"Taiynsha","country":"KZ","lat":53.84796,"lon":69.76773},{"name":"Taldykorgan","country":"KZ","lat":45.01556,"lon":78.37389},{"name":"Talghar","country":"KZ","lat":43.30235,"lon":77.23811},{"name":"Talshik","country":"KZ","lat":53.63736,"lon":71.87404},{"name":"Taraz","country":"KZ","lat":42.9,"lon":71.36667},{"name":"Tasbuget","country":"KZ","lat":44.77018,"lon":65.55461},{"name":"Tasqala","country":"KZ","lat":51.11073,"lon":50.29454},{"name":"Tasty-Taldy","country":"KZ","lat":50.72817,"lon":66.62033},{"name":"Taūshyq","country":"KZ","lat":44.34678,"lon":51.34932},{"name":"Tayynsha","country":"KZ","lat":53.84665,"lon":69.75987},{"name":"Tekeli","country":"KZ","lat":44.8678,"lon":78.72807},{"name":"Tekeli","country":"KZ","lat":44.86136,"lon":78.77287},{"name":"Temir","country":"KZ","lat":49.14284,"lon":57.12736},{"name":"Temirlanovka","country":"KZ","lat":42.59998,"lon":69.25836},{"name":"Temirtau","country":"KZ","lat":50.05197,"lon":72.95497},{"name":"Terekti","country":"KZ","lat":51.2221,"lon":51.95731},{"name":"Terengköl","country":"KZ","lat":53.06649,"lon":76.10489},{"name":"Terenozek","country":"KZ","lat":45.05048,"lon":64.98258},{"name":"Timiryazevo","country":"KZ","lat":53.74947,"lon":66.48852},{"name":"Tobol","country":"KZ","lat":52.69366,"lon":62.5914},{"name":"Tobyl","country":"KZ","lat":53.20666,"lon":63.70038},{"name":"Tokarevka","country":"KZ","lat":50.11573,"lon":73.16034},{"name":"Torghay","country":"KZ","lat":49.63072,"lon":63.49035},{"name":"Troyebratskiy","country":"KZ","lat":54.44306,"lon":66.07982},{"name":"Tughyl","country":"KZ","lat":47.72497,"lon":84.20585},{"name":"Turar Ryskulov","country":"KZ","lat":42.5334,"lon":70.3496},{"name":"Turgen","country":"KZ","lat":43.40056,"lon":77.59333},{"name":"Turkestan","country":"KZ","lat":43.29733,"lon":68.25175},{"name":"Tyul’kubas","country":"KZ","lat":42.48578,"lon":70.29601},{"name":"Tyuratam","country":"KZ","lat":45.65005,"lon":63.31163},{"name":"Uil","country":"KZ","lat":49.0725,"lon":54.66304},{"name":"Ul’ba","country":"KZ","lat":50.26581,"lon":83.37804},{"name":"Ülken","country":"KZ","lat":45.20928,"lon":73.95089},{"name":"Ulken Naryn","country":"KZ","lat":49.21245,"lon":84.50758},{"name":"Ulytau","country":"KZ","lat":48.65504,"lon":67.00586},{"name":"Umirzak","country":"KZ","lat":43.59762,"lon":51.24094},{"name":"Urzhar","country":"KZ","lat":47.09302,"lon":81.62939},{"name":"Usharal","country":"KZ","lat":46.16926,"lon":80.94331},{"name":"Ushtobe","country":"KZ","lat":45.25258,"lon":77.98284},{"name":"Uspenka","country":"KZ","lat":52.90727,"lon":77.41813},{"name":"Ust-Kamenogorsk","country":"KZ","lat":49.97143,"lon":82.60586},{"name":"Ūst’-Talovka","country":"KZ","lat":50.55058,"lon":81.84847},{"name":"Uzunagach","country":"KZ","lat":43.22259,"lon":76.31871},{"name":"Uzunkol'","country":"KZ","lat":54.03782,"lon":65.3354},{"name":"Verkhniye Kayrakty","country":"KZ","lat":48.68333,"lon":73.28333},{"name":"Vozvyshenka","country":"KZ","lat":54.4354,"lon":70.94224},{"name":"Yavlenka","country":"KZ","lat":54.34525,"lon":68.4574},{"name":"Yereymentau","country":"KZ","lat":51.62364,"lon":73.10265},{"name":"Yrghyz","country":"KZ","lat":48.61958,"lon":61.26067},{"name":"Yul’yevka","country":"KZ","lat":52.11775,"lon":64.27539},{"name":"Zavodskoy","country":"KZ","lat":52.47031,"lon":72.01514},{"name":"Zaysan","country":"KZ","lat":47.46657,"lon":84.87144},{"name":"Zerenda","country":"KZ","lat":52.90599,"lon":69.15593},{"name":"Zhabagly","country":"KZ","lat":42.43781,"lon":70.47841},{"name":"Zhaksy","country":"KZ","lat":51.91058,"lon":67.31665},{"name":"Zhalagash","country":"KZ","lat":45.07958,"lon":64.68175},{"name":"Zhalghyztobe","country":"KZ","lat":49.21094,"lon":81.21596},{"name":"Zhana Kiima","country":"KZ","lat":51.59611,"lon":67.58944},{"name":"Zhanaozen","country":"KZ","lat":43.34116,"lon":52.86192},{"name":"Zhangaarqa","country":"KZ","lat":48.68659,"lon":71.64469},{"name":"Zhangaqala","country":"KZ","lat":49.21532,"lon":50.29009},{"name":"Zhangaqorghan","country":"KZ","lat":43.90652,"lon":67.24637},{"name":"Zhangatas","country":"KZ","lat":43.56274,"lon":69.73209},{"name":"Zhanibek","country":"KZ","lat":49.42278,"lon":46.84626},{"name":"Zhansugurov","country":"KZ","lat":45.39743,"lon":79.50345},{"name":"Zharkent","country":"KZ","lat":44.16619,"lon":80.00736},{"name":"Zharyk","country":"KZ","lat":48.85692,"lon":72.83598},{"name":"Zhelezinka","country":"KZ","lat":53.5388,"lon":75.31326},{"name":"Zhetybay","country":"KZ","lat":43.58928,"lon":52.10313},{"name":"Zhetysay","country":"KZ","lat":40.77631,"lon":68.32774},{"name":"Zhezkent","country":"KZ","lat":50.93112,"lon":81.3615},{"name":"Zhezqazghan","country":"KZ","lat":47.78746,"lon":67.71118},{"name":"Zhitikara","country":"KZ","lat":52.19019,"lon":61.19894},{"name":"Zholymbet","country":"KZ","lat":51.74259,"lon":71.70971},{"name":"Zhosaly","country":"KZ","lat":45.48778,"lon":64.07806},{"name":"Zhumysker","country":"KZ","lat":49.33333,"lon":49.4},{"name":"Zhympity","country":"KZ","lat":50.25645,"lon":52.59707}]