[{"name":"Balzers","country":"LI","lat":47.06665,"lon":9.50251},{"name":"Eschen","country":"LI","lat":47.21071,"lon":9.52223},{"name":"Gamprin","country":"LI","lat":47.22038,"lon":9.50935},{"name":"Mauren","country":"LI","lat":47.21805,"lon":9.5442},{"name":"Nendeln","country":"LI","lat":47.19846,"lon":9.543},{"name":"Planken","country":"LI","lat":47.18516,"lon":9.54437},{"name":"Ruggell","country":"LI","lat":47.23799,"lon":9.5254},{"name":"Schaan","country":"LI","lat":47.16498,"lon":9.50867},{"name":"Schellenberg","country":"LI","lat":47.23123,"lon":9.54678},{"name":"Triesen","country":"LI","lat":47.10752,"lon":9.52815},{"name":"Triesenberg","country":"LI","lat":47.11815,"lon":9.54197},{"name":"Vaduz","country":"LI","lat":47.14151,"lon":9.52154}]