[{"name":"Ādaži","country":"LV","lat":57.07045,"lon":24.33713},{"name":"Ainaži","country":"LV","lat":57.86348,"lon":24.35853},{"name":"Aizkraukle","country":"LV","lat":56.60477,"lon":25.25534},{"name":"Aizpute","country":"LV","lat":56.72108,"lon":21.60156},{"name":"Aknīste","country":"LV","lat":56.16152,"lon":25.74783},{"name":"Aloja","country":"LV","lat":57.76723,"lon":24.87743},{"name":"Alsunga","country":"LV","lat":56.98194,"lon":21.55938},{"name":"Alūksne","country":"LV","lat":57.42162,"lon":27.04662},{"name":"Ape","country":"LV","lat":57.53928,"lon":26.69291},{"name":"Auce","country":"LV","lat":56.45981,"lon":22.90169},{"name":"Baldone","country":"LV","lat":56.74451,"lon":24.40078},{"name":"Baloži","country":"LV","lat":56.87643,"lon":24.11825},{"name":"Balvi","country":"LV","lat":57.1313,"lon":27.26583},{"name":"Bauska","country":"LV","lat":56.40794,"lon":24.19443},{"name":"Berģi","country":"LV","lat":56.98639,"lon":24.29917},{"name":"Bolderaja","country":"LV","lat":57.03132,"lon":24.05571},{"name":"Brocēni","country":"LV","lat":56.6789,"lon":22.56945},{"name":"Cēsis","country":"LV","lat":57.31188,"lon":25.27456},{"name":"Cesvaine","country":"LV","lat":56.96754,"lon":26.30764},{"name":"Dagda","country":"LV","lat":56.09512,"lon":27.53723},{"name":"Dārzciems","country":"LV","lat":56.94563,"lon":24.17459},{"name":"Daugavgrīva","country":"LV","lat":57.04315,"lon":24.03613},{"name":"Daugavpils","country":"LV","lat":55.88333,"lon":26.53333},{"name":"Dobele","country":"LV","lat":56.62372,"lon":23.2751},{"name":"Drabeši","country":"LV","lat":57.24316,"lon":25.27748},{"name":"Dreiliņi","country":"LV","lat":56.9438,"lon":24.24253},{"name":"Engure","country":"LV","lat":57.16061,"lon":23.22527},{"name":"Ērgļi","country":"LV","lat":56.89752,"lon":25.63668},{"name":"Garkalne","country":"LV","lat":57.04486,"lon":24.41951},{"name":"Grobiņa","country":"LV","lat":56.53521,"lon":21.16782},{"name":"Gulbene","country":"LV","lat":57.17767,"lon":26.75291},{"name":"Iecava","country":"LV","lat":56.59766,"lon":24.20763},{"name":"Ikšķile","country":"LV","lat":56.83399,"lon":24.49679},{"name":"Ilūkste","country":"LV","lat":55.97754,"lon":26.29655},{"name":"Inčukalns","country":"LV","lat":57.09867,"lon":24.6863},{"name":"Jaunaglona","country":"LV","lat":56.16066,"lon":27.00714},{"name":"Jaunciems","country":"LV","lat":57.0391,"lon":24.17413},{"name":"Jaunjelgava","country":"LV","lat":56.61319,"lon":25.08316},{"name":"Jaunpils","country":"LV","lat":56.73137,"lon":23.01247},{"name":"Jēkabpils","country":"LV","lat":56.49903,"lon":25.85735},{"name":"Jelgava","country":"LV","lat":56.65,"lon":23.71278},{"name":"Jumprava","country":"LV","lat":56.67613,"lon":24.9721},{"name":"Jūrmala","country":"LV","lat":56.968,"lon":23.77038},{"name":"Kalnciems","country":"LV","lat":56.79908,"lon":23.61503},{"name":"Kandava","country":"LV","lat":57.04087,"lon":22.77466},{"name":"Karosta","country":"LV","lat":56.55128,"lon":21.01287},{"name":"Kārsava","country":"LV","lat":56.78405,"lon":27.68829},{"name":"Ķegums","country":"LV","lat":56.7451,"lon":24.72439},{"name":"Ķekava","country":"LV","lat":56.82662,"lon":24.23},{"name":"Kocēni","country":"LV","lat":57.52057,"lon":25.33821},{"name":"Koknese","country":"LV","lat":56.65163,"lon":25.43637},{"name":"Krāslava","country":"LV","lat":55.89514,"lon":27.16799},{"name":"Krustpils","country":"LV","lat":56.51068,"lon":25.86117},{"name":"Kuldīga","country":"LV","lat":56.97399,"lon":21.95721},{"name":"Lieģi","country":"LV","lat":56.58173,"lon":21.33399},{"name":"Lielvārde","country":"LV","lat":56.72066,"lon":24.80743},{"name":"Liepāja","country":"LV","lat":56.50474,"lon":21.01085},{"name":"Liezēre","country":"LV","lat":57.01823,"lon":26.06395},{"name":"Līgatne","country":"LV","lat":57.23429,"lon":25.04059},{"name":"Limbaži","country":"LV","lat":57.51287,"lon":24.71941},{"name":"Līvāni","country":"LV","lat":56.35431,"lon":26.17579},{"name":"Lubāna","country":"LV","lat":56.90425,"lon":26.71606},{"name":"Ludza","country":"LV","lat":56.53958,"lon":27.71891},{"name":"Madona","country":"LV","lat":56.85329,"lon":26.21698},{"name":"Mārupe","country":"LV","lat":56.90544,"lon":24.05113},{"name":"Matīši","country":"LV","lat":57.69892,"lon":25.15886},{"name":"Mazsalaca","country":"LV","lat":57.86329,"lon":25.05475},{"name":"Mērsrags","country":"LV","lat":57.33535,"lon":23.12455},{"name":"Mežaparks","country":"LV","lat":57.00008,"lon":24.15997},{"name":"Mūrmuiža","country":"LV","lat":57.47312,"lon":25.49174},{"name":"Naukšēni","country":"LV","lat":57.88349,"lon":25.45609},{"name":"Nereta","country":"LV","lat":56.20279,"lon":25.30752},{"name":"Nīca","country":"LV","lat":56.34601,"lon":21.06401},{"name":"Ogre","country":"LV","lat":56.8162,"lon":24.61401},{"name":"Olaine","country":"LV","lat":56.79472,"lon":23.9358},{"name":"Ozolnieki","country":"LV","lat":56.68986,"lon":23.7761},{"name":"Pāvilosta","country":"LV","lat":56.88791,"lon":21.18593},{"name":"Piņķi","country":"LV","lat":56.94189,"lon":23.91365},{"name":"Pļaviņas","country":"LV","lat":56.6178,"lon":25.72552},{"name":"Preiļi","country":"LV","lat":56.29444,"lon":26.72459},{"name":"Priekule","country":"LV","lat":56.44679,"lon":21.58968},{"name":"Priekuļi","country":"LV","lat":57.315,"lon":25.36147},{"name":"Ragana","country":"LV","lat":57.18074,"lon":24.70731},{"name":"Rauna","country":"LV","lat":57.33173,"lon":25.60947},{"name":"Rēzekne","country":"LV","lat":56.51028,"lon":27.34},{"name":"Riebiņi","country":"LV","lat":56.3428,"lon":26.79995},{"name":"Riga","country":"LV","lat":56.946,"lon":24.10589},{"name":"Roja","country":"LV","lat":57.50146,"lon":22.80881},{"name":"Rucava","country":"LV","lat":56.16314,"lon":21.16156},{"name":"Rūjiena","country":"LV","lat":57.89752,"lon":25.33155},{"name":"Sabile","country":"LV","lat":57.04577,"lon":22.57261},{"name":"Sala","country":"LV","lat":56.50675,"lon":25.76423},{"name":"Salacgrīva","country":"LV","lat":57.75312,"lon":24.35895},{"name":"Salaspils","country":"LV","lat":56.86014,"lon":24.36544},{"name":"Saldus","country":"LV","lat":56.66363,"lon":22.48807},{"name":"Saulkrasti","country":"LV","lat":57.26224,"lon":24.41471},{"name":"Seda","country":"LV","lat":57.65042,"lon":25.75089},{"name":"Sigulda","country":"LV","lat":57.15375,"lon":24.85953},{"name":"Skrīveri","country":"LV","lat":56.645,"lon":25.12058},{"name":"Skrunda","country":"LV","lat":56.67749,"lon":22.01649},{"name":"Smārde","country":"LV","lat":56.9542,"lon":23.33736},{"name":"Smiltene","country":"LV","lat":57.42444,"lon":25.90164},{"name":"Stalbe","country":"LV","lat":57.37065,"lon":25.03106},{"name":"Stende","country":"LV","lat":57.14497,"lon":22.53482},{"name":"Strenči","country":"LV","lat":57.62574,"lon":25.68535},{"name":"Talsi","country":"LV","lat":57.24562,"lon":22.58137},{"name":"Tērvete","country":"LV","lat":56.47989,"lon":23.38895},{"name":"Tīreļi","country":"LV","lat":56.83991,"lon":23.58902},{"name":"Tukums","country":"LV","lat":56.96764,"lon":23.15554},{"name":"Ugāle","country":"LV","lat":57.27464,"lon":22.03211},{"name":"Ulbroka","country":"LV","lat":56.9363,"lon":24.30387},{"name":"Vaiņode","country":"LV","lat":56.41848,"lon":21.85405},{"name":"Valdemārpils","country":"LV","lat":57.37068,"lon":22.59188},{"name":"Valka","country":"LV","lat":57.7752,"lon":26.01013},{"name":"Valmiera","country":"LV","lat":57.54108,"lon":25.42751},{"name":"Vangaži","country":"LV","lat":57.09358,"lon":24.54468},{"name":"Varakļāni","country":"LV","lat":56.60826,"lon":26.75377},{"name":"Vecpiebalga","country":"LV","lat":57.0609,"lon":25.81624},{"name":"Vecrīga","country":"LV","lat":56.94966,"lon":24.10418},{"name":"Vecumnieki","country":"LV","lat":56.60608,"lon":24.52232},{"name":"Ventspils","country":"LV","lat":57.39485,"lon":21.56121},{"name":"Viesīte","country":"LV","lat":56.34751,"lon":25.55514},{"name":"Viļaka","country":"LV","lat":57.18458,"lon":27.6722},{"name":"Viļāni","country":"LV","lat":56.55253,"lon":26.92449},{"name":"Vilce","country":"LV","lat":56.42032,"lon":23.54781},{"name":"Zelmeņi","country":"LV","lat":56.45167,"lon":23.35194},{"name":"Zilupe","country":"LV","lat":56.38616,"lon":28.12165}]