[{"name":"Anenii Noi","country":"MD","lat":46.87839,"lon":29.23483},{"name":"Bălţi","country":"MD","lat":47.76314,"lon":27.92932},{"name":"Basarabeasca","country":"MD","lat":46.3317,"lon":28.96365},{"name":"Bender","country":"MD","lat":46.83156,"lon":29.47769},{"name":"Bilicenii Vechi","country":"MD","lat":47.6558,"lon":28.04734},{"name":"Biruinţa","country":"MD","lat":47.81353,"lon":28.07004},{"name":"Briceni","country":"MD","lat":48.36289,"lon":27.07787},{"name":"Briceni","country":"MD","lat":48.35628,"lon":27.70293},{"name":"Bucovăţ","country":"MD","lat":47.19064,"lon":28.45802},{"name":"Bugeac","country":"MD","lat":46.36554,"lon":28.6625},{"name":"Cahul","country":"MD","lat":45.90425,"lon":28.19929},{"name":"Călăraşi","country":"MD","lat":47.2556,"lon":28.30987},{"name":"Camenca","country":"MD","lat":48.03233,"lon":28.69899},{"name":"Cantemir","country":"MD","lat":46.27743,"lon":28.2027},{"name":"Căuşeni","country":"MD","lat":46.63674,"lon":29.41114},{"name":"Ceadîr-Lunga","country":"MD","lat":46.06169,"lon":28.83078},{"name":"Chisinau","country":"MD","lat":47.00556,"lon":28.8575},{"name":"Chiţcani","country":"MD","lat":46.78296,"lon":29.61682},{"name":"Cimişlia","country":"MD","lat":46.52685,"lon":28.76441},{"name":"Ciorescu","country":"MD","lat":47.13,"lon":28.88937},{"name":"Cocieri","country":"MD","lat":47.3017,"lon":29.11755},{"name":"Codru","country":"MD","lat":46.97648,"lon":28.819},{"name":"Comrat","country":"MD","lat":46.29456,"lon":28.6565},{"name":"Congaz","country":"MD","lat":46.10744,"lon":28.59303},{"name":"Crasnoe","country":"MD","lat":46.643,"lon":29.823},{"name":"Cricova","country":"MD","lat":47.13835,"lon":28.86156},{"name":"Criuleni","country":"MD","lat":47.21307,"lon":29.15926},{"name":"Dancu","country":"MD","lat":46.75818,"lon":28.20716},{"name":"Dnestrovsc","country":"MD","lat":46.624,"lon":29.906},{"name":"Dolna","country":"MD","lat":47.12189,"lon":28.27033},{"name":"Donduşeni","country":"MD","lat":48.24268,"lon":27.6101},{"name":"Drochia","country":"MD","lat":48.03555,"lon":27.81293},{"name":"Dubăsari","country":"MD","lat":47.26562,"lon":29.16667},{"name":"Edineţ","country":"MD","lat":48.17215,"lon":27.30337},{"name":"Fălești","country":"MD","lat":47.57667,"lon":27.71264},{"name":"Floreşti","country":"MD","lat":47.89137,"lon":28.29312},{"name":"Ghindești","country":"MD","lat":47.85482,"lon":28.37679},{"name":"Giurgiuleşti","country":"MD","lat":45.48167,"lon":28.19722},{"name":"Glodeni","country":"MD","lat":47.77513,"lon":27.51891},{"name":"Hînceşti","country":"MD","lat":46.83047,"lon":28.59064},{"name":"Hryhoriopol","country":"MD","lat":47.15413,"lon":29.30008},{"name":"Ialoveni","country":"MD","lat":46.94346,"lon":28.78233},{"name":"Iargara","country":"MD","lat":46.4252,"lon":28.42676},{"name":"Leova","country":"MD","lat":46.4823,"lon":28.25301},{"name":"Maiac","country":"MD","lat":47.23727,"lon":29.38498},{"name":"Mărculeşti","country":"MD","lat":47.86897,"lon":28.24109},{"name":"Merenii Noi","country":"MD","lat":46.92594,"lon":29.0624},{"name":"Mîndreşti","country":"MD","lat":47.50525,"lon":28.27687},{"name":"Nisporeni","country":"MD","lat":47.08159,"lon":28.17138},{"name":"Ocniţa","country":"MD","lat":48.38274,"lon":27.43805},{"name":"Orhei","country":"MD","lat":47.38494,"lon":28.82446},{"name":"Otaci","country":"MD","lat":48.43285,"lon":27.79912},{"name":"Pervomaisc","country":"MD","lat":46.73253,"lon":29.9617},{"name":"Pogăneşti","country":"MD","lat":46.69249,"lon":28.23192},{"name":"Popeştii de Sus","country":"MD","lat":48.08806,"lon":28.02556},{"name":"Rezina","country":"MD","lat":47.74928,"lon":28.96583},{"name":"Rîbniţa","country":"MD","lat":47.76817,"lon":29.01},{"name":"Rîşcani","country":"MD","lat":47.94792,"lon":27.56376},{"name":"Saharna","country":"MD","lat":47.69107,"lon":28.97458},{"name":"Sîngera","country":"MD","lat":46.91557,"lon":28.96673},{"name":"Sîngerei","country":"MD","lat":47.63632,"lon":28.14296},{"name":"Slobozia","country":"MD","lat":46.72927,"lon":29.70446},{"name":"Şoldăneşti","country":"MD","lat":47.81608,"lon":28.79718},{"name":"Soroca","country":"MD","lat":48.15659,"lon":28.28489},{"name":"Stăuceni","country":"MD","lat":47.09643,"lon":28.86791},{"name":"Ştefan Vodă","country":"MD","lat":46.51287,"lon":29.66193},{"name":"Strășeni","country":"MD","lat":47.14216,"lon":28.60774},{"name":"Taraclia","country":"MD","lat":45.90273,"lon":28.66816},{"name":"Teleneşti","country":"MD","lat":47.5011,"lon":28.36536},{"name":"Tiraspol","country":"MD","lat":46.84274,"lon":29.62909},{"name":"Tiraspolul Nou","country":"MD","lat":46.82874,"lon":29.52174},{"name":"Tvardița","country":"MD","lat":46.14826,"lon":28.96491},{"name":"Ungheni","country":"MD","lat":47.21079,"lon":27.80047},{"name":"Ustia","country":"MD","lat":47.25524,"lon":29.12406},{"name":"Vadul lui Vodă","country":"MD","lat":47.09009,"lon":29.0757},{"name":"Varniţa","country":"MD","lat":46.86606,"lon":29.46636},{"name":"Vatra","country":"MD","lat":47.0746,"lon":28.73685},{"name":"Vişniovca","country":"MD","lat":46.3326,"lon":28.44797},{"name":"Vulcăneşti","country":"MD","lat":45.68492,"lon":28.40613}]