[{"name":"Alarobia","country":"MG","lat":-18.96667,"lon":47.73333},{"name":"Ambalasoa","country":"MG","lat":-23.11667,"lon":46},{"name":"Ambalavao","country":"MG","lat":-21.83333,"lon":46.93333},{"name":"Ambanja","country":"MG","lat":-13.669,"lon":48.453},{"name":"Ambarakaraka","country":"MG","lat":-13.5,"lon":48.86667},{"name":"Ambato Boeny","country":"MG","lat":-16.46667,"lon":46.71667},{"name":"Ambatofinandrahana","country":"MG","lat":-20.55284,"lon":46.80365},{"name":"Ambatolampy","country":"MG","lat":-19.38333,"lon":47.41667},{"name":"Ambatolaona","country":"MG","lat":-18.93333,"lon":47.9},{"name":"Ambatondrazaka","country":"MG","lat":-17.83333,"lon":48.41667},{"name":"Ambilobe","country":"MG","lat":-13.2,"lon":49.05},{"name":"Amboanjo","country":"MG","lat":-22,"lon":47.85},{"name":"Amboasary","country":"MG","lat":-25.03333,"lon":46.38333},{"name":"Amboasary","country":"MG","lat":-24.33333,"lon":45.95},{"name":"Ambodifotatra","country":"MG","lat":-16.98333,"lon":49.85},{"name":"Ambodivoara","country":"MG","lat":-14.33333,"lon":49.98333},{"name":"Ambohidratrimo","country":"MG","lat":-18.818,"lon":47.43382},{"name":"Ambohimahasoa","country":"MG","lat":-21.11667,"lon":47.21667},{"name":"Ambohitrandriamanitra","country":"MG","lat":-19.08333,"lon":47.78333},{"name":"Ambohitrolomahitsy","country":"MG","lat":-18.7,"lon":47.68333},{"name":"Ambohitseheno","country":"MG","lat":-18.78333,"lon":47.8},{"name":"Ambositra","country":"MG","lat":-20.53034,"lon":47.24344},{"name":"Ambovombe","country":"MG","lat":-25.17838,"lon":46.08722},{"name":"Ampahana","country":"MG","lat":-14.75,"lon":50.21667},{"name":"Ampanihy","country":"MG","lat":-24.6937,"lon":44.74581},{"name":"Amparafaravola","country":"MG","lat":-17.5876,"lon":48.22391},{"name":"Ampasimanolotra","country":"MG","lat":-18.81667,"lon":49.06667},{"name":"Anakao","country":"MG","lat":-23.66667,"lon":43.65},{"name":"Anandravy","country":"MG","lat":-22.9,"lon":47.36667},{"name":"Andapa","country":"MG","lat":-14.65,"lon":49.65},{"name":"Andilamena","country":"MG","lat":-17.01009,"lon":48.57313},{"name":"Andovoranto","country":"MG","lat":-18.95443,"lon":49.1094},{"name":"Andramasina","country":"MG","lat":-19.18785,"lon":47.59016},{"name":"Anjepy","country":"MG","lat":-18.85,"lon":47.71667},{"name":"Anjozorobe","country":"MG","lat":-18.4,"lon":47.86667},{"name":"Ankazoabo","country":"MG","lat":-22.28333,"lon":44.51667},{"name":"Ankazobe","country":"MG","lat":-18.31667,"lon":47.11667},{"name":"Ankazondandy","country":"MG","lat":-18.7,"lon":47.78333},{"name":"Antakotako","country":"MG","lat":-15.31667,"lon":49.8},{"name":"Antalaha","country":"MG","lat":-14.90033,"lon":50.27876},{"name":"Antananarivo","country":"MG","lat":-18.91368,"lon":47.53613},{"name":"Antanifotsy","country":"MG","lat":-19.65,"lon":47.31667},{"name":"Antanimena","country":"MG","lat":-23.55,"lon":44.1},{"name":"Antsalova","country":"MG","lat":-18.66667,"lon":44.61667},{"name":"Antsampanimahazo","country":"MG","lat":-19.63988,"lon":47.1565},{"name":"Antsirabe","country":"MG","lat":-19.86586,"lon":47.03333},{"name":"Antsirabe Afovoany","country":"MG","lat":-15.95,"lon":48.96667},{"name":"Antsiranana","country":"MG","lat":-12.31732,"lon":49.29188},{"name":"Antsohihy","country":"MG","lat":-14.87959,"lon":47.98751},{"name":"Antsohimbondrona","country":"MG","lat":-13.08333,"lon":48.85},{"name":"Arivonimamo","country":"MG","lat":-19.01667,"lon":47.18333},{"name":"Bealanana","country":"MG","lat":-14.54329,"lon":48.74981},{"name":"Befandriana","country":"MG","lat":-15.2567,"lon":48.54249},{"name":"Behompy","country":"MG","lat":-23.25,"lon":43.85},{"name":"Bekily","country":"MG","lat":-24.21667,"lon":45.31667},{"name":"Belo sur Tsiribihina","country":"MG","lat":-19.69787,"lon":44.54587},{"name":"Beloha","country":"MG","lat":-25.16667,"lon":45.05},{"name":"Bemaitso","country":"MG","lat":-17.06667,"lon":48.5},{"name":"Beroroha","country":"MG","lat":-21.66667,"lon":45.16667},{"name":"Besalampy","country":"MG","lat":-16.75,"lon":44.48333},{"name":"Betafo","country":"MG","lat":-19.83333,"lon":46.85},{"name":"Beteza","country":"MG","lat":-24.45,"lon":45.11667},{"name":"Betioky","country":"MG","lat":-23.72065,"lon":44.38069},{"name":"Betroka","country":"MG","lat":-23.26667,"lon":46.08333},{"name":"Boriziny","country":"MG","lat":-15.55,"lon":47.66667},{"name":"Fandrandava","country":"MG","lat":-21.51667,"lon":47.25},{"name":"Fandriana","country":"MG","lat":-20.23333,"lon":47.38333},{"name":"Farafangana","country":"MG","lat":-22.82223,"lon":47.82615},{"name":"Faratsiho","country":"MG","lat":-19.4,"lon":46.95},{"name":"Fenoarivo Atsinanana","country":"MG","lat":-17.38095,"lon":49.40826},{"name":"Fenoarivo Be","country":"MG","lat":-18.43333,"lon":46.56667},{"name":"Fianarantsoa","country":"MG","lat":-21.45267,"lon":47.08569},{"name":"Hell-Ville","country":"MG","lat":-13.39718,"lon":48.26663},{"name":"Ifanadiana","country":"MG","lat":-21.3,"lon":47.63333},{"name":"Ifatsy","country":"MG","lat":-22.4,"lon":47.75},{"name":"Iharan̈a","country":"MG","lat":-13.35,"lon":50},{"name":"Ihosy","country":"MG","lat":-22.40293,"lon":46.12576},{"name":"Ikalamavony","country":"MG","lat":-21.15,"lon":46.58333},{"name":"Ikongo","country":"MG","lat":-21.88333,"lon":47.43333},{"name":"Imerintsiatosika","country":"MG","lat":-18.98333,"lon":47.31667},{"name":"Ivato","country":"MG","lat":-22.41667,"lon":47.26667},{"name":"Ivato","country":"MG","lat":-18.8,"lon":47.48333},{"name":"Kopoky","country":"MG","lat":-25.2,"lon":45.2},{"name":"Maevatanana","country":"MG","lat":-16.95,"lon":46.83333},{"name":"Mahabe","country":"MG","lat":-17.08333,"lon":45.33333},{"name":"Mahajanga","country":"MG","lat":-15.71667,"lon":46.31667},{"name":"Mahalina","country":"MG","lat":-12.53333,"lon":48.81667},{"name":"Mahanoro","country":"MG","lat":-19.9,"lon":48.8},{"name":"Mahavelona","country":"MG","lat":-17.68475,"lon":49.50869},{"name":"Maintirano","country":"MG","lat":-18.06354,"lon":44.02951},{"name":"Mampikony","country":"MG","lat":-16.092,"lon":47.647},{"name":"Manakara","country":"MG","lat":-22.14862,"lon":48.01055},{"name":"Mananara","country":"MG","lat":-16.16864,"lon":49.76622},{"name":"Mananjary","country":"MG","lat":-21.23034,"lon":48.34173},{"name":"Manato","country":"MG","lat":-22.4,"lon":47.48333},{"name":"Mandritsara","country":"MG","lat":-15.85744,"lon":48.82824},{"name":"Manja","country":"MG","lat":-21.43333,"lon":44.33333},{"name":"Manjakandriana","country":"MG","lat":-18.91667,"lon":47.8},{"name":"Mantasoa","country":"MG","lat":-19.01667,"lon":47.83333},{"name":"Maroantsetra","country":"MG","lat":-15.43527,"lon":49.73794},{"name":"Marolambo","country":"MG","lat":-20.05,"lon":48.11667},{"name":"Marovoay","country":"MG","lat":-16.11064,"lon":46.64383},{"name":"Merikanjaka","country":"MG","lat":-19.13333,"lon":47.85},{"name":"Miadanandriana","country":"MG","lat":-19.03333,"lon":47.78333},{"name":"Miandrarivo","country":"MG","lat":-19.43333,"lon":46.75},{"name":"Miandrivazo","country":"MG","lat":-19.52905,"lon":45.45559},{"name":"Miarinarivo","country":"MG","lat":-18.95873,"lon":46.90553},{"name":"Moramanga","country":"MG","lat":-18.94948,"lon":48.23007},{"name":"Morombe","country":"MG","lat":-21.74499,"lon":43.36055},{"name":"Morondava","country":"MG","lat":-20.28869,"lon":44.31782},{"name":"Nandihizana","country":"MG","lat":-18.9,"lon":47.71667},{"name":"Nosy Varika","country":"MG","lat":-20.58333,"lon":48.53333},{"name":"Ranohira","country":"MG","lat":-22.48333,"lon":45.4},{"name":"Sadabe","country":"MG","lat":-18.63333,"lon":47.7},{"name":"Sadjoavato","country":"MG","lat":-12.61667,"lon":49.35},{"name":"Sahatavy","country":"MG","lat":-17.45,"lon":49},{"name":"Sahavato","country":"MG","lat":-20.6,"lon":48.33333},{"name":"Sakaraha","country":"MG","lat":-22.9,"lon":44.53333},{"name":"Sambaina","country":"MG","lat":-18.9,"lon":47.78333},{"name":"Sambava","country":"MG","lat":-14.26667,"lon":50.16667},{"name":"Savana","country":"MG","lat":-22.38333,"lon":47.9},{"name":"Sitampiky","country":"MG","lat":-16.66667,"lon":46.1},{"name":"Soalala","country":"MG","lat":-16.1,"lon":45.31667},{"name":"Soanierana Ivongo","country":"MG","lat":-16.91667,"lon":49.58333},{"name":"Soanindrariny","country":"MG","lat":-19.9,"lon":47.23333},{"name":"Soavinandriana","country":"MG","lat":-19.16667,"lon":46.73333},{"name":"Toamasina","country":"MG","lat":-18.1492,"lon":49.40234},{"name":"Tôlanaro","country":"MG","lat":-25.03249,"lon":46.98329},{"name":"Toliara","country":"MG","lat":-23.35,"lon":43.66667},{"name":"Tranovaho","country":"MG","lat":-25.3,"lon":44.96667},{"name":"Tsaratanana","country":"MG","lat":-16.79706,"lon":47.65165},{"name":"Tsiombe","country":"MG","lat":-25.3,"lon":45.48333},{"name":"Tsiroanomandidy","country":"MG","lat":-18.76969,"lon":46.04653},{"name":"Vangaindrano","country":"MG","lat":-23.35,"lon":47.6},{"name":"Vatomandry","country":"MG","lat":-19.33018,"lon":48.97791},{"name":"Vavatenina","country":"MG","lat":-17.46667,"lon":49.2},{"name":"Vohibinany","country":"MG","lat":-17.35,"lon":49.03333},{"name":"Vohimanitra","country":"MG","lat":-21.7,"lon":47.7},{"name":"Vohipaho","country":"MG","lat":-23.55,"lon":47.5},{"name":"Vohipeno","country":"MG","lat":-22.35,"lon":47.83333},{"name":"Vondrozo","country":"MG","lat":-22.81667,"lon":47.28333}]