[{"name":"Albion","country":"MU","lat":-20.20814,"lon":57.40766},{"name":"Amaury","country":"MU","lat":-20.13083,"lon":57.65917},{"name":"Arsenal","country":"MU","lat":-20.10556,"lon":57.53528},{"name":"Baie aux Huîtres","country":"MU","lat":-19.69444,"lon":63.40833},{"name":"Baie du Tombeau","country":"MU","lat":-20.11944,"lon":57.49139},{"name":"Bambous","country":"MU","lat":-20.25667,"lon":57.40611},{"name":"Bambous Virieux","country":"MU","lat":-20.34278,"lon":57.7575},{"name":"Beau Bassin-Rose Hill","country":"MU","lat":-20.23325,"lon":57.46609},{"name":"Beau Vallon","country":"MU","lat":-20.41889,"lon":57.69528},{"name":"Bel Air Rivière Sèche","country":"MU","lat":-20.25777,"lon":57.74976},{"name":"Bois des Amourettes","country":"MU","lat":-20.36306,"lon":57.73111},{"name":"Bon Accueil","country":"MU","lat":-20.175,"lon":57.672},{"name":"Brisée Verdière","country":"MU","lat":-20.16389,"lon":57.64667},{"name":"Calebasses","country":"MU","lat":-20.11167,"lon":57.55389},{"name":"Camp de Masque","country":"MU","lat":-20.236,"lon":57.676},{"name":"Camp Diable","country":"MU","lat":-20.46278,"lon":57.57889},{"name":"Camp Ithier","country":"MU","lat":-20.21583,"lon":57.74556},{"name":"Camp Thorel","country":"MU","lat":-20.21472,"lon":57.61611},{"name":"Cap Malheureux","country":"MU","lat":-19.98417,"lon":57.61417},{"name":"Cargados Carajos","country":"MU","lat":-16.60329,"lon":59.65851},{"name":"Cascavelle","country":"MU","lat":-20.28694,"lon":57.40722},{"name":"Centre de Flacq","country":"MU","lat":-20.18972,"lon":57.71444},{"name":"Chamouny","country":"MU","lat":-20.48222,"lon":57.46611},{"name":"Chemin Grenier","country":"MU","lat":-20.48722,"lon":57.46556},{"name":"Clémencia","country":"MU","lat":-20.26389,"lon":57.70611},{"name":"Cluny","country":"MU","lat":-20.36694,"lon":57.60389},{"name":"Congomah","country":"MU","lat":-20.14889,"lon":57.59083},{"name":"Cottage","country":"MU","lat":-20.05972,"lon":57.62917},{"name":"Crève Coeur","country":"MU","lat":-20.19346,"lon":57.56328},{"name":"Curepipe","country":"MU","lat":-20.31628,"lon":57.52594},{"name":"Dagotière","country":"MU","lat":-20.24476,"lon":57.56188},{"name":"Dubreuil","country":"MU","lat":-20.30132,"lon":57.59861},{"name":"Ebene","country":"MU","lat":-20.24494,"lon":57.49163},{"name":"Ecroignard","country":"MU","lat":-20.22611,"lon":57.73611},{"name":"Espérance Trébuchet","country":"MU","lat":-20.06972,"lon":57.64194},{"name":"Flic en Flac","country":"MU","lat":-20.278,"lon":57.372},{"name":"Fond du Sac","country":"MU","lat":-20.04732,"lon":57.584},{"name":"Goodlands","country":"MU","lat":-20.03841,"lon":57.65055},{"name":"Grand Baie","country":"MU","lat":-20.01816,"lon":57.58015},{"name":"Grand Bois","country":"MU","lat":-20.41889,"lon":57.54417},{"name":"Grand Gaube","country":"MU","lat":-20.00639,"lon":57.66083},{"name":"Grand Sable","country":"MU","lat":-20.31417,"lon":57.76444},{"name":"Grande Rivière Noire","country":"MU","lat":-20.36028,"lon":57.36611},{"name":"Grande Rivière Sud Est","country":"MU","lat":-20.28611,"lon":57.77583},{"name":"Gros Cailloux","country":"MU","lat":-20.20722,"lon":57.43},{"name":"L’Escalier","country":"MU","lat":-20.47,"lon":57.61222},{"name":"Lalmatie","country":"MU","lat":-20.18972,"lon":57.66111},{"name":"Laventure","country":"MU","lat":-20.14583,"lon":57.67667},{"name":"Le Hochet","country":"MU","lat":-20.13859,"lon":57.53013},{"name":"Long Mountain","country":"MU","lat":-20.151,"lon":57.573},{"name":"Mahébourg","country":"MU","lat":-20.40806,"lon":57.7},{"name":"Mapou","country":"MU","lat":-20.07583,"lon":57.60139},{"name":"Mare La Chaux","country":"MU","lat":-20.19806,"lon":57.74944},{"name":"Melrose","country":"MU","lat":-20.26972,"lon":57.63194},{"name":"Midlands","country":"MU","lat":-20.338,"lon":57.567},{"name":"Moka","country":"MU","lat":-20.21904,"lon":57.51083},{"name":"Montagne Blanche","country":"MU","lat":-20.28538,"lon":57.65865},{"name":"Morcellement Saint André","country":"MU","lat":-20.07199,"lon":57.56833},{"name":"New Grove","country":"MU","lat":-20.40861,"lon":57.61361},{"name":"Notre Dame","country":"MU","lat":-20.14298,"lon":57.55969},{"name":"Nouvelle France","country":"MU","lat":-20.37056,"lon":57.56111},{"name":"Olivia","country":"MU","lat":-20.28778,"lon":57.73097},{"name":"Pailles","country":"MU","lat":-20.19271,"lon":57.48826},{"name":"Pamplemousses","country":"MU","lat":-20.10389,"lon":57.57028},{"name":"Petit Raffray","country":"MU","lat":-20.02022,"lon":57.62296},{"name":"Petite Case Noyale","country":"MU","lat":-20.404,"lon":57.371},{"name":"Petite Rivière","country":"MU","lat":-20.19551,"lon":57.44592},{"name":"Piton","country":"MU","lat":-20.09028,"lon":57.63028},{"name":"Plaine des Papayes","country":"MU","lat":-20.065,"lon":57.5725},{"name":"Plaine Magnien","country":"MU","lat":-20.42967,"lon":57.66968},{"name":"Plaines des Roches","country":"MU","lat":-20.11167,"lon":57.69083},{"name":"Pointe aux Piments","country":"MU","lat":-20.06494,"lon":57.52347},{"name":"Port Louis","country":"MU","lat":-20.16194,"lon":57.49889},{"name":"Port Mathurin","country":"MU","lat":-19.68333,"lon":63.41667},{"name":"Poste de Flacq","country":"MU","lat":-20.16306,"lon":57.73056},{"name":"Poudre d’Or","country":"MU","lat":-20.06,"lon":57.67667},{"name":"Providence","country":"MU","lat":-20.24472,"lon":57.61222},{"name":"Quartier Militaire","country":"MU","lat":-20.2479,"lon":57.59737},{"name":"Quatre Bornes","country":"MU","lat":-20.26381,"lon":57.4791},{"name":"Quatre Cocos","country":"MU","lat":-20.20151,"lon":57.77448},{"name":"Quatre Soeurs","country":"MU","lat":-20.29917,"lon":57.77056},{"name":"Queen Victoria","country":"MU","lat":-20.22,"lon":57.7075},{"name":"Richelieu","country":"MU","lat":-20.19324,"lon":57.45952},{"name":"Rivière des Anguilles","country":"MU","lat":-20.493,"lon":57.563},{"name":"Rivière du Rempart","country":"MU","lat":-20.10306,"lon":57.68472},{"name":"Roche Terre","country":"MU","lat":-20.01861,"lon":57.64472},{"name":"Roches Noire","country":"MU","lat":-20.11111,"lon":57.71222},{"name":"Rose Belle","country":"MU","lat":-20.40028,"lon":57.59667},{"name":"Saint Aubin","country":"MU","lat":-20.496,"lon":57.55},{"name":"Saint Hubert","country":"MU","lat":-20.36417,"lon":57.63833},{"name":"Saint Julien","country":"MU","lat":-20.208,"lon":57.676},{"name":"Saint Pierre","country":"MU","lat":-20.2215,"lon":57.53431},{"name":"Sebastopol","country":"MU","lat":-20.2907,"lon":57.68779},{"name":"Souillac","country":"MU","lat":-20.51667,"lon":57.51667},{"name":"Surinam","country":"MU","lat":-20.50972,"lon":57.50528},{"name":"Tamarin","country":"MU","lat":-20.32556,"lon":57.37056},{"name":"Terre Rouge","country":"MU","lat":-20.1283,"lon":57.53116},{"name":"The Vale","country":"MU","lat":-20.03018,"lon":57.60219},{"name":"Triolet","country":"MU","lat":-20.0576,"lon":57.55025},{"name":"Vacoas","country":"MU","lat":-20.29806,"lon":57.47833},{"name":"Verdun","country":"MU","lat":-20.23417,"lon":57.55476},{"name":"Vingt Cinq","country":"MU","lat":-10.38803,"lon":56.61795}]