[{"name":"10 de Abril","country":"MX","lat":16.82917,"lon":-99.74083},{"name":"18 de Marzo","country":"MX","lat":18.96889,"lon":-98.16028},{"name":"1ra. Sección de Izapa","country":"MX","lat":14.92083,"lon":-92.17083},{"name":"2da. Sección de Medio Monte","country":"MX","lat":14.88194,"lon":-92.18444},{"name":"31 de Octubre","country":"MX","lat":27.29583,"lon":-110.0375},{"name":"Abalá","country":"MX","lat":20.64739,"lon":-89.6806},{"name":"Abasolo","country":"MX","lat":24.05844,"lon":-98.37333},{"name":"Abasolo","country":"MX","lat":16.8214,"lon":-92.21611},{"name":"Abasolo","country":"MX","lat":27.18219,"lon":-101.42757},{"name":"Abasolo","country":"MX","lat":25.94595,"lon":-100.39584},{"name":"Abasolo","country":"MX","lat":25.31145,"lon":-104.6558},{"name":"Abasolo","country":"MX","lat":20.44997,"lon":-101.53073},{"name":"Abasolo del Valle","country":"MX","lat":17.78306,"lon":-95.54556},{"name":"Abdenago C. García","country":"MX","lat":29.98937,"lon":-107.5521},{"name":"Abelardo L. Rodríguez","country":"MX","lat":18.72842,"lon":-90.90456},{"name":"Abelardo L. Rodríguez","country":"MX","lat":18.7375,"lon":-98.98528},{"name":"Abrevadero","country":"MX","lat":18.28222,"lon":-95.21444},{"name":"Acachapan y Colmena 3ra. Sección","country":"MX","lat":18.04858,"lon":-92.7775},{"name":"Acachuén","country":"MX","lat":19.84715,"lon":-102.09272},{"name":"Acacoyagua","country":"MX","lat":15.34054,"lon":-92.67519},{"name":"Acahuasco","country":"MX","lat":20.96254,"lon":-98.59656},{"name":"Acahuizotla","country":"MX","lat":17.36054,"lon":-99.46759},{"name":"Acajete","country":"MX","lat":19.58646,"lon":-97.00995},{"name":"Acajete","country":"MX","lat":19.11154,"lon":-97.95231},{"name":"Acala","country":"MX","lat":16.55625,"lon":-92.80449},{"name":"Acalco","country":"MX","lat":17.50575,"lon":-99.1667},{"name":"Acalpican de Morelos","country":"MX","lat":18.01854,"lon":-102.34033},{"name":"Acámbaro","country":"MX","lat":20.03085,"lon":-100.72194},{"name":"Acambay","country":"MX","lat":19.95522,"lon":-99.84428},{"name":"Acamilpa","country":"MX","lat":18.71695,"lon":-99.15724},{"name":"Acamixtla","country":"MX","lat":18.56512,"lon":-99.56599},{"name":"Acanceh","country":"MX","lat":20.81291,"lon":-89.45332},{"name":"Acapetahua","country":"MX","lat":15.28189,"lon":-92.68987},{"name":"Acapetlahuaya","country":"MX","lat":18.41942,"lon":-100.07237},{"name":"Acaponeta","country":"MX","lat":22.49396,"lon":-105.36369},{"name":"Acapulco de Juárez","country":"MX","lat":16.84942,"lon":-99.90891},{"name":"Acatempa","country":"MX","lat":17.64333,"lon":-99.36639},{"name":"Acatempan","country":"MX","lat":18.31809,"lon":-99.88298},{"name":"Acatepec","country":"MX","lat":16.7375,"lon":-98.4275},{"name":"Acatepec","country":"MX","lat":20.95367,"lon":-98.27373},{"name":"Acatepec","country":"MX","lat":18.37236,"lon":-97.03651},{"name":"Acatepec","country":"MX","lat":17.32472,"lon":-98.90944},{"name":"Acatic","country":"MX","lat":20.77995,"lon":-102.91056},{"name":"Acatla","country":"MX","lat":18.74944,"lon":-97.21833},{"name":"Acatlán","country":"MX","lat":20.14562,"lon":-98.43959},{"name":"Acatlán","country":"MX","lat":19.69677,"lon":-96.84216},{"name":"Acatlán","country":"MX","lat":17.65807,"lon":-99.16944},{"name":"Acatlán de Juárez","country":"MX","lat":20.42262,"lon":-103.59051},{"name":"Acatlán de Osorio","country":"MX","lat":18.2025,"lon":-98.04864},{"name":"Acatlán de Pérez Figueroa","country":"MX","lat":18.53973,"lon":-96.60568},{"name":"Acatzingo","country":"MX","lat":18.98196,"lon":-97.78363},{"name":"Acatzingo (Acatzingo de la Piedra)","country":"MX","lat":18.92389,"lon":-99.58861},{"name":"Acaxochitlán","country":"MX","lat":20.15789,"lon":-98.20172},{"name":"Acaxtlahuacán de Albino Zertuche","country":"MX","lat":18.01714,"lon":-98.54018},{"name":"Acayuca","country":"MX","lat":20.02567,"lon":-98.8411},{"name":"Acayucan","country":"MX","lat":17.94979,"lon":-94.91386},{"name":"Acazónica","country":"MX","lat":19.21284,"lon":-96.58978},{"name":"Achichipico","country":"MX","lat":18.94861,"lon":-98.82611},{"name":"Achotal de Moreno","country":"MX","lat":17.73652,"lon":-95.13395},{"name":"Acoapa","country":"MX","lat":21.12116,"lon":-98.48701},{"name":"Acolman de Netzahualcóyotl","country":"MX","lat":19.63976,"lon":-98.90777},{"name":"Aconchi","country":"MX","lat":29.82628,"lon":-110.22492},{"name":"Acontitla","country":"MX","lat":20.68206,"lon":-97.38469},{"name":"Acopinalco del Peñón","country":"MX","lat":19.65929,"lon":-98.16299},{"name":"Acoxcatlán","country":"MX","lat":20.97343,"lon":-98.77793},{"name":"Acoyotla","country":"MX","lat":21.12551,"lon":-98.77729},{"name":"Acteopan","country":"MX","lat":18.76388,"lon":-98.71366},{"name":"Actipan","country":"MX","lat":18.93689,"lon":-97.90252},{"name":"Actipan de Morelos","country":"MX","lat":18.96003,"lon":-97.79904},{"name":"Actopan","country":"MX","lat":20.26961,"lon":-98.94377},{"name":"Actopan","country":"MX","lat":19.50427,"lon":-96.61668},{"name":"Acuaco","country":"MX","lat":19.7625,"lon":-97.56444},{"name":"Acuamanala","country":"MX","lat":19.22361,"lon":-98.20056},{"name":"Acuexcomac","country":"MX","lat":19.03742,"lon":-98.38501},{"name":"Acuitlapan","country":"MX","lat":18.60155,"lon":-99.5426},{"name":"Acuitlapilco","country":"MX","lat":19.27333,"lon":-98.23542},{"name":"Acuitlapilco","country":"MX","lat":18.90873,"lon":-99.78464},{"name":"Acuítzio del Canje","country":"MX","lat":19.49585,"lon":-101.33321},{"name":"Acula","country":"MX","lat":18.50563,"lon":-95.77427},{"name":"Aculco de Espinoza","country":"MX","lat":20.09867,"lon":-99.82757},{"name":"Acultzingo","country":"MX","lat":18.71894,"lon":-97.30367},{"name":"Acxotla del Monte","country":"MX","lat":19.25208,"lon":-98.16777},{"name":"Acxotla del Río","country":"MX","lat":19.32417,"lon":-98.2375},{"name":"Adjuntas del Río","country":"MX","lat":21.11667,"lon":-100.86806},{"name":"Adolfo López Mateos","country":"MX","lat":17.216,"lon":-93.47895},{"name":"Adolfo López Mateos","country":"MX","lat":19.80083,"lon":-100.00055},{"name":"Adolfo López Mateos","country":"MX","lat":28.46667,"lon":-107.3},{"name":"Adolfo López Mateos (El Tamarindo)","country":"MX","lat":24.89639,"lon":-107.63278},{"name":"Adolfo Moreno","country":"MX","lat":19.72472,"lon":-97.23806},{"name":"Adolfo Ruiz Cortines","country":"MX","lat":25.70275,"lon":-108.71975},{"name":"Adolfo Ruíz Cortines","country":"MX","lat":20.59585,"lon":-97.30585},{"name":"Adolfo Ruíz Cortínes","country":"MX","lat":25.75,"lon":-108.75},{"name":"Aduana del Sásabe","country":"MX","lat":31.47076,"lon":-111.54608},{"name":"Agiabampo Uno","country":"MX","lat":26.36686,"lon":-109.14572},{"name":"Agostitlán","country":"MX","lat":19.53818,"lon":-100.61849},{"name":"Agrícola Lázaro Cárdenas","country":"MX","lat":18.81361,"lon":-97.19833},{"name":"Agrónomos Mexicanos","country":"MX","lat":16.35,"lon":-93.53},{"name":"Agua Azul","country":"MX","lat":16.81432,"lon":-91.52391},{"name":"Agua Azul","country":"MX","lat":20.60271,"lon":-100.20472},{"name":"Agua Blanca","country":"MX","lat":19.22056,"lon":-99.47056},{"name":"Agua Blanca Serranía","country":"MX","lat":17.26781,"lon":-91.83564},{"name":"Agua Buena","country":"MX","lat":21.95791,"lon":-99.39416},{"name":"Agua Caliente","country":"MX","lat":20.06519,"lon":-101.73466},{"name":"Agua Caliente","country":"MX","lat":19.90011,"lon":-100.17186},{"name":"Agua Caliente Grande (De Gastélum)","country":"MX","lat":26.53762,"lon":-108.34814},{"name":"Agua del Espino","country":"MX","lat":16.59095,"lon":-96.80204},{"name":"Agua Dulce","country":"MX","lat":20.36337,"lon":-97.29315},{"name":"Agua Dulce","country":"MX","lat":18.13909,"lon":-94.14527},{"name":"Agua Escondida","country":"MX","lat":19.97893,"lon":-99.57829},{"name":"Agua Fría","country":"MX","lat":21.15304,"lon":-99.80638},{"name":"Agua Gorda","country":"MX","lat":22.10669,"lon":-101.92182},{"name":"Agua Nueva","country":"MX","lat":25.18934,"lon":-101.0884},{"name":"Agua Prieta","country":"MX","lat":31.33071,"lon":-109.54876},{"name":"Agua Señora","country":"MX","lat":22.2375,"lon":-101.04222},{"name":"Agua Verde","country":"MX","lat":22.89259,"lon":-105.97355},{"name":"Agua Zarca","country":"MX","lat":21.22003,"lon":-99.09075},{"name":"Agua Zarca","country":"MX","lat":16.62365,"lon":-98.70245},{"name":"Agua Zarca","country":"MX","lat":15.63417,"lon":-92.14472},{"name":"Aguacatenango","country":"MX","lat":16.47388,"lon":-92.40875},{"name":"Agualeguas","country":"MX","lat":26.31362,"lon":-99.53728},{"name":"Aguas Blancas","country":"MX","lat":17.03654,"lon":-100.063},{"name":"Aguas Buenas","country":"MX","lat":20.97028,"lon":-101.3725},{"name":"Aguas Calientes","country":"MX","lat":16.8425,"lon":-99.64056},{"name":"Aguascalientes","country":"MX","lat":21.88234,"lon":-102.28259},{"name":"Aguilera","country":"MX","lat":17.81083,"lon":-95.015},{"name":"Aguililla","country":"MX","lat":18.73742,"lon":-102.78934},{"name":"Agustín de Iturbide","country":"MX","lat":15.07523,"lon":-92.19858},{"name":"Ahome","country":"MX","lat":25.91985,"lon":-109.1732},{"name":"Ahuacachahue (Ndog'yo Itún Tichi)","country":"MX","lat":16.82861,"lon":-98.98556},{"name":"Ahuacatán","country":"MX","lat":19.78351,"lon":-97.2978},{"name":"Ahuacatitlán","country":"MX","lat":18.89414,"lon":-99.70867},{"name":"Ahuacatitlán Cuarto y Quinto Cuartel","country":"MX","lat":19.96222,"lon":-99.98694},{"name":"Ahuacatlán","country":"MX","lat":20.00615,"lon":-97.85916},{"name":"Ahuacatlán","country":"MX","lat":15.0403,"lon":-92.18036},{"name":"Ahuacatlán","country":"MX","lat":19.88275,"lon":-97.54495},{"name":"Ahuacatlán","country":"MX","lat":21.05405,"lon":-104.48398},{"name":"Ahuacatlán","country":"MX","lat":20.13722,"lon":-98.0075},{"name":"Ahuacatlán de Guadalupe","country":"MX","lat":21.21472,"lon":-99.54056},{"name":"Ahuacuotzingo","country":"MX","lat":17.71431,"lon":-98.93492},{"name":"Ahuajutla","country":"MX","lat":17.43043,"lon":-98.29029},{"name":"Ahualulco de Mercado","country":"MX","lat":20.70137,"lon":-103.97461},{"name":"Ahualulco del Sonido Trece","country":"MX","lat":22.40019,"lon":-101.16614},{"name":"Ahuatempan","country":"MX","lat":18.41269,"lon":-98.0185},{"name":"Ahuateno","country":"MX","lat":21.00245,"lon":-98.15055},{"name":"Ahuatepec","country":"MX","lat":18.85831,"lon":-97.91764},{"name":"Ahuatepec de Camino","country":"MX","lat":19.04087,"lon":-97.43457},{"name":"Ahuatepec Pueblo","country":"MX","lat":17.60577,"lon":-98.5897},{"name":"Ahuatitla","country":"MX","lat":21.16495,"lon":-98.66594},{"name":"Ahuatlán","country":"MX","lat":18.57276,"lon":-98.25692},{"name":"Ahuatlán","country":"MX","lat":20.41836,"lon":-102.88759},{"name":"Ahuaxintitla","country":"MX","lat":20.25325,"lon":-97.89561},{"name":"Ahuazotepec","country":"MX","lat":20.04535,"lon":-98.16332},{"name":"Ahuehuepan","country":"MX","lat":18.00625,"lon":-99.49995},{"name":"Ahuehuetitla","country":"MX","lat":18.21272,"lon":-98.21949},{"name":"Ahuehuetitla","country":"MX","lat":20.08444,"lon":-98.41667},{"name":"Ahuehuetitlán","country":"MX","lat":17.6713,"lon":-98.32024},{"name":"Ahuehuetzingo","country":"MX","lat":18.68024,"lon":-99.30834},{"name":"Ahuehueyo Primero Centro","country":"MX","lat":21.345,"lon":-98.83722},{"name":"Ahuexotitlán","country":"MX","lat":17.52849,"lon":-99.24398},{"name":"Ahueyahualco","country":"MX","lat":19.71974,"lon":-97.25984},{"name":"Ahuihuiyuco","country":"MX","lat":17.62958,"lon":-99.22738},{"name":"Ahuirán","country":"MX","lat":19.66574,"lon":-102.07347},{"name":"Ahuisculco","country":"MX","lat":20.56875,"lon":-103.70313},{"name":"Ajacuba","country":"MX","lat":20.0917,"lon":-99.12246},{"name":"Ajalpan","country":"MX","lat":18.37908,"lon":-97.25867},{"name":"Ajijic","country":"MX","lat":20.30325,"lon":-103.25476},{"name":"Ajilhó","country":"MX","lat":16.98376,"lon":-92.93804},{"name":"Ajuchitlán","country":"MX","lat":20.70713,"lon":-100.02008},{"name":"Ajuchitlán del Progreso","country":"MX","lat":18.15189,"lon":-100.48353},{"name":"Ajuchitlancito","country":"MX","lat":20.47601,"lon":-100.21583},{"name":"Ajuno","country":"MX","lat":19.51262,"lon":-101.7228},{"name":"Akil","country":"MX","lat":20.26547,"lon":-89.34787},{"name":"Akumal","country":"MX","lat":20.39693,"lon":-87.31444},{"name":"Álamo","country":"MX","lat":20.91154,"lon":-97.67554},{"name":"Álamos","country":"MX","lat":27.02326,"lon":-108.9344},{"name":"Álamos Tepetitlán","country":"MX","lat":19.19619,"lon":-97.43858},{"name":"Alaquines","country":"MX","lat":22.12973,"lon":-99.60093},{"name":"Albarradas","country":"MX","lat":17.06752,"lon":-96.20012},{"name":"Alberto Carrera Torres","country":"MX","lat":21.7724,"lon":-101.01193},{"name":"Albia","country":"MX","lat":25.66537,"lon":-103.36253},{"name":"Alborada","country":"MX","lat":19.44851,"lon":-96.87109},{"name":"Alborada Jaltenco","country":"MX","lat":19.66194,"lon":-99.06889},{"name":"Alcaraces","country":"MX","lat":19.36433,"lon":-103.57676},{"name":"Alchichica","country":"MX","lat":19.43433,"lon":-97.38992},{"name":"Alcholoa","country":"MX","lat":17.1511,"lon":-100.40837},{"name":"Alcocer","country":"MX","lat":20.86867,"lon":-100.70456},{"name":"Alcozacán","country":"MX","lat":17.50444,"lon":-99.095},{"name":"Alcozauca de Guerrero","country":"MX","lat":17.46481,"lon":-98.38428},{"name":"Aldama","country":"MX","lat":22.92157,"lon":-98.07519},{"name":"Aldama","country":"MX","lat":16.91707,"lon":-92.68839},{"name":"Aldama","country":"MX","lat":28.83826,"lon":-105.91214},{"name":"Aldama","country":"MX","lat":20.81641,"lon":-101.31467},{"name":"Alejo González (Bilbao)","country":"MX","lat":25.82194,"lon":-103.19472},{"name":"Alfajayucan","country":"MX","lat":20.40808,"lon":-99.34895},{"name":"Alfajayucan","country":"MX","lat":20.7537,"lon":-100.21773},{"name":"Alfaro","country":"MX","lat":21.14941,"lon":-101.60611},{"name":"Alfonso G. Calderón (Poblado Siete)","country":"MX","lat":26.06528,"lon":-109.01972},{"name":"Alfonso G. Calderón Velarde","country":"MX","lat":25.78556,"lon":-108.60222},{"name":"Alfonso Garzón [Granjas Familiares]","country":"MX","lat":32.54667,"lon":-116.61722},{"name":"Alfonso Moguel","country":"MX","lat":16.6675,"lon":-93.50639},{"name":"Alfredo V. Bonfil","country":"MX","lat":25.20507,"lon":-97.94507},{"name":"Alfredo V. Bonfil","country":"MX","lat":25.56203,"lon":-98.23952},{"name":"Alfredo V. Bonfil","country":"MX","lat":19.53032,"lon":-90.18214},{"name":"Alfredo V. Bonfil","country":"MX","lat":21.08776,"lon":-86.84706},{"name":"Alfredo V. Bonfil (Chacampalco)","country":"MX","lat":18.65528,"lon":-99.15417},{"name":"Alfredo V. Bonfil (Siete Ejidos)","country":"MX","lat":25.64306,"lon":-108.23333},{"name":"Alhuaca","country":"MX","lat":18.56795,"lon":-97.16594},{"name":"Alhuey","country":"MX","lat":25.37806,"lon":-108.13028},{"name":"Alianza Real","country":"MX","lat":25.85139,"lon":-100.38278},{"name":"Alista","country":"MX","lat":19.63487,"lon":-103.78945},{"name":"Aljojuca","country":"MX","lat":19.09933,"lon":-97.52973},{"name":"Allende","country":"MX","lat":18.15514,"lon":-94.39289},{"name":"Allende","country":"MX","lat":19.53879,"lon":-97.59711},{"name":"Allende","country":"MX","lat":26.92897,"lon":-105.3928},{"name":"Allende","country":"MX","lat":20.72054,"lon":-102.08557},{"name":"Allende","country":"MX","lat":27.19201,"lon":-109.9073},{"name":"Allende","country":"MX","lat":28.34124,"lon":-100.85111},{"name":"Almagres","country":"MX","lat":17.8075,"lon":-94.9175},{"name":"Almecatla","country":"MX","lat":19.14286,"lon":-98.23597},{"name":"Almolonga","country":"MX","lat":18.47627,"lon":-97.96353},{"name":"Almolonga","country":"MX","lat":17.63826,"lon":-99.29502},{"name":"Almolonga","country":"MX","lat":18.60848,"lon":-96.66099},{"name":"Almoloya","country":"MX","lat":19.70435,"lon":-98.40379},{"name":"Almoloya","country":"MX","lat":20.02278,"lon":-98.31667},{"name":"Almoloya","country":"MX","lat":20.15139,"lon":-98.44861},{"name":"Almoloya de Alquisiras","country":"MX","lat":18.86564,"lon":-99.89452},{"name":"Almoloya del Río","country":"MX","lat":19.16046,"lon":-99.4874},{"name":"Alotepec","country":"MX","lat":17.09259,"lon":-95.85423},{"name":"Alpatláhuac","country":"MX","lat":19.12015,"lon":-97.09367},{"name":"Alpoyeca","country":"MX","lat":17.67041,"lon":-98.50974},{"name":"Alpuyeca","country":"MX","lat":18.74006,"lon":-99.25937},{"name":"Alpuyecancingo de las Montañas","country":"MX","lat":17.67083,"lon":-98.85194},{"name":"Altamira","country":"MX","lat":22.39215,"lon":-97.93867},{"name":"Altamira","country":"MX","lat":23.38173,"lon":-102.98674},{"name":"Altamira de Zináparo","country":"MX","lat":18.58208,"lon":-90.2561},{"name":"Altamirano","country":"MX","lat":16.88333,"lon":-92.15},{"name":"Altamirano","country":"MX","lat":16.73457,"lon":-92.03843},{"name":"Altar","country":"MX","lat":30.71538,"lon":-111.83703},{"name":"Altata","country":"MX","lat":24.63403,"lon":-107.93101},{"name":"Altepexi","country":"MX","lat":18.37035,"lon":-97.29966},{"name":"Alto Lucero","country":"MX","lat":19.62442,"lon":-96.73409},{"name":"Alto Lucero","country":"MX","lat":20.95361,"lon":-97.44194},{"name":"Altotonga","country":"MX","lat":19.76613,"lon":-97.24514},{"name":"Altus Bosques","country":"MX","lat":20.56806,"lon":-103.3725},{"name":"Altzayanca","country":"MX","lat":19.43121,"lon":-97.79555},{"name":"Alvarado","country":"MX","lat":18.77143,"lon":-95.76181},{"name":"Álvaro Obregón","country":"MX","lat":19.35867,"lon":-99.20329},{"name":"Álvaro Obregón","country":"MX","lat":14.92231,"lon":-92.37813},{"name":"Álvaro Obregón","country":"MX","lat":16.29811,"lon":-95.08392},{"name":"Álvaro Obregón","country":"MX","lat":20.70662,"lon":-99.37323},{"name":"Álvaro Obregón","country":"MX","lat":16.09486,"lon":-91.84287},{"name":"Álvaro Obregón","country":"MX","lat":19.02781,"lon":-97.90219},{"name":"Álvaro Obregón","country":"MX","lat":18.299,"lon":-88.65145},{"name":"Álvaro Obregón","country":"MX","lat":19.82096,"lon":-101.04008},{"name":"Álvaro Obregón","country":"MX","lat":25.51417,"lon":-103.505},{"name":"Álvaro Obregón","country":"MX","lat":16.84361,"lon":-93.19278},{"name":"Álvaro Obregón (Santa Cruz)","country":"MX","lat":18.39422,"lon":-92.79982},{"name":"Álvaro Obregón 2da. Sección (El Lechugal)","country":"MX","lat":18.39287,"lon":-92.79119},{"name":"Amacueca","country":"MX","lat":20.01071,"lon":-103.59963},{"name":"Amacuitlapilco","country":"MX","lat":18.69611,"lon":-98.81167},{"name":"Amacuzac","country":"MX","lat":18.59861,"lon":-99.36944},{"name":"Amado Gómez","country":"MX","lat":18.14684,"lon":-93.35618},{"name":"Amado Nervo","country":"MX","lat":17.23107,"lon":-92.24581},{"name":"Amanalco de Becerra","country":"MX","lat":19.31667,"lon":-100.01667},{"name":"Amanalco de Becerra","country":"MX","lat":19.25374,"lon":-100.0198},{"name":"Amapa","country":"MX","lat":21.78359,"lon":-105.25482},{"name":"Amatán","country":"MX","lat":17.37429,"lon":-92.81893},{"name":"Amatenango de la Frontera","country":"MX","lat":15.43438,"lon":-92.1157},{"name":"Amatenango del Valle","country":"MX","lat":16.52722,"lon":-92.43472},{"name":"Amatepec","country":"MX","lat":18.68222,"lon":-100.18583},{"name":"Amatillo","country":"MX","lat":16.82028,"lon":-99.66611},{"name":"Amatitán","country":"MX","lat":20.83388,"lon":-103.73076},{"name":"Amatitlán","country":"MX","lat":18.43158,"lon":-95.73319},{"name":"Amatitlán de Azueta","country":"MX","lat":18.17631,"lon":-98.0764},{"name":"Amatlán","country":"MX","lat":21.33519,"lon":-97.75704},{"name":"Amatlán de Cañas","country":"MX","lat":20.80699,"lon":-104.40408},{"name":"Amatlán de los Reyes","country":"MX","lat":18.84658,"lon":-96.91595},{"name":"Amatlán de Quetzalcoatl","country":"MX","lat":18.97537,"lon":-99.03742},{"name":"Amaxac de Guerrero","country":"MX","lat":19.34661,"lon":-98.17057},{"name":"Amayuca","country":"MX","lat":18.72408,"lon":-98.79812},{"name":"Amazcala","country":"MX","lat":20.70339,"lon":-100.26511},{"name":"Amealco","country":"MX","lat":20.18758,"lon":-100.14485},{"name":"Ameca","country":"MX","lat":20.54629,"lon":-104.04508},{"name":"Amecameca","country":"MX","lat":19.12384,"lon":-98.76649},{"name":"Ameche","country":"MX","lat":20.55261,"lon":-100.58367},{"name":"Ameluca","country":"MX","lat":20.56344,"lon":-97.82571},{"name":"América Libre","country":"MX","lat":16.61462,"lon":-92.99185},{"name":"Amilcingo","country":"MX","lat":18.74274,"lon":-98.77089},{"name":"Amixtlán","country":"MX","lat":20.04778,"lon":-97.79918},{"name":"Amozoc de Mota","country":"MX","lat":19.04611,"lon":-98.045},{"name":"Ampliación Colonia Lázaro Cárdenas","country":"MX","lat":28.38333,"lon":-105.61667},{"name":"Ampliación la Hincada","country":"MX","lat":22.21528,"lon":-99.23611},{"name":"Ampliación San Mateo","country":"MX","lat":19.61639,"lon":-99.14722},{"name":"Ampliación Tezoyuca","country":"MX","lat":19.58057,"lon":-98.92053},{"name":"Amuco de la Reforma","country":"MX","lat":18.29361,"lon":-100.63972},{"name":"Anacleto Canabal 2da. Sección","country":"MX","lat":17.97556,"lon":-93.02417},{"name":"Anacleto Canabal 3ra. Sección","country":"MX","lat":18.0183,"lon":-92.98992},{"name":"Anahuac","country":"MX","lat":22.20275,"lon":-97.85506},{"name":"Anáhuac","country":"MX","lat":25.77638,"lon":-97.77413},{"name":"Anáhuac","country":"MX","lat":27.24457,"lon":-100.13229},{"name":"Anáhuac","country":"MX","lat":28.48396,"lon":-106.7472},{"name":"Analco de Ponciano Arriaga (Santa Cruz Analco)","country":"MX","lat":19.26444,"lon":-98.50028},{"name":"Andrés Quintana Roo","country":"MX","lat":17.70771,"lon":-93.01077},{"name":"Anenecuilco","country":"MX","lat":18.77738,"lon":-98.98907},{"name":"Angahuán","country":"MX","lat":19.5479,"lon":-102.22563},{"name":"Angamacutiro de la Unión","country":"MX","lat":20.14998,"lon":-101.71113},{"name":"Ángel Albino Corzo (Guadalupe)","country":"MX","lat":17.12639,"lon":-93.275},{"name":"Ángel R. Cabada","country":"MX","lat":18.59601,"lon":-95.4458},{"name":"Angostura","country":"MX","lat":25.36586,"lon":-108.16107},{"name":"Animas Trujano","country":"MX","lat":16.99086,"lon":-96.71319},{"name":"Ansihuacuaro","country":"MX","lat":20.19984,"lon":-101.8067},{"name":"Antiguo Morelos","country":"MX","lat":22.5495,"lon":-99.08123},{"name":"Antón Lizardo","country":"MX","lat":19.05962,"lon":-95.99272},{"name":"Antonio Amaro","country":"MX","lat":24.27684,"lon":-104.01873},{"name":"Antonio Escobedo","country":"MX","lat":20.8,"lon":-104.01667},{"name":"Antonio J Bermúdez","country":"MX","lat":22.15046,"lon":-98.15873},{"name":"Antonio Rosales","country":"MX","lat":28.07889,"lon":-110.61349},{"name":"Antonio Rosales","country":"MX","lat":27.35111,"lon":-109.85306},{"name":"Antúnez","country":"MX","lat":19.01451,"lon":-102.20432},{"name":"Antúnez (Morelos)","country":"MX","lat":19.01278,"lon":-102.20389},{"name":"Apalani","country":"MX","lat":16.85361,"lon":-99.58944},{"name":"Apan","country":"MX","lat":19.71128,"lon":-98.45086},{"name":"Apango","country":"MX","lat":17.74121,"lon":-99.32909},{"name":"Apango de Zaragoza","country":"MX","lat":19.06833,"lon":-97.94028},{"name":"Apantéopan","country":"MX","lat":19.3582,"lon":-97.19104},{"name":"Apantla","country":"MX","lat":17.03972,"lon":-99.16944},{"name":"Apapantilla","country":"MX","lat":20.40356,"lon":-97.84665},{"name":"Apapátaro","country":"MX","lat":20.46806,"lon":-100.36861},{"name":"Apas","country":"MX","lat":16.71066,"lon":-92.79335},{"name":"Apaseo el Alto","country":"MX","lat":20.45798,"lon":-100.62081},{"name":"Apaseo el Grande","country":"MX","lat":20.54495,"lon":-100.68462},{"name":"Apatauyan","country":"MX","lat":19.79911,"lon":-97.4444},{"name":"Apatzingán","country":"MX","lat":17.60803,"lon":-91.06687},{"name":"Apatzingán","country":"MX","lat":19.08864,"lon":-102.35704},{"name":"Apaxco de Ocampo","country":"MX","lat":19.97512,"lon":-99.17112},{"name":"Apaxtla de Castrejón","country":"MX","lat":18.13127,"lon":-99.93255},{"name":"Apazapan","country":"MX","lat":19.32072,"lon":-96.71874},{"name":"Apeo","country":"MX","lat":19.88722,"lon":-100.34194},{"name":"Apetatitlán Antonio Carbajal","country":"MX","lat":19.33622,"lon":-98.17912},{"name":"Apipilulco","country":"MX","lat":18.19104,"lon":-99.67205},{"name":"Apizaco","country":"MX","lat":19.41333,"lon":-98.14358},{"name":"Apo","country":"MX","lat":19.42722,"lon":-102.41126},{"name":"Apoala","country":"MX","lat":17.64845,"lon":-97.13608},{"name":"Apoderado","country":"MX","lat":22.90867,"lon":-105.92458},{"name":"Aporo","country":"MX","lat":19.67021,"lon":-100.41068},{"name":"Apozol","country":"MX","lat":21.46952,"lon":-103.09076},{"name":"Apulco","country":"MX","lat":21.38824,"lon":-102.68219},{"name":"Aputzio de Juárez","country":"MX","lat":19.34183,"lon":-100.34689},{"name":"Aquila","country":"MX","lat":18.79565,"lon":-97.30845},{"name":"Aquila","country":"MX","lat":18.5997,"lon":-103.50454},{"name":"Aquiles Córdova Morán","country":"MX","lat":19.70685,"lon":-100.53615},{"name":"Aquiles Serdán","country":"MX","lat":17.78333,"lon":-92.28333},{"name":"Aquiles Serdán","country":"MX","lat":18.4135,"lon":-93.0134},{"name":"Aquiles Serdán","country":"MX","lat":14.9398,"lon":-92.51444},{"name":"Aquiles Serdán","country":"MX","lat":21.87206,"lon":-98.14794},{"name":"Aquiles Serdán","country":"MX","lat":28.59454,"lon":-105.88761},{"name":"Aquiles Serdán","country":"MX","lat":21.38198,"lon":-104.88891},{"name":"Aquiles Serdán","country":"MX","lat":20.00357,"lon":-102.21609},{"name":"Aquiles Serdán (San Fernando)","country":"MX","lat":17.80556,"lon":-92.48972},{"name":"Aquiles Serdán 1ra. Sección","country":"MX","lat":17.82474,"lon":-92.73977},{"name":"Aquismón","country":"MX","lat":21.62159,"lon":-99.01984},{"name":"Aquixtla","country":"MX","lat":19.79582,"lon":-97.93553},{"name":"Aramberri","country":"MX","lat":24.09984,"lon":-99.81729},{"name":"Arandas","country":"MX","lat":20.72468,"lon":-101.37296},{"name":"Arandas","country":"MX","lat":20.70519,"lon":-102.34635},{"name":"Arantepacua","country":"MX","lat":19.5958,"lon":-101.9686},{"name":"Aranza","country":"MX","lat":19.66418,"lon":-102.02365},{"name":"Araró","country":"MX","lat":19.91136,"lon":-100.8246},{"name":"Aratichanguío","country":"MX","lat":18.47877,"lon":-101.36211},{"name":"Arbolada los Sauces","country":"MX","lat":19.81583,"lon":-99.04417},{"name":"Arboledas","country":"MX","lat":19.20722,"lon":-96.21444},{"name":"Arboledas Paso Blanco [Fraccionamiento]","country":"MX","lat":21.96361,"lon":-102.30194},{"name":"Arbolillo","country":"MX","lat":18.81631,"lon":-95.83601},{"name":"Arcelia","country":"MX","lat":18.31847,"lon":-100.28148},{"name":"Arcelia de Rodríguez","country":"MX","lat":16.73668,"lon":-98.64486},{"name":"Arcila","country":"MX","lat":20.41037,"lon":-100.10993},{"name":"Arcinas","country":"MX","lat":25.77556,"lon":-103.40913},{"name":"Arellano","country":"MX","lat":21.80106,"lon":-102.27384},{"name":"Arena 1ra. Sección","country":"MX","lat":18.20139,"lon":-93.36694},{"name":"Arena 6ta. Sección (La Bolsa)","country":"MX","lat":18.16218,"lon":-93.39539},{"name":"Arena de Hidalgo","country":"MX","lat":17.45827,"lon":-91.58847},{"name":"Arenal","country":"MX","lat":19.38111,"lon":-98.94278},{"name":"Arenal de Álvarez (Arenal de Paco)","country":"MX","lat":17.12611,"lon":-100.455},{"name":"Arenal Santa Ana","country":"MX","lat":17.78951,"lon":-95.7697},{"name":"Arimatea","country":"MX","lat":17.34139,"lon":-91.87639},{"name":"Ario de Rayón","country":"MX","lat":20.02651,"lon":-102.34814},{"name":"Ario de Rosales","country":"MX","lat":19.209,"lon":-101.70743},{"name":"Arivechi","country":"MX","lat":28.92765,"lon":-109.18681},{"name":"Arizpe","country":"MX","lat":30.3369,"lon":-110.16649},{"name":"Armadillo de los Infante","country":"MX","lat":22.2449,"lon":-100.6558},{"name":"Arriaga","country":"MX","lat":16.23589,"lon":-93.89995},{"name":"Arroyo Chical (Nuevo Arroyo Chicali)","country":"MX","lat":18.21611,"lon":-96.33667},{"name":"Arroyo Choápam","country":"MX","lat":17.97028,"lon":-96.15722},{"name":"Arroyo de Banco","country":"MX","lat":17.80312,"lon":-96.34794},{"name":"Arroyo de Enmedio","country":"MX","lat":18.4975,"lon":-96.54722},{"name":"Arroyo del Maíz Uno","country":"MX","lat":20.53667,"lon":-97.41528},{"name":"Arroyo del Potrero","country":"MX","lat":20.14554,"lon":-97.0652},{"name":"Arroyo Grande","country":"MX","lat":17.19122,"lon":-92.87207},{"name":"Arroyo Granizo","country":"MX","lat":17.03716,"lon":-91.42563},{"name":"Arroyo Hondo","country":"MX","lat":20.02317,"lon":-96.87372},{"name":"Arroyo Hondo Abejonal","country":"MX","lat":17.97739,"lon":-93.41039},{"name":"Arroyo Limón","country":"MX","lat":17.90008,"lon":-95.96175},{"name":"Arroyo Palenque","country":"MX","lat":17.39167,"lon":-92.10444},{"name":"Arroyo San Isidro","country":"MX","lat":18.48667,"lon":-95.41333},{"name":"Arroyo Seco","country":"MX","lat":21.54777,"lon":-99.68832},{"name":"Arroyo Vista Hermosa","country":"MX","lat":19.33082,"lon":-99.53694},{"name":"Arroyo Zapotillo","country":"MX","lat":18.07639,"lon":-96.54417},{"name":"Arroyos","country":"MX","lat":22.05455,"lon":-100.9052},{"name":"Arteaga","country":"MX","lat":25.44528,"lon":-100.84667},{"name":"Arteaga","country":"MX","lat":18.35779,"lon":-102.29122},{"name":"Artemio Treviño","country":"MX","lat":25.83528,"lon":-100.14278},{"name":"Artículo Primero Constitucional","country":"MX","lat":18.97412,"lon":-98.15848},{"name":"Arturo Martínez Adame","country":"MX","lat":25.83157,"lon":-103.38291},{"name":"Arvenza Uno","country":"MX","lat":16.77972,"lon":-92.72028},{"name":"Ascención","country":"MX","lat":31.1,"lon":-107.98333},{"name":"Ascensión","country":"MX","lat":31.0926,"lon":-107.99687},{"name":"Asientos","country":"MX","lat":22.23836,"lon":-102.0894},{"name":"Astacinga","country":"MX","lat":18.569,"lon":-97.10376},{"name":"Astapa","country":"MX","lat":17.78165,"lon":-92.84938},{"name":"Asunción Ixtaltepec","country":"MX","lat":16.50315,"lon":-95.06121},{"name":"Asunción Nochixtlán","country":"MX","lat":17.45916,"lon":-97.22605},{"name":"Asunción Ocotlán","country":"MX","lat":16.76195,"lon":-96.72137},{"name":"Asunción Tlacolulita","country":"MX","lat":16.29942,"lon":-95.72668},{"name":"Atacco","country":"MX","lat":19.92662,"lon":-103.74249},{"name":"Atacheo de Regalado","country":"MX","lat":20.05874,"lon":-102.18703},{"name":"Atalpan","country":"MX","lat":19.84374,"lon":-97.56008},{"name":"Atapán","country":"MX","lat":19.65057,"lon":-102.42463},{"name":"Atapaneo","country":"MX","lat":19.73892,"lon":-101.11576},{"name":"Atarasquillo","country":"MX","lat":19.32831,"lon":-99.46899},{"name":"Atarjea","country":"MX","lat":21.26777,"lon":-99.71914},{"name":"Atasta","country":"MX","lat":18.61954,"lon":-92.10326},{"name":"Atecax","country":"MX","lat":19.6987,"lon":-97.36698},{"name":"Atecucario de la Constitución (Atecuario)","country":"MX","lat":20.06444,"lon":-102.23861},{"name":"Atemajac de Brizuela","country":"MX","lat":20.13735,"lon":-103.72588},{"name":"Atempan","country":"MX","lat":19.83945,"lon":-97.45855},{"name":"Atenango del Río","country":"MX","lat":18.10526,"lon":-99.10777},{"name":"Atencingo","country":"MX","lat":18.51347,"lon":-98.60542},{"name":"Atengo","country":"MX","lat":20.17526,"lon":-99.32714},{"name":"Atengo","country":"MX","lat":20.27412,"lon":-104.23715},{"name":"Atenguillo","country":"MX","lat":20.41553,"lon":-104.49387},{"name":"Atenguillo","country":"MX","lat":19.56361,"lon":-98.87639},{"name":"Atenxoxola","country":"MX","lat":17.48819,"lon":-99.14285},{"name":"Atequiza","country":"MX","lat":20.39006,"lon":-103.14065},{"name":"Atexcatzingo","country":"MX","lat":19.46882,"lon":-98.14716},{"name":"Aticama","country":"MX","lat":21.48387,"lon":-105.19787},{"name":"Atil","country":"MX","lat":30.84361,"lon":-111.58361},{"name":"Atitalaquia","country":"MX","lat":20.05964,"lon":-99.22163},{"name":"Atizapán","country":"MX","lat":19.25,"lon":-99.55},{"name":"Atla","country":"MX","lat":20.27527,"lon":-98.12469},{"name":"Atlacahualoya","country":"MX","lat":18.54057,"lon":-98.72982},{"name":"Atlacholoaya","country":"MX","lat":18.74238,"lon":-99.22656},{"name":"Atlacomulco de Fabela","country":"MX","lat":19.79919,"lon":-99.875},{"name":"Atlahuilco","country":"MX","lat":18.69717,"lon":-97.0916},{"name":"Atlamajac","country":"MX","lat":17.55528,"lon":-98.54722},{"name":"Atlamajalcingo del Río","country":"MX","lat":17.52667,"lon":-98.65556},{"name":"Atlangatepec","country":"MX","lat":19.5322,"lon":-98.20888},{"name":"Atlapexco","country":"MX","lat":21.0198,"lon":-98.34742},{"name":"Atlatlahucan","country":"MX","lat":18.93413,"lon":-98.8982},{"name":"Atlatongo","country":"MX","lat":19.66776,"lon":-98.90402},{"name":"Atlautla","country":"MX","lat":19.02188,"lon":-98.77859},{"name":"Atlequizayan","country":"MX","lat":20.01214,"lon":-97.62423},{"name":"Atliaca","country":"MX","lat":17.65168,"lon":-99.37471},{"name":"Atlixco","country":"MX","lat":18.90815,"lon":-98.43613},{"name":"Atlixtac","country":"MX","lat":17.56312,"lon":-98.93415},{"name":"Atlzayanca","country":"MX","lat":19.43111,"lon":-97.79556},{"name":"Atolinga","country":"MX","lat":21.80659,"lon":-103.46496},{"name":"Atoluca","country":"MX","lat":19.855,"lon":-97.35361},{"name":"Atonalisco","country":"MX","lat":21.66551,"lon":-104.83949},{"name":"Atongo","country":"MX","lat":20.77288,"lon":-100.23953},{"name":"Atotonilco","country":"MX","lat":18.64947,"lon":-98.83117},{"name":"Atotonilco","country":"MX","lat":19.94111,"lon":-100.22306},{"name":"Atotonilco de Tula","country":"MX","lat":20.0077,"lon":-99.21804},{"name":"Atotonilco el Alto","country":"MX","lat":20.55079,"lon":-102.50942},{"name":"Atotonilco el Bajo","country":"MX","lat":20.35151,"lon":-103.67455},{"name":"Atotonilco el Grande","country":"MX","lat":20.28632,"lon":-98.6685},{"name":"Atotonilquillo","country":"MX","lat":20.39287,"lon":-103.12356},{"name":"Atoyac","country":"MX","lat":18.91205,"lon":-96.77865},{"name":"Atoyac","country":"MX","lat":20.00968,"lon":-103.51666},{"name":"Atoyac de Álvarez","country":"MX","lat":17.20667,"lon":-100.43306},{"name":"Atoyatempan","country":"MX","lat":18.81925,"lon":-97.9139},{"name":"Atzacan","country":"MX","lat":18.90724,"lon":-97.08307},{"name":"Atzacoaloya","country":"MX","lat":17.54659,"lon":-99.13757},{"name":"Atzala","country":"MX","lat":18.54639,"lon":-98.55306},{"name":"Atzalan","country":"MX","lat":19.78864,"lon":-97.24195},{"name":"Atzalán","country":"MX","lat":19.82472,"lon":-97.44417},{"name":"Atzingo","country":"MX","lat":19.1727,"lon":-98.77873},{"name":"Atzingo (La Cumbre)","country":"MX","lat":19.97972,"lon":-97.96861},{"name":"Atzitzintla","country":"MX","lat":18.89915,"lon":-97.3244},{"name":"Augusto Gómez Villanueva","country":"MX","lat":19.02154,"lon":-104.00156},{"name":"Aurelio Manrique","country":"MX","lat":22.2875,"lon":-98.65083},{"name":"Aurora Ermita","country":"MX","lat":17.23583,"lon":-92.87389},{"name":"Aurora Esquipulas","country":"MX","lat":17.11704,"lon":-92.47626},{"name":"Aután","country":"MX","lat":21.68973,"lon":-105.3075},{"name":"Autlán de Navarro","country":"MX","lat":19.76822,"lon":-104.36664},{"name":"Axapusco","country":"MX","lat":19.72456,"lon":-98.75863},{"name":"Axaxacualco","country":"MX","lat":17.80387,"lon":-99.46175},{"name":"Axixintla","country":"MX","lat":18.60222,"lon":-99.51806},{"name":"Axochiapan","country":"MX","lat":18.50246,"lon":-98.75358},{"name":"Axochío","country":"MX","lat":18.37175,"lon":-95.29985},{"name":"Axotlán","country":"MX","lat":19.69417,"lon":-99.23944},{"name":"Axtla de Terrazas","country":"MX","lat":21.43923,"lon":-98.87508},{"name":"Axutla","country":"MX","lat":18.18938,"lon":-98.38935},{"name":"Axuxco","country":"MX","lat":18.23045,"lon":-97.20739},{"name":"Ayahualulco","country":"MX","lat":19.10416,"lon":-97.13563},{"name":"Ayahualulco","country":"MX","lat":19.35113,"lon":-97.14874},{"name":"Ayahualulco","country":"MX","lat":17.50066,"lon":-99.18264},{"name":"Ayapa","country":"MX","lat":18.2241,"lon":-93.11158},{"name":"Ayapango","country":"MX","lat":19.12692,"lon":-98.79988},{"name":"Ayometitla","country":"MX","lat":19.20722,"lon":-98.19306},{"name":"Ayoquezco de Aldama","country":"MX","lat":16.6837,"lon":-96.84287},{"name":"Ayotitlán","country":"MX","lat":20.22048,"lon":-103.94397},{"name":"Ayotla","country":"MX","lat":18.67004,"lon":-98.37266},{"name":"Ayotlán","country":"MX","lat":20.52907,"lon":-102.3262},{"name":"Ayotoxco de Guerrero","country":"MX","lat":20.09589,"lon":-97.40961},{"name":"Ayotuxtla","country":"MX","lat":20.64885,"lon":-98.30264},{"name":"Ayotzinapa","country":"MX","lat":17.55628,"lon":-98.76346},{"name":"Ayotzintepec","country":"MX","lat":17.67261,"lon":-96.12855},{"name":"Ayutla","country":"MX","lat":17.02756,"lon":-96.07632},{"name":"Ayutla","country":"MX","lat":18.54503,"lon":-98.50537},{"name":"Ayutla","country":"MX","lat":20.12907,"lon":-104.34355},{"name":"Ayutla de los Libres","country":"MX","lat":16.96376,"lon":-99.09616},{"name":"Azcapotzalco","country":"MX","lat":19.48698,"lon":-99.18594},{"name":"Azoyú","country":"MX","lat":16.73314,"lon":-98.60166},{"name":"Azteca","country":"MX","lat":16.21775,"lon":-93.94557},{"name":"Aztlán","country":"MX","lat":16.76919,"lon":-92.92316},{"name":"Azumbilla","country":"MX","lat":18.64552,"lon":-97.39815},{"name":"Baborigame","country":"MX","lat":26.42962,"lon":-107.26857},{"name":"Baburia","country":"MX","lat":25.84289,"lon":-108.20276},{"name":"Baca","country":"MX","lat":21.10874,"lon":-89.39866},{"name":"Bacabachi","country":"MX","lat":26.89471,"lon":-109.3932},{"name":"Bacabchén","country":"MX","lat":20.28903,"lon":-90.05602},{"name":"Bacadéhuachi","country":"MX","lat":29.80872,"lon":-109.14054},{"name":"Bacalar","country":"MX","lat":18.68109,"lon":-88.39333},{"name":"Bacame Nuevo","country":"MX","lat":27.15899,"lon":-109.59286},{"name":"Bacanora","country":"MX","lat":28.98152,"lon":-109.40012},{"name":"Bacerac","country":"MX","lat":30.35565,"lon":-108.93147},{"name":"Bachajón","country":"MX","lat":17.03963,"lon":-92.18986},{"name":"Bachigualatito","country":"MX","lat":24.71344,"lon":-107.46938},{"name":"Bachíniva","country":"MX","lat":28.76469,"lon":-107.25395},{"name":"Bachoco","country":"MX","lat":25.69687,"lon":-108.81437},{"name":"Bachomobampo Número Dos","country":"MX","lat":25.73888,"lon":-109.14776},{"name":"Bacoachi","country":"MX","lat":30.63168,"lon":-109.96867},{"name":"Bacobampo","country":"MX","lat":26.98239,"lon":-109.6535},{"name":"Bacorehuis","country":"MX","lat":26.31749,"lon":-109.0851},{"name":"Bacubirito","country":"MX","lat":25.80944,"lon":-107.915},{"name":"Bácum","country":"MX","lat":27.55142,"lon":-110.0833},{"name":"Badiraguato","country":"MX","lat":25.36525,"lon":-107.55083},{"name":"Bagojo Colectivo","country":"MX","lat":25.87417,"lon":-109.11778},{"name":"Bahía Asunción","country":"MX","lat":27.14231,"lon":-114.29582},{"name":"Bahía de Kino","country":"MX","lat":28.82278,"lon":-111.94083},{"name":"Bahía de Lobos","country":"MX","lat":27.35167,"lon":-110.45472},{"name":"Bahía Tortugas","country":"MX","lat":27.69132,"lon":-114.8948},{"name":"Bahuichivo","country":"MX","lat":27.4095,"lon":-108.0674},{"name":"Bajío de Bonillas","country":"MX","lat":20.94944,"lon":-101.49528},{"name":"Bajío de San José","country":"MX","lat":21.67525,"lon":-102.11606},{"name":"Bajío de San Nicolás","country":"MX","lat":22.56499,"lon":-102.00784},{"name":"Bajos de Chila","country":"MX","lat":15.92343,"lon":-97.12113},{"name":"Bajos del Ejido","country":"MX","lat":16.96086,"lon":-99.97169},{"name":"Bajucu","country":"MX","lat":16.4752,"lon":-92.06471},{"name":"Balancán","country":"MX","lat":17.80903,"lon":-91.53682},{"name":"Balleza","country":"MX","lat":26.95349,"lon":-106.34633},{"name":"Bamoa","country":"MX","lat":25.70523,"lon":-108.34614},{"name":"Banámichi","country":"MX","lat":30.0074,"lon":-110.21585},{"name":"Banco Nacional","country":"MX","lat":25.87139,"lon":-103.35667},{"name":"Banderas","country":"MX","lat":20.99083,"lon":-97.39361},{"name":"Banderas (Guatacalca 2da. Sección)","country":"MX","lat":18.15167,"lon":-92.89881},{"name":"Banderas del Águila","country":"MX","lat":23.92596,"lon":-105.3395},{"name":"Banderilla","country":"MX","lat":19.58893,"lon":-96.93727},{"name":"Bangandhó","country":"MX","lat":20.48277,"lon":-99.14901},{"name":"Banus Vallarta (Verde Vallarta)","country":"MX","lat":20.71611,"lon":-105.22306},{"name":"Bara de Chachalacas","country":"MX","lat":19.40643,"lon":-96.34159},{"name":"Bariometo","country":"MX","lat":24.76695,"lon":-107.66254},{"name":"Barra de Cazones","country":"MX","lat":20.72307,"lon":-97.2032},{"name":"Barra de Navidad","country":"MX","lat":19.20715,"lon":-104.68228},{"name":"Barra de Tecoanapa","country":"MX","lat":16.50864,"lon":-98.73216},{"name":"Barranca de Otates (Barranca de Otatán)","country":"MX","lat":20.26806,"lon":-103.66472},{"name":"Barrancas","country":"MX","lat":18.06918,"lon":-94.58691},{"name":"Barrancas y Amate 3ra. Sección","country":"MX","lat":17.971,"lon":-92.76173},{"name":"Barretal","country":"MX","lat":24.08337,"lon":-99.12526},{"name":"Barretos","country":"MX","lat":20.93933,"lon":-101.64282},{"name":"Barrio Aztlán","country":"MX","lat":20.46562,"lon":-98.08553},{"name":"Barrio Bordo Nuevo","country":"MX","lat":19.37917,"lon":-99.67333},{"name":"Barrio Chiquichuca","country":"MX","lat":19.32139,"lon":-100.21278},{"name":"Barrio Cuarto (La Loma)","country":"MX","lat":19.76861,"lon":-99.67694},{"name":"Barrio de Arriba de San Juan Xoconusco","country":"MX","lat":19.3204,"lon":-100.2702},{"name":"Barrio de Boyecha","country":"MX","lat":19.70778,"lon":-99.68444},{"name":"Barrio de Canales","country":"MX","lat":19.37333,"lon":-99.37556},{"name":"Barrio de Centro del Cerrillo","country":"MX","lat":19.53694,"lon":-99.95417},{"name":"Barrio de Ensido","country":"MX","lat":19.49389,"lon":-99.37444},{"name":"Barrio de España","country":"MX","lat":19.86139,"lon":-99.08167},{"name":"Barrio de Guadalupe","country":"MX","lat":19.23054,"lon":-98.9309},{"name":"Barrio de Guadalupe del Mezquitillo","country":"MX","lat":20.94417,"lon":-101.80083},{"name":"Barrio de Jesús Fracción Primera","country":"MX","lat":19.36778,"lon":-99.68694},{"name":"Barrio de la Barranca","country":"MX","lat":19.43583,"lon":-99.55833},{"name":"Barrio de México","country":"MX","lat":19.2825,"lon":-99.82833},{"name":"Barrio de Nuevo León","country":"MX","lat":19.08861,"lon":-98.29},{"name":"Barrio de Puentecillas","country":"MX","lat":19.53558,"lon":-99.98463},{"name":"Barrio de San Isidro","country":"MX","lat":19.52139,"lon":-99.95861},{"name":"Barrio de San Juan","country":"MX","lat":19.4142,"lon":-99.53717},{"name":"Barrio de San Miguel","country":"MX","lat":19.64333,"lon":-97.12389},{"name":"Barrio de San Miguel","country":"MX","lat":18.93139,"lon":-97.125},{"name":"Barrio de San Miguel","country":"MX","lat":19.51232,"lon":-99.95467},{"name":"Barrio de San Pedro la Cabecera","country":"MX","lat":19.56528,"lon":-99.75},{"name":"Barrio de San Ramón","country":"MX","lat":19.37361,"lon":-99.33111},{"name":"Barrio del Cajón","country":"MX","lat":19.39139,"lon":-99.65806},{"name":"Barrio el Boncho","country":"MX","lat":19.42611,"lon":-100.10639},{"name":"Barrio el Vivero","country":"MX","lat":19.45306,"lon":-100.03528},{"name":"Barrio la Joya","country":"MX","lat":19.42,"lon":-100.09972},{"name":"Barrio la Tenería","country":"MX","lat":19.69361,"lon":-99.79194},{"name":"Barrio los Tules","country":"MX","lat":19.42917,"lon":-100.07472},{"name":"Barrio Nuevo","country":"MX","lat":17.72075,"lon":-101.63657},{"name":"Barrio Nuevo de los Muertos","country":"MX","lat":16.89278,"lon":-99.54389},{"name":"Barrio San Diego","country":"MX","lat":17.27917,"lon":-97.67417},{"name":"Barrio San Joaquín el Junco","country":"MX","lat":19.56417,"lon":-99.77333},{"name":"Barrio San Miguel Dorami","country":"MX","lat":19.44622,"lon":-99.34296},{"name":"Barrio Santa Cruz","country":"MX","lat":19.35139,"lon":-99.66278},{"name":"Barrio Tepetitlán Emilio Portes Gil","country":"MX","lat":19.65306,"lon":-99.88667},{"name":"Barrio Tlatenco","country":"MX","lat":19.73917,"lon":-99.19167},{"name":"Barrón","country":"MX","lat":23.12322,"lon":-106.2765},{"name":"Barrón","country":"MX","lat":20.67667,"lon":-101.08423},{"name":"Basaseachic","country":"MX","lat":28.20626,"lon":-108.2127},{"name":"Basconcobe","country":"MX","lat":26.95491,"lon":-109.6686},{"name":"Basúchil","country":"MX","lat":28.52479,"lon":-107.40172},{"name":"Batopilas de Manuel Gómez Morín","country":"MX","lat":27.02721,"lon":-107.73934},{"name":"Bautista Chico","country":"MX","lat":16.79972,"lon":-92.71194},{"name":"Baviácora","country":"MX","lat":29.71349,"lon":-110.16307},{"name":"Bavispe","country":"MX","lat":30.47931,"lon":-108.93982},{"name":"Bécal","country":"MX","lat":20.44172,"lon":-90.02738},{"name":"Becanchén","country":"MX","lat":19.87467,"lon":-89.21732},{"name":"Bejucal de Ocampo","country":"MX","lat":15.45535,"lon":-92.15835},{"name":"Bejucos","country":"MX","lat":18.77802,"lon":-100.42778},{"name":"Belem","country":"MX","lat":19.63334,"lon":-98.79664},{"name":"Belén","country":"MX","lat":17.78907,"lon":-92.61137},{"name":"Belén Atzitzimititlán","country":"MX","lat":19.34694,"lon":-98.19},{"name":"Belén del Refugio","country":"MX","lat":21.53023,"lon":-102.43515},{"name":"Belisario Domínguez","country":"MX","lat":16.89186,"lon":-92.66053},{"name":"Belisario Domínguez","country":"MX","lat":19.8714,"lon":-100.97184},{"name":"Belisario Domínguez","country":"MX","lat":15.29944,"lon":-92.38056},{"name":"Belisario Domínguez","country":"MX","lat":17.40611,"lon":-91.98361},{"name":"Bella Esperanza","country":"MX","lat":19.43329,"lon":-96.86648},{"name":"Bella Vista","country":"MX","lat":15.58359,"lon":-92.24683},{"name":"Bella Vista del Río","country":"MX","lat":20.69,"lon":-99.57139},{"name":"Bellas Fuentes","country":"MX","lat":19.82132,"lon":-101.6795},{"name":"Bellavista","country":"MX","lat":24.81373,"lon":-107.46188},{"name":"Bellavista","country":"MX","lat":21.56236,"lon":-104.88267},{"name":"Bellavista","country":"MX","lat":20.43408,"lon":-103.63742},{"name":"Bellavista de Victoria (San José Bellavista)","country":"MX","lat":18.87639,"lon":-97.54389},{"name":"Benemérito de las Américas","country":"MX","lat":16.51599,"lon":-90.65371},{"name":"Benemérito Juárez","country":"MX","lat":18.11944,"lon":-96.00194},{"name":"Benito García (El Zorrillo)","country":"MX","lat":31.67111,"lon":-116.51139},{"name":"Benito González","country":"MX","lat":17.86993,"lon":-92.70834},{"name":"Benito Juarez","country":"MX","lat":19.3984,"lon":-99.15766},{"name":"Benito Juárez","country":"MX","lat":20.88635,"lon":-98.20594},{"name":"Benito Juárez","country":"MX","lat":19.81654,"lon":-97.79108},{"name":"Benito Juárez","country":"MX","lat":19.37391,"lon":-97.909},{"name":"Benito Juárez","country":"MX","lat":16.42751,"lon":-93.32188},{"name":"Benito Juárez","country":"MX","lat":15.88178,"lon":-96.32405},{"name":"Benito Juárez","country":"MX","lat":18.42573,"lon":-92.80285},{"name":"Benito Juárez","country":"MX","lat":20.16047,"lon":-98.82606},{"name":"Benito Juárez","country":"MX","lat":19.5859,"lon":-98.42827},{"name":"Benito Juárez","country":"MX","lat":17.14081,"lon":-93.24979},{"name":"Benito Juárez","country":"MX","lat":16.88349,"lon":-93.18912},{"name":"Benito Juárez","country":"MX","lat":16.0429,"lon":-92.81865},{"name":"Benito Juárez","country":"MX","lat":22.20067,"lon":-97.84085},{"name":"Benito Juárez","country":"MX","lat":19.43765,"lon":-99.85384},{"name":"Benito Juárez","country":"MX","lat":29.16642,"lon":-106.95772},{"name":"Benito Juárez","country":"MX","lat":32.56852,"lon":-114.99422},{"name":"Benito Juárez","country":"MX","lat":25.77373,"lon":-109.03311},{"name":"Benito Juárez","country":"MX","lat":29.74624,"lon":-107.93966},{"name":"Benito Juárez","country":"MX","lat":19.23333,"lon":-100.46667},{"name":"Benito Juárez","country":"MX","lat":19.3727,"lon":-99.1564},{"name":"Benito Juárez","country":"MX","lat":15.055,"lon":-92.19111},{"name":"Benito Juárez","country":"MX","lat":19.31351,"lon":-100.43358},{"name":"Benito Juárez","country":"MX","lat":19.0091,"lon":-97.85718},{"name":"Benito Juárez (La Playita)","country":"MX","lat":17.93231,"lon":-93.36472},{"name":"Benito Juárez (Vinatería)","country":"MX","lat":25.97376,"lon":-108.87315},{"name":"Benito Juárez II (San Martín)","country":"MX","lat":18.14056,"lon":-96.46139},{"name":"Benito Juárez Uno","country":"MX","lat":18.27695,"lon":-91.09914},{"name":"Benjamín Hill","country":"MX","lat":30.16904,"lon":-111.11403},{"name":"Beristain","country":"MX","lat":20.09426,"lon":-98.1329},{"name":"Bermejillo","country":"MX","lat":25.88682,"lon":-103.62069},{"name":"Bernal","country":"MX","lat":20.7403,"lon":-99.94125},{"name":"Berriozábal","country":"MX","lat":16.79853,"lon":-93.27163},{"name":"Betania","country":"MX","lat":20.58199,"lon":-102.37914},{"name":"Betania","country":"MX","lat":16.60639,"lon":-92.52194},{"name":"Betania","country":"MX","lat":18.28003,"lon":-93.32081},{"name":"Bethania","country":"MX","lat":17.91939,"lon":-96.00459},{"name":"Betulia","country":"MX","lat":21.75935,"lon":-102.0194},{"name":"Bienvenido","country":"MX","lat":20.12235,"lon":-97.74434},{"name":"Bimbaletes Aguascalientes (El Álamo)","country":"MX","lat":22.23444,"lon":-102.01917},{"name":"Blanca Espuma","country":"MX","lat":19.58117,"lon":-96.68819},{"name":"Blasillo 1ra. Sección (Nicolás Bravo)","country":"MX","lat":18.07861,"lon":-93.91833},{"name":"Bledos","country":"MX","lat":21.84148,"lon":-101.11651},{"name":"Bobashi de Guadalupe","country":"MX","lat":19.87583,"lon":-99.91167},{"name":"Boca del Monte","country":"MX","lat":19.15451,"lon":-96.8327},{"name":"Boca del Monte","country":"MX","lat":17.61462,"lon":-95.7312},{"name":"Boca del Rio","country":"MX","lat":19.10464,"lon":-96.10405},{"name":"Bocaneo (San Pedro)","country":"MX","lat":19.83861,"lon":-100.81722},{"name":"Bocas","country":"MX","lat":22.51817,"lon":-101.02186},{"name":"Bochil","country":"MX","lat":16.99625,"lon":-92.89218},{"name":"Bochojbo Alto","country":"MX","lat":16.73583,"lon":-92.71694},{"name":"Bocoyna","country":"MX","lat":27.84066,"lon":-107.58859},{"name":"Bokoba","country":"MX","lat":21.00755,"lon":-89.17913},{"name":"Bolón","country":"MX","lat":20.8501,"lon":-89.83193},{"name":"Bolonchén de Rejón","country":"MX","lat":20.00386,"lon":-89.74663},{"name":"Bomanxotha","country":"MX","lat":20.51542,"lon":-99.66679},{"name":"Bomintzha","country":"MX","lat":20.014,"lon":-99.27277},{"name":"Bondojito","country":"MX","lat":20.44395,"lon":-99.70022},{"name":"Bonifacio García","country":"MX","lat":18.71786,"lon":-99.12011},{"name":"Bonifacio Moreno (El Aguaje)","country":"MX","lat":18.99167,"lon":-102.71083},{"name":"Boquiapa","country":"MX","lat":18.16111,"lon":-93.1375},{"name":"Boquilla de Babisas (La Boquilla de Conchos)","country":"MX","lat":27.54861,"lon":-105.40361},{"name":"Boquilla de las Perlas","country":"MX","lat":25.32803,"lon":-103.2887},{"name":"Boquillas","country":"MX","lat":20.41642,"lon":-101.43333},{"name":"Bordo Blanco","country":"MX","lat":20.49631,"lon":-99.92855},{"name":"Boshindó","country":"MX","lat":19.91922,"lon":-99.84075},{"name":"Bosque de Saloya","country":"MX","lat":18.01611,"lon":-92.95806},{"name":"Bosques de la Magdalena","country":"MX","lat":19.35778,"lon":-98.9475},{"name":"Bosques de San Pedro","country":"MX","lat":25.60139,"lon":-100.17972},{"name":"Boxasní","country":"MX","lat":20.67083,"lon":-99.84861},{"name":"Boyé","country":"MX","lat":20.68091,"lon":-99.73933},{"name":"Bravo","country":"MX","lat":20.39977,"lon":-100.42423},{"name":"Brisas Barra de Suchiate","country":"MX","lat":14.53588,"lon":-92.22414},{"name":"Brisas de Zicatela","country":"MX","lat":15.83694,"lon":-97.04194},{"name":"Brisas del Carrizal","country":"MX","lat":18.01556,"lon":-92.97083},{"name":"Briseñas de Matamoros","country":"MX","lat":20.26821,"lon":-102.56195},{"name":"Buaysiacobe","country":"MX","lat":27.06795,"lon":-109.68628},{"name":"Buayums","country":"MX","lat":26.86336,"lon":-109.43427},{"name":"Bucerías","country":"MX","lat":20.75626,"lon":-105.33438},{"name":"Buctzotz","country":"MX","lat":21.20256,"lon":-88.79412},{"name":"Buen Retiro (El Retiro)","country":"MX","lat":25.46194,"lon":-108.47833},{"name":"Buena Vista","country":"MX","lat":19.04278,"lon":-96.85667},{"name":"Buena Vista","country":"MX","lat":16.9625,"lon":-98.58077},{"name":"Buena Vista","country":"MX","lat":25.85222,"lon":-100.36},{"name":"Buena Vista","country":"MX","lat":20.12767,"lon":-97.45373},{"name":"Buena Vista (Apasco)","country":"MX","lat":17.65556,"lon":-92.44389},{"name":"Buena Vista (Puxcatán)","country":"MX","lat":17.73073,"lon":-92.61996},{"name":"Buena Vista 1ra. Sección","country":"MX","lat":18.14417,"lon":-92.74972},{"name":"Buena Vista de la Salud","country":"MX","lat":17.26082,"lon":-99.50183},{"name":"Buenaventura","country":"MX","lat":29.84346,"lon":-107.46078},{"name":"Buenavista","country":"MX","lat":18.22794,"lon":-94.9329},{"name":"Buenavista","country":"MX","lat":17.91667,"lon":-92.53333},{"name":"Buenavista","country":"MX","lat":18.94556,"lon":-99.65694},{"name":"Buenavista","country":"MX","lat":18.89306,"lon":-97.03694},{"name":"Buenavista","country":"MX","lat":19.60833,"lon":-99.16944},{"name":"Buenavista","country":"MX","lat":20.82372,"lon":-100.47009},{"name":"Buenavista","country":"MX","lat":20.56811,"lon":-103.85187},{"name":"Buenavista","country":"MX","lat":20.45474,"lon":-103.52042},{"name":"Buenavista","country":"MX","lat":20.38329,"lon":-103.21536},{"name":"Buenavista","country":"MX","lat":19.91349,"lon":-100.22995},{"name":"Buenavista","country":"MX","lat":19.80082,"lon":-100.04385},{"name":"Buenavista","country":"MX","lat":16.24278,"lon":-91.98778},{"name":"Buenavista","country":"MX","lat":17.22556,"lon":-92.52667},{"name":"Buenavista","country":"MX","lat":19.25767,"lon":-97.07531},{"name":"Buenavista (Matasanos)","country":"MX","lat":17.10778,"lon":-93.06694},{"name":"Buenavista de Allende","country":"MX","lat":17.00086,"lon":-99.21325},{"name":"Buenavista de Benito Juárez","country":"MX","lat":18.46034,"lon":-98.63735},{"name":"Buenavista de Cortés","country":"MX","lat":20.37326,"lon":-101.87021},{"name":"Buenavista de Cuéllar","country":"MX","lat":18.45958,"lon":-99.40868},{"name":"Buenavista de Juárez","country":"MX","lat":18.945,"lon":-97.82778},{"name":"Buenavista de Trujillo","country":"MX","lat":23.152,"lon":-103.18767},{"name":"Buenavista Tetela","country":"MX","lat":18.91967,"lon":-98.17632},{"name":"Buenavista Tomatlán","country":"MX","lat":19.21281,"lon":-102.58735},{"name":"Buenos Aires","country":"MX","lat":14.8898,"lon":-92.48121},{"name":"Buenos Aires","country":"MX","lat":18.46463,"lon":-95.24879},{"name":"Buenos Aires","country":"MX","lat":19.61745,"lon":-99.6679},{"name":"Buenos Aires","country":"MX","lat":19.07499,"lon":-102.17999},{"name":"Buenos Aires","country":"MX","lat":18.02444,"lon":-102.28583},{"name":"Buenos Aires","country":"MX","lat":32.42278,"lon":-116.94111},{"name":"Buenos Aires","country":"MX","lat":20.15333,"lon":-97.74833},{"name":"Buenos Aires (San Isidro)","country":"MX","lat":20.84028,"lon":-97.60139},{"name":"Burgos","country":"MX","lat":24.94722,"lon":-98.79921},{"name":"Bustamante","country":"MX","lat":23.43524,"lon":-99.75875},{"name":"Bustamante","country":"MX","lat":26.53498,"lon":-100.50608},{"name":"C-32 (Licenciado Francisco Trujillo Gurría)","country":"MX","lat":17.96833,"lon":-93.50139},{"name":"C-41 (Licenciado Carlos A. Madrazo)","country":"MX","lat":17.92306,"lon":-93.44806},{"name":"Cabecera de Indígenas","country":"MX","lat":19.37213,"lon":-100.13667},{"name":"Cabeza de Toro","country":"MX","lat":15.93698,"lon":-93.78256},{"name":"Cabezas","country":"MX","lat":19.37167,"lon":-96.38278},{"name":"Cabo San Lucas","country":"MX","lat":22.89088,"lon":-109.91238},{"name":"Cacahoatán","country":"MX","lat":14.99201,"lon":-92.16376},{"name":"Cacahuatal","country":"MX","lat":18.83098,"lon":-96.84192},{"name":"Cacalchen","country":"MX","lat":20.98358,"lon":-89.22686},{"name":"Cacalomacan","country":"MX","lat":19.25311,"lon":-99.70623},{"name":"Cacalotán","country":"MX","lat":23.06779,"lon":-105.84194},{"name":"Cacalotenango","country":"MX","lat":18.54639,"lon":-99.64361},{"name":"Cacaloxúchitl","country":"MX","lat":18.78747,"lon":-98.48614},{"name":"Cacalutla","country":"MX","lat":17.12433,"lon":-100.35038},{"name":"Cacao","country":"MX","lat":18.19458,"lon":-88.69529},{"name":"Cacaté","country":"MX","lat":16.84534,"lon":-92.83485},{"name":"Cadereyta","country":"MX","lat":20.69701,"lon":-99.81624},{"name":"Cadereyta","country":"MX","lat":25.58333,"lon":-99.98333},{"name":"Cadereyta Jiménez","country":"MX","lat":25.58896,"lon":-100.00156},{"name":"Cahuatache","country":"MX","lat":17.41624,"lon":-98.53184},{"name":"Caimanero","country":"MX","lat":25.60564,"lon":-108.44247},{"name":"Caja de Agua","country":"MX","lat":19.64329,"lon":-99.36497},{"name":"Cajelitos","country":"MX","lat":17.26778,"lon":-99.49306},{"name":"Cajititlán","country":"MX","lat":20.43174,"lon":-103.3094},{"name":"Cajonos","country":"MX","lat":17.16801,"lon":-96.26174},{"name":"Cala Norte","country":"MX","lat":19.84778,"lon":-97.42306},{"name":"Cala Sur","country":"MX","lat":19.83278,"lon":-97.42111},{"name":"Calamanda","country":"MX","lat":20.54672,"lon":-100.18616},{"name":"Calcahualco","country":"MX","lat":19.12243,"lon":-97.08556},{"name":"Calcehtok","country":"MX","lat":20.5674,"lon":-89.9117},{"name":"Calderitas","country":"MX","lat":18.55564,"lon":-88.25518},{"name":"Calera Chica","country":"MX","lat":18.85833,"lon":-99.18194},{"name":"Caleras","country":"MX","lat":18.99687,"lon":-103.87898},{"name":"Caleras de Ameche","country":"MX","lat":20.56133,"lon":-100.56013},{"name":"Calería","country":"MX","lat":18.42883,"lon":-95.17737},{"name":"Calichar Palma Sola","country":"MX","lat":20.44155,"lon":-97.55103},{"name":"Cálido","country":"MX","lat":17.09889,"lon":-92.7875},{"name":"California","country":"MX","lat":25.7609,"lon":-103.37556},{"name":"Calihualá","country":"MX","lat":17.53134,"lon":-98.27792},{"name":"Calimaya","country":"MX","lat":19.16324,"lon":-99.6181},{"name":"Calipan","country":"MX","lat":18.29519,"lon":-97.16376},{"name":"Calixtlahuaca","country":"MX","lat":19.33651,"lon":-99.68923},{"name":"Calkiní","country":"MX","lat":20.36905,"lon":-90.05119},{"name":"Calle Real","country":"MX","lat":19.48858,"lon":-99.61332},{"name":"Calmeca","country":"MX","lat":18.63501,"lon":-98.63414},{"name":"Calnali","country":"MX","lat":20.89687,"lon":-98.58511},{"name":"Calotmul","country":"MX","lat":21.0205,"lon":-88.17723},{"name":"Calpanería Atezquilla","country":"MX","lat":19.65556,"lon":-97.99528},{"name":"Calpulalpan","country":"MX","lat":19.58867,"lon":-98.56972},{"name":"Caltimacan","country":"MX","lat":20.53672,"lon":-99.37},{"name":"Caltzontzín","country":"MX","lat":19.4234,"lon":-102.00673},{"name":"Calvario Buenavista","country":"MX","lat":19.70387,"lon":-99.95674},{"name":"Calvario del Carmen","country":"MX","lat":19.63562,"lon":-100.0103},{"name":"Calvillo","country":"MX","lat":21.84583,"lon":-102.71849},{"name":"Calzada del Tepozán","country":"MX","lat":20.73762,"lon":-101.88299},{"name":"Calzada Larga","country":"MX","lat":16.35115,"lon":-93.31518},{"name":"Calzadas","country":"MX","lat":18.10121,"lon":-94.45524},{"name":"Camalotita","country":"MX","lat":22.40453,"lon":-105.43156},{"name":"Camalú","country":"MX","lat":30.84222,"lon":-116.06328},{"name":"Camargo","country":"MX","lat":27.67891,"lon":-105.17158},{"name":"Camarón de Tejeda","country":"MX","lat":19.02166,"lon":-96.61513},{"name":"Camelia (Barrio la Camelia)","country":"MX","lat":20.14917,"lon":-98.72222},{"name":"Camelia Roja","country":"MX","lat":18.02833,"lon":-96.20806},{"name":"Camémbaro","country":"MX","lat":19.42722,"lon":-100.39889},{"name":"Camichín de Jauja","country":"MX","lat":21.46532,"lon":-104.8008},{"name":"Camocuautla","country":"MX","lat":20.03805,"lon":-97.75853},{"name":"Camotepec","country":"MX","lat":20.0472,"lon":-98.06825},{"name":"Camotinchan","country":"MX","lat":16.55873,"lon":-98.12433},{"name":"Camotlán de Miraflores","country":"MX","lat":19.22033,"lon":-104.23491},{"name":"Campanario","country":"MX","lat":16.83534,"lon":-99.57178},{"name":"Campeche","country":"MX","lat":19.84386,"lon":-90.52554},{"name":"Campestre Flamboyanes","country":"MX","lat":21.21,"lon":-89.65778},{"name":"Campestre las Palomas [Fraccionamiento]","country":"MX","lat":20.81778,"lon":-103.45167},{"name":"Campestre Tarímbaro","country":"MX","lat":19.775,"lon":-101.12917},{"name":"Campestre Villas del Álamo","country":"MX","lat":20.10167,"lon":-98.70722},{"name":"Campo Acosta","country":"MX","lat":19.77061,"lon":-105.24917},{"name":"Campo Balbuena","country":"MX","lat":24.74688,"lon":-107.54975},{"name":"Campo Carretero","country":"MX","lat":30.77154,"lon":-110.8538},{"name":"Campo Chico","country":"MX","lat":18.83639,"lon":-97.02802},{"name":"Campo de Águila","country":"MX","lat":18.0675,"lon":-94.98611},{"name":"Campo Grande","country":"MX","lat":18.82296,"lon":-97.01265},{"name":"Campo la Arrocera","country":"MX","lat":25.845,"lon":-108.91833},{"name":"Campo Pesquero el Colorado","country":"MX","lat":25.75828,"lon":-109.3151},{"name":"Campo Real","country":"MX","lat":20.78722,"lon":-103.44306},{"name":"Cañada","country":"MX","lat":20.17511,"lon":-99.1897},{"name":"Cañada","country":"MX","lat":19.99798,"lon":-99.23947},{"name":"Cañada de Bustos","country":"MX","lat":20.90436,"lon":-101.3126},{"name":"Cañada de Caracheo","country":"MX","lat":20.37552,"lon":-100.94549},{"name":"Cañada de Cisneros","country":"MX","lat":19.69534,"lon":-99.3357},{"name":"Cañada de Guadarrama","country":"MX","lat":19.31272,"lon":-99.78972},{"name":"Cañada de Madero","country":"MX","lat":19.96528,"lon":-99.39389},{"name":"Cañada de Negros","country":"MX","lat":20.92636,"lon":-101.92115},{"name":"Cañada de Ramírez","country":"MX","lat":20.29637,"lon":-101.9636},{"name":"Cañada del Tabaco","country":"MX","lat":21.70972,"lon":-105.35417},{"name":"Cañadas de Obregón","country":"MX","lat":21.14925,"lon":-102.68735},{"name":"Canalejas","country":"MX","lat":19.97867,"lon":-99.60548},{"name":"Cananea","country":"MX","lat":30.98699,"lon":-110.29062},{"name":"Cañas","country":"MX","lat":23.74366,"lon":-103.244},{"name":"Canatlán","country":"MX","lat":24.52576,"lon":-104.77327},{"name":"Cancuc","country":"MX","lat":16.91667,"lon":-92.48333},{"name":"Cancún","country":"MX","lat":21.17429,"lon":-86.84656},{"name":"Candela","country":"MX","lat":26.8384,"lon":-100.6663},{"name":"Candelaria","country":"MX","lat":18.18574,"lon":-91.04534},{"name":"Candelaria Loxicha","country":"MX","lat":15.92638,"lon":-96.49268},{"name":"Candelaria Portezuelo","country":"MX","lat":19.04194,"lon":-97.70083},{"name":"Canelas","country":"MX","lat":25.12341,"lon":-106.54622},{"name":"Cañitas de Felipe Pescador","country":"MX","lat":23.60371,"lon":-102.72704},{"name":"Cansahcab","country":"MX","lat":21.15749,"lon":-89.10131},{"name":"Cantabria","country":"MX","lat":19.83994,"lon":-101.72652},{"name":"Cantamayec","country":"MX","lat":20.46998,"lon":-89.08197},{"name":"Cantera de Villagrán","country":"MX","lat":19.84083,"lon":-99.30917},{"name":"Cantinela","country":"MX","lat":20.45778,"lon":-99.21028},{"name":"Cantioc","country":"MX","lat":17.26222,"lon":-92.40694},{"name":"Cantón las Delicias","country":"MX","lat":15.10245,"lon":-92.50002},{"name":"Cantón Rancho Nuevo","country":"MX","lat":15.06742,"lon":-92.52565},{"name":"Cantón Villaflor","country":"MX","lat":15.11424,"lon":-92.35261},{"name":"Cantuna","country":"MX","lat":23.6246,"lon":-103.3463},{"name":"Caobanal 1ra. Sección (Mezcalapa)","country":"MX","lat":17.64858,"lon":-93.39464},{"name":"Caobas","country":"MX","lat":18.44497,"lon":-89.10498},{"name":"Capacho","country":"MX","lat":19.96457,"lon":-101.23117},{"name":"Capácuaro","country":"MX","lat":19.54741,"lon":-102.05184},{"name":"Caparroso","country":"MX","lat":18.345,"lon":-92.80361},{"name":"Capilla de Guadalupe","country":"MX","lat":20.82739,"lon":-102.59185},{"name":"Capilla de Milpillas","country":"MX","lat":20.66331,"lon":-102.84295},{"name":"Capitán Felipe Castellanos Díaz (San Pedro)","country":"MX","lat":17.77306,"lon":-91.1475},{"name":"Capoluca","country":"MX","lat":18.80639,"lon":-97.02722},{"name":"Capula","country":"MX","lat":18.87018,"lon":-99.96075},{"name":"Capula","country":"MX","lat":19.53642,"lon":-98.04219},{"name":"Capula","country":"MX","lat":19.7,"lon":-101.8},{"name":"Capula","country":"MX","lat":19.67364,"lon":-101.39181},{"name":"Capulhuac de Mirafuentes","country":"MX","lat":19.19354,"lon":-99.46585},{"name":"Capulín","country":"MX","lat":20.47802,"lon":-103.26947},{"name":"Capulín de Bustos","country":"MX","lat":20.88242,"lon":-101.3068},{"name":"Carácuaro","country":"MX","lat":19.01966,"lon":-101.12494},{"name":"Carapán","country":"MX","lat":19.86003,"lon":-102.03644},{"name":"Carbó","country":"MX","lat":29.68312,"lon":-110.95501},{"name":"Carbonera","country":"MX","lat":20.80518,"lon":-100.17117},{"name":"Carboneras","country":"MX","lat":24.62766,"lon":-97.71755},{"name":"Carboneras","country":"MX","lat":20.09,"lon":-98.70528},{"name":"Carboneras","country":"MX","lat":20.21399,"lon":-98.69476},{"name":"Carboneras","country":"MX","lat":22.18311,"lon":-102.24601},{"name":"Cárdenas","country":"MX","lat":22.00144,"lon":-99.64247},{"name":"Cárdenas","country":"MX","lat":18.00135,"lon":-93.37559},{"name":"Cárdenas","country":"MX","lat":20.63012,"lon":-101.2204},{"name":"Cardonal","country":"MX","lat":20.05689,"lon":-99.23025},{"name":"Carichí","country":"MX","lat":27.91637,"lon":-107.05584},{"name":"Caristay","country":"MX","lat":20.64538,"lon":-97.30593},{"name":"Carlos A. Carrillo","country":"MX","lat":18.37477,"lon":-95.75444},{"name":"Carlos A. Madrazo","country":"MX","lat":18.50172,"lon":-88.52508},{"name":"Carmen","country":"MX","lat":25.9365,"lon":-100.36396},{"name":"Carmen Serdán","country":"MX","lat":19.03639,"lon":-97.81194},{"name":"Carmen Yalchuch","country":"MX","lat":16.64482,"lon":-92.36245},{"name":"Carmen Zacatal","country":"MX","lat":17.08083,"lon":-92.8025},{"name":"Carona","country":"MX","lat":19.52667,"lon":-102.45074},{"name":"Carpinteros","country":"MX","lat":20.58606,"lon":-98.53964},{"name":"Carranco","country":"MX","lat":21.82002,"lon":-101.09699},{"name":"Carricitos","country":"MX","lat":25.97595,"lon":-108.9313},{"name":"Carrillo","country":"MX","lat":23.204,"lon":-102.98676},{"name":"Carrillo Puerto","country":"MX","lat":15.0112,"lon":-92.19552},{"name":"Carrillo Puerto","country":"MX","lat":19.094,"lon":-90.52279},{"name":"Carrillo Puerto","country":"MX","lat":20.4189,"lon":-97.17899},{"name":"Carrillo Puerto","country":"MX","lat":22.43139,"lon":-97.96417},{"name":"Carrizal","country":"MX","lat":20.59552,"lon":-97.25676},{"name":"Carrizal Grande","country":"MX","lat":20.70634,"lon":-101.306},{"name":"Carrizalillo","country":"MX","lat":17.85077,"lon":-99.71263},{"name":"Cartagena [Fraccionamiento]","country":"MX","lat":21.95639,"lon":-102.27639},{"name":"Casa Blanca","country":"MX","lat":25.43036,"lon":-108.42308},{"name":"Casa Blanca","country":"MX","lat":19.04222,"lon":-98.11889},{"name":"Casa Blanca","country":"MX","lat":20.38658,"lon":-100.02009},{"name":"Casa de Cerros","country":"MX","lat":22.88499,"lon":-102.52124},{"name":"Casa Nueva","country":"MX","lat":19.83333,"lon":-99.20944},{"name":"Casahuatlán","country":"MX","lat":18.57271,"lon":-99.39051},{"name":"Casas","country":"MX","lat":23.72686,"lon":-98.73662},{"name":"Casas Grandes","country":"MX","lat":30.38195,"lon":-107.95796},{"name":"Casas Viejas","country":"MX","lat":19.15167,"lon":-100.10778},{"name":"Caserío de Cortés","country":"MX","lat":19.19861,"lon":-98.95444},{"name":"Cash","country":"MX","lat":16.26426,"lon":-92.09775},{"name":"Casitas","country":"MX","lat":20.25532,"lon":-96.80114},{"name":"Castamay","country":"MX","lat":19.83782,"lon":-90.43181},{"name":"Castaños","country":"MX","lat":26.78932,"lon":-101.43211},{"name":"Castillo de Teayo","country":"MX","lat":20.74927,"lon":-97.6303},{"name":"Castro Urdiales","country":"MX","lat":20.59754,"lon":-103.82046},{"name":"Catarino Rodríguez","country":"MX","lat":24.84542,"lon":-100.32046},{"name":"Catazajá","country":"MX","lat":17.72392,"lon":-92.01244},{"name":"Catemaco","country":"MX","lat":18.42131,"lon":-95.11398},{"name":"Catishtic","country":"MX","lat":16.78028,"lon":-92.73778},{"name":"Caucel","country":"MX","lat":21.01542,"lon":-89.70368},{"name":"Caurio de Guadalupe","country":"MX","lat":19.92455,"lon":-101.86067},{"name":"Caxapa","country":"MX","lat":18.43103,"lon":-96.77456},{"name":"Caxhuacán","country":"MX","lat":20.06359,"lon":-97.60688},{"name":"Caxitepec","country":"MX","lat":17.29449,"lon":-98.96741},{"name":"Caxuxi","country":"MX","lat":20.30522,"lon":-98.99067},{"name":"Cayaco","country":"MX","lat":17.04743,"lon":-100.26859},{"name":"Cazones de Herrera","country":"MX","lat":20.70423,"lon":-97.30994},{"name":"Cebadilla 1ra. Sección","country":"MX","lat":14.86381,"lon":-92.27969},{"name":"Ceballos","country":"MX","lat":26.5258,"lon":-104.1295},{"name":"Cecilio Terán","country":"MX","lat":18.8148,"lon":-97.22526},{"name":"Cedral","country":"MX","lat":23.82099,"lon":-100.72527},{"name":"Cedro de la Manzana","country":"MX","lat":19.69213,"lon":-100.11656},{"name":"Cedros","country":"MX","lat":24.67919,"lon":-101.77387},{"name":"CEFERESO Número 3","country":"MX","lat":25.84722,"lon":-97.63333},{"name":"Ceiba 1ra. Sección (Jahuactal)","country":"MX","lat":18.06222,"lon":-93.11306},{"name":"Ceja de Bravo","country":"MX","lat":20.37856,"lon":-100.39423},{"name":"Celaya","country":"MX","lat":20.52353,"lon":-100.8157},{"name":"Celayita","country":"MX","lat":20.24113,"lon":-99.86142},{"name":"Celestún","country":"MX","lat":20.85973,"lon":-90.39902},{"name":"Cementeras del Pital","country":"MX","lat":20.17694,"lon":-96.89583},{"name":"Cenobio Aguilar (La Trinidad)","country":"MX","lat":17.40472,"lon":-92.31944},{"name":"Cenobio Moreno","country":"MX","lat":19.09629,"lon":-102.50415},{"name":"Cenotillo","country":"MX","lat":20.96621,"lon":-88.60438},{"name":"Centro de Arriba","country":"MX","lat":21.73123,"lon":-102.49888},{"name":"Centro de Readaptación Social","country":"MX","lat":20.55444,"lon":-103.19361},{"name":"Centro de Readaptación Social","country":"MX","lat":19.625,"lon":-97.22028},{"name":"Centro de Readaptación Social","country":"MX","lat":18.13667,"lon":-94.51861},{"name":"Centro de Readaptación Social","country":"MX","lat":18.83806,"lon":-96.93944},{"name":"Centro de Readaptación Social Nuevo","country":"MX","lat":31.18444,"lon":-110.96778},{"name":"Centro Familiar la Soledad","country":"MX","lat":21.135,"lon":-101.74972},{"name":"Cepeda","country":"MX","lat":20.506,"lon":-90.10979},{"name":"Cerano","country":"MX","lat":20.10877,"lon":-101.3871},{"name":"Cereso 14 (El Amate)","country":"MX","lat":16.59472,"lon":-93.80278},{"name":"Cereso del Hongo","country":"MX","lat":32.48417,"lon":-116.25056},{"name":"CERESO Nuevo","country":"MX","lat":25.89139,"lon":-109.04222},{"name":"Cerocahui","country":"MX","lat":27.29906,"lon":-108.055},{"name":"Cerrillos (Campo 35)","country":"MX","lat":25.87806,"lon":-108.90139},{"name":"Cerrito de Gasca","country":"MX","lat":20.61829,"lon":-101.062},{"name":"Cerrito de Jaral","country":"MX","lat":22.22361,"lon":-101.0625},{"name":"Cerrito de la Cruz","country":"MX","lat":22.65781,"lon":-102.27263},{"name":"Cerrito de Zavala","country":"MX","lat":22.5369,"lon":-100.97683},{"name":"Cerritos","country":"MX","lat":19.13329,"lon":-96.60931},{"name":"Cerritos","country":"MX","lat":22.42835,"lon":-100.28474},{"name":"Cerritos","country":"MX","lat":20.88552,"lon":-100.5988},{"name":"Cerritos","country":"MX","lat":20.35306,"lon":-99.01222},{"name":"Cerritos de Cárdenas","country":"MX","lat":19.96942,"lon":-100.02254},{"name":"Cerritos del Pilar","country":"MX","lat":19.44508,"lon":-100.01909},{"name":"Cerro Agudo","country":"MX","lat":25.59796,"lon":-107.9631},{"name":"Cerro Armadillo Grande","country":"MX","lat":17.86611,"lon":-96.30861},{"name":"Cerro Azul","country":"MX","lat":21.192,"lon":-97.74088},{"name":"Cerro Colorado","country":"MX","lat":20.40111,"lon":-101.32451},{"name":"Cerro Colorado de Ocampo","country":"MX","lat":19.31712,"lon":-100.46538},{"name":"Cerro de la Cruz","country":"MX","lat":20.81474,"lon":-100.50109},{"name":"Cerro de Ortega","country":"MX","lat":18.7508,"lon":-103.72155},{"name":"Cerro de Piedra","country":"MX","lat":16.77646,"lon":-99.63037},{"name":"Cerro de San Francisco","country":"MX","lat":19.37038,"lon":-99.35162},{"name":"Cerro de San Pedro","country":"MX","lat":22.2178,"lon":-100.79961},{"name":"Cerro del Aire","country":"MX","lat":16.11012,"lon":-97.20438},{"name":"Cerro del Murciélago","country":"MX","lat":19.28194,"lon":-99.75472},{"name":"Cerro Gordo","country":"MX","lat":20.37329,"lon":-99.91385},{"name":"Cerro Gordo","country":"MX","lat":19.56951,"lon":-96.64835},{"name":"Cerro Gordo","country":"MX","lat":19.43336,"lon":-96.7004},{"name":"Cerro Gordo","country":"MX","lat":21.97448,"lon":-100.80661},{"name":"Cerro Gordo","country":"MX","lat":20.59294,"lon":-101.12684},{"name":"Cerro Grande","country":"MX","lat":20.23861,"lon":-97.68194},{"name":"Cerro Guzmán","country":"MX","lat":19.23543,"lon":-96.37856},{"name":"Cerro La Calera","country":"MX","lat":19.18333,"lon":-99.81667},{"name":"Cerro las Iguanas","country":"MX","lat":18.41083,"lon":-95.19972},{"name":"Cerro Quemado","country":"MX","lat":18.15417,"lon":-96.575},{"name":"Cerro Santa Fe","country":"MX","lat":20.52599,"lon":-103.08448},{"name":"Ceuta","country":"MX","lat":23.90042,"lon":-106.92847},{"name":"Chablé","country":"MX","lat":17.85895,"lon":-91.7813},{"name":"Chablekal","country":"MX","lat":21.09613,"lon":-89.57701},{"name":"Chacala","country":"MX","lat":19.32741,"lon":-104.28313},{"name":"Chacalapa","country":"MX","lat":18.0786,"lon":-94.7028},{"name":"Chacalapa","country":"MX","lat":16.80682,"lon":-98.45788},{"name":"Chacaljocóm","country":"MX","lat":16.29919,"lon":-92.18345},{"name":"Chacaltianguis","country":"MX","lat":18.30528,"lon":-95.84167},{"name":"Chachahuantla","country":"MX","lat":20.20182,"lon":-98.13261},{"name":"Chacoma","country":"MX","lat":16.87611,"lon":-92.49139},{"name":"Chacsinkin","country":"MX","lat":20.17222,"lon":-89.01654},{"name":"Chahuite","country":"MX","lat":16.3,"lon":-94.18333},{"name":"Chahuites","country":"MX","lat":16.28842,"lon":-94.19478},{"name":"Chalahuiyapa","country":"MX","lat":21.15088,"lon":-98.36429},{"name":"Chalam","country":"MX","lat":16.88771,"lon":-92.55009},{"name":"Chalcatzingo","country":"MX","lat":18.68951,"lon":-98.77434},{"name":"Chalchihuapan","country":"MX","lat":18.97694,"lon":-99.57472},{"name":"Chalchihuapan","country":"MX","lat":18.97183,"lon":-98.33698},{"name":"Chalchihuitán","country":"MX","lat":16.96445,"lon":-92.61903},{"name":"Chalchihuites","country":"MX","lat":23.47498,"lon":-103.88293},{"name":"Chalchocoyo","country":"MX","lat":21.31444,"lon":-98.79194},{"name":"Chalco","country":"MX","lat":19.26174,"lon":-98.89775},{"name":"Chalma","country":"MX","lat":21.20881,"lon":-98.39799},{"name":"Chalma","country":"MX","lat":18.93048,"lon":-99.43505},{"name":"Chalmita","country":"MX","lat":18.93433,"lon":-99.42325},{"name":"Chamácuaro","country":"MX","lat":20.10444,"lon":-100.82756},{"name":"Chametla","country":"MX","lat":22.8775,"lon":-105.9575},{"name":"Chametla","country":"MX","lat":24.09926,"lon":-110.37395},{"name":"Champotón","country":"MX","lat":19.34745,"lon":-90.72039},{"name":"Chamula","country":"MX","lat":16.78416,"lon":-92.68959},{"name":"Chamulapita","country":"MX","lat":15.06892,"lon":-92.36942},{"name":"Chan Cenote","country":"MX","lat":20.99142,"lon":-87.78564},{"name":"Chanal","country":"MX","lat":16.71667,"lon":-92.4},{"name":"Chanal","country":"MX","lat":16.6575,"lon":-92.2575},{"name":"Changata","country":"MX","lat":18.27306,"lon":-100.58528},{"name":"Chapa","country":"MX","lat":19.37976,"lon":-101.66556},{"name":"Chapa de Mota","country":"MX","lat":19.81406,"lon":-99.52615},{"name":"Chapab","country":"MX","lat":20.45911,"lon":-89.4569},{"name":"Chapala","country":"MX","lat":20.29616,"lon":-103.19123},{"name":"Chapalilla","country":"MX","lat":21.18852,"lon":-104.63783},{"name":"Chapallal Grande","country":"MX","lat":17.29631,"lon":-92.94519},{"name":"Chapantongo","country":"MX","lat":20.28635,"lon":-99.41319},{"name":"Chaparaco","country":"MX","lat":19.96061,"lon":-102.26092},{"name":"Chaparrosa","country":"MX","lat":23.08339,"lon":-102.27728},{"name":"Chapopote Chico","country":"MX","lat":21.13704,"lon":-98.2478},{"name":"Chapopote Núñez","country":"MX","lat":20.93167,"lon":-97.68274},{"name":"Chapulco","country":"MX","lat":18.62586,"lon":-97.40474},{"name":"Chapulhuacán","country":"MX","lat":21.15731,"lon":-98.90361},{"name":"Chapulhuacanito","country":"MX","lat":21.20911,"lon":-98.67016},{"name":"Chapultenango","country":"MX","lat":17.34114,"lon":-93.1303},{"name":"Chapultepec","country":"MX","lat":19.20216,"lon":-99.56176},{"name":"Charapán","country":"MX","lat":19.65112,"lon":-102.2519},{"name":"Charapendo","country":"MX","lat":19.26383,"lon":-102.0661},{"name":"Charay","country":"MX","lat":26.0214,"lon":-108.8309},{"name":"Charcas","country":"MX","lat":23.12943,"lon":-101.11346},{"name":"Charco Blanco","country":"MX","lat":20.43404,"lon":-100.47244},{"name":"Charco Blanco","country":"MX","lat":23.86306,"lon":-103.6575},{"name":"Charco de Pantoja","country":"MX","lat":20.38949,"lon":-101.35436},{"name":"Charo","country":"MX","lat":19.74966,"lon":-101.04571},{"name":"Chatipán","country":"MX","lat":21.02006,"lon":-98.52731},{"name":"Chaucingo","country":"MX","lat":18.30038,"lon":-99.11535},{"name":"Chautla","country":"MX","lat":18.96573,"lon":-98.15288},{"name":"Chavarría","country":"MX","lat":18.72575,"lon":-99.46826},{"name":"Chavarrillo","country":"MX","lat":19.42551,"lon":-96.79458},{"name":"Chavaxtla","country":"MX","lat":19.13016,"lon":-96.83054},{"name":"Chavinda","country":"MX","lat":20.00625,"lon":-102.46015},{"name":"Chelem","country":"MX","lat":21.26841,"lon":-89.74221},{"name":"Chemax","country":"MX","lat":20.65613,"lon":-87.9364},{"name":"Chenalhó","country":"MX","lat":16.89367,"lon":-92.62651},{"name":"Cherán","country":"MX","lat":19.68536,"lon":-101.95368},{"name":"Cherán Atzicuirín (Cheranástico)","country":"MX","lat":19.7,"lon":-102.01556},{"name":"Chetumal","country":"MX","lat":18.51413,"lon":-88.30381},{"name":"Chiapa de Corzo","country":"MX","lat":16.7077,"lon":-93.01184},{"name":"Chiapilla","country":"MX","lat":16.56975,"lon":-92.72037},{"name":"Chiaucingo","country":"MX","lat":17.74207,"lon":-98.6972},{"name":"Chiautla","country":"MX","lat":19.54895,"lon":-98.88236},{"name":"Chiautla de Tapia","country":"MX","lat":18.30149,"lon":-98.60339},{"name":"Chicahua","country":"MX","lat":17.63667,"lon":-97.19497},{"name":"Chicahuaxtla","country":"MX","lat":20.1425,"lon":-97.94556},{"name":"Chicapa de Castro","country":"MX","lat":16.43844,"lon":-94.82206},{"name":"Chicavasco","country":"MX","lat":20.19715,"lon":-98.95386},{"name":"Chicbul","country":"MX","lat":18.77558,"lon":-90.92429},{"name":"Chichatla","country":"MX","lat":20.95833,"lon":-98.62946},{"name":"Chichén-Itzá","country":"MX","lat":20.66667,"lon":-88.56667},{"name":"Chichicapa","country":"MX","lat":18.26228,"lon":-93.1821},{"name":"Chichicapa","country":"MX","lat":18.40056,"lon":-97.04694},{"name":"Chichicastle 1ra. Sección","country":"MX","lat":18.30417,"lon":-92.43139},{"name":"Chichicaxtle","country":"MX","lat":19.34306,"lon":-96.46861},{"name":"Chichicuautla","country":"MX","lat":19.39073,"lon":-97.39394},{"name":"Chichihualco","country":"MX","lat":17.65902,"lon":-99.67624},{"name":"Chichimequillas","country":"MX","lat":23.23894,"lon":-102.5785},{"name":"Chichimequillas","country":"MX","lat":21.03716,"lon":-101.44274},{"name":"Chichimequillas","country":"MX","lat":20.76512,"lon":-100.33588},{"name":"Chichimila","country":"MX","lat":20.63176,"lon":-88.21689},{"name":"Chichiquila","country":"MX","lat":19.20073,"lon":-97.06691},{"name":"Chicoasén","country":"MX","lat":16.96633,"lon":-93.10486},{"name":"Chicola","country":"MX","lat":18.90139,"lon":-97.10806},{"name":"Chicoloapan","country":"MX","lat":19.41687,"lon":-98.90202},{"name":"Chicomuselo","country":"MX","lat":15.7442,"lon":-92.2833},{"name":"Chiconamel","country":"MX","lat":21.2305,"lon":-98.46024},{"name":"Chiconamel","country":"MX","lat":21.36806,"lon":-98.71917},{"name":"Chiconcuac","country":"MX","lat":19.55939,"lon":-98.89884},{"name":"Chiconcuac","country":"MX","lat":18.78278,"lon":-99.20722},{"name":"Chiconcuautla","country":"MX","lat":20.09517,"lon":-97.93896},{"name":"Chiconquiaco","country":"MX","lat":19.74208,"lon":-96.81851},{"name":"Chicontepec","country":"MX","lat":20.97214,"lon":-98.17239},{"name":"Chicontla","country":"MX","lat":20.24402,"lon":-97.83063},{"name":"Chicualoque","country":"MX","lat":20.38272,"lon":-97.66163},{"name":"Chicuasen","country":"MX","lat":19.52785,"lon":-96.67224},{"name":"Chicumtantic","country":"MX","lat":16.86556,"lon":-92.60528},{"name":"Chicxulub Pueblo","country":"MX","lat":21.13614,"lon":-89.51612},{"name":"Chicxulub Puerto","country":"MX","lat":21.29618,"lon":-89.59867},{"name":"Chiepetepec","country":"MX","lat":17.56568,"lon":-98.73364},{"name":"Chietla","country":"MX","lat":18.52028,"lon":-98.57889},{"name":"Chigmecatitlán","country":"MX","lat":18.64634,"lon":-98.07203},{"name":"Chignahuapan","country":"MX","lat":19.83866,"lon":-98.03171},{"name":"Chihuahua","country":"MX","lat":16.02966,"lon":-91.97331},{"name":"Chihuahua","country":"MX","lat":28.63528,"lon":-106.08889},{"name":"Chihuahuita","country":"MX","lat":26.15469,"lon":-109.05496},{"name":"Chikindzonot","country":"MX","lat":20.33436,"lon":-88.4863},{"name":"Chila","country":"MX","lat":17.96962,"lon":-97.86072},{"name":"Chila de Juárez","country":"MX","lat":20.28113,"lon":-98.20937},{"name":"Chila de la Sal","country":"MX","lat":18.10975,"lon":-98.48574},{"name":"Chilacachapa","country":"MX","lat":18.27394,"lon":-99.76177},{"name":"Chilapa","country":"MX","lat":18.98861,"lon":-97.15417},{"name":"Chilapa","country":"MX","lat":22.03138,"lon":-105.23057},{"name":"Chilapa de Álvarez","country":"MX","lat":17.59917,"lon":-99.17389},{"name":"Chilchota","country":"MX","lat":19.84654,"lon":-102.11716},{"name":"Chilcuautla","country":"MX","lat":20.33059,"lon":-99.23117},{"name":"Chililico","country":"MX","lat":21.13444,"lon":-98.43556},{"name":"Chiloljá","country":"MX","lat":16.88528,"lon":-92.42472},{"name":"Chilón","country":"MX","lat":17.23333,"lon":-92.41667},{"name":"Chilón","country":"MX","lat":17.10566,"lon":-92.27292},{"name":"Chilpancingo","country":"MX","lat":17.5506,"lon":-99.50578},{"name":"Chiltepec de Hidalgo","country":"MX","lat":18.91266,"lon":-99.8345},{"name":"Chiltoyac","country":"MX","lat":19.57708,"lon":-96.8666},{"name":"Chimalapa","country":"MX","lat":20.18806,"lon":-98.16},{"name":"Chimalpa Viejo","country":"MX","lat":19.44956,"lon":-99.34435},{"name":"Chimalpa y Tlalayote","country":"MX","lat":19.66522,"lon":-98.51224},{"name":"Chimaltitán","country":"MX","lat":21.77977,"lon":-103.78071},{"name":"Chimhucum","country":"MX","lat":16.89,"lon":-92.53139},{"name":"China","country":"MX","lat":25.69997,"lon":-99.23454},{"name":"Chiná","country":"MX","lat":19.76993,"lon":-90.49595},{"name":"Chinameca","country":"MX","lat":18.6222,"lon":-98.99766},{"name":"Chinameca","country":"MX","lat":18.02195,"lon":-94.67945},{"name":"Chinampa de Gorostiza","country":"MX","lat":21.35959,"lon":-97.73484},{"name":"Chinampas","country":"MX","lat":21.83686,"lon":-101.81564},{"name":"Chinantla","country":"MX","lat":18.2014,"lon":-98.26426},{"name":"Chinautla","country":"MX","lat":19.81996,"lon":-97.38859},{"name":"Chínipas","country":"MX","lat":27.39505,"lon":-108.53654},{"name":"Chinobampo","country":"MX","lat":26.39,"lon":-108.3644},{"name":"Chipahuatlán","country":"MX","lat":20.06111,"lon":-97.68861},{"name":"Chipilo de Francisco Javier Mina","country":"MX","lat":19.00611,"lon":-98.33056},{"name":"Chiquihuitlán de Benito Juárez","country":"MX","lat":17.99582,"lon":-96.74474},{"name":"Chiquilá","country":"MX","lat":21.43273,"lon":-87.33559},{"name":"Chiquilistlán","country":"MX","lat":20.2,"lon":-103.81667},{"name":"Chiquilistlán","country":"MX","lat":20.08776,"lon":-103.86071},{"name":"Chiquimitío","country":"MX","lat":19.79507,"lon":-101.25208},{"name":"Chiquinival","country":"MX","lat":16.99111,"lon":-91.96028},{"name":"Chiquinshulum","country":"MX","lat":17.07194,"lon":-92.59806},{"name":"Chirimoya (Estación Chirimoya)","country":"MX","lat":21.59278,"lon":-101.09139},{"name":"Chitejé de Garabato","country":"MX","lat":20.10111,"lon":-100.18899},{"name":"Chixtontic","country":"MX","lat":16.8908,"lon":-92.45793},{"name":"Chocamán","country":"MX","lat":19.01214,"lon":-97.03291},{"name":"Chocholá","country":"MX","lat":20.75087,"lon":-89.83041},{"name":"Choix","country":"MX","lat":26.70901,"lon":-108.32545},{"name":"Cholul","country":"MX","lat":21.0431,"lon":-89.55952},{"name":"Cholul Cantón","country":"MX","lat":21.01078,"lon":-89.29147},{"name":"Cholula","country":"MX","lat":19.06406,"lon":-98.30352},{"name":"Chonegal","country":"MX","lat":18.57523,"lon":-95.39347},{"name":"Chontalcoatlán","country":"MX","lat":18.65421,"lon":-99.5738},{"name":"Chontalpa","country":"MX","lat":17.66614,"lon":-93.48115},{"name":"Chontla","country":"MX","lat":21.2958,"lon":-97.92419},{"name":"Chosto de los Jarros","country":"MX","lat":19.86333,"lon":-99.91},{"name":"Chuburná","country":"MX","lat":21.25722,"lon":-89.79793},{"name":"Chucándiro","country":"MX","lat":19.90008,"lon":-101.3338},{"name":"Chucarit","country":"MX","lat":27.03157,"lon":-109.58421},{"name":"Chula Vista","country":"MX","lat":27.04083,"lon":-103.36611},{"name":"Chulum Cárdenas","country":"MX","lat":17.38417,"lon":-92.57389},{"name":"Chulum Juárez","country":"MX","lat":17.33194,"lon":-92.53389},{"name":"Chumatlán","country":"MX","lat":20.20574,"lon":-97.59402},{"name":"Chumayel","country":"MX","lat":20.42833,"lon":-89.30111},{"name":"Chunchintok","country":"MX","lat":19.36145,"lon":-89.58218},{"name":"Chunchucmil","country":"MX","lat":20.64303,"lon":-90.21413},{"name":"Chunhuhub","country":"MX","lat":19.58533,"lon":-88.5922},{"name":"Chuniapan de Arriba","country":"MX","lat":18.34803,"lon":-95.18156},{"name":"Chupaderos","country":"MX","lat":23.15883,"lon":-102.32535},{"name":"Chupio","country":"MX","lat":19.17836,"lon":-101.44599},{"name":"Churintzio","country":"MX","lat":20.15056,"lon":-102.06469},{"name":"Churipitzeo","country":"MX","lat":20.41185,"lon":-101.74206},{"name":"Churumuco de Morelos","country":"MX","lat":18.66333,"lon":-101.64741},{"name":"Cicacalco","country":"MX","lat":21.71575,"lon":-103.31286},{"name":"Ciénega de Flores","country":"MX","lat":25.95467,"lon":-100.16695},{"name":"Ciénega de Nuestra Señora de Guadalupe","country":"MX","lat":25.06223,"lon":-106.329},{"name":"Ciénega de Zimatlán","country":"MX","lat":16.89343,"lon":-96.76756},{"name":"Ciénega Grande","country":"MX","lat":22.19434,"lon":-102.0194},{"name":"Cieneguilla","country":"MX","lat":16.32353,"lon":-97.31762},{"name":"Cieneguilla","country":"MX","lat":21.24833,"lon":-100.27389},{"name":"Cieneguillas","country":"MX","lat":24.05472,"lon":-104.05186},{"name":"Cieneguillas","country":"MX","lat":22.75698,"lon":-102.66267},{"name":"Cieneguitas","country":"MX","lat":22.71363,"lon":-102.49317},{"name":"Cihuatlán","country":"MX","lat":19.2366,"lon":-104.56512},{"name":"Cima del Sol (Fraccionamiento Cima del Sol)","country":"MX","lat":20.46889,"lon":-103.41722},{"name":"Cinco de Febrero","country":"MX","lat":24.07657,"lon":-104.50467},{"name":"Cinco de Mayo","country":"MX","lat":24.10181,"lon":-104.57449},{"name":"Cinco de Mayo","country":"MX","lat":20.13167,"lon":-97.63},{"name":"Cintalapa","country":"MX","lat":16.92361,"lon":-91.36152},{"name":"Cintalapa de Figueroa","country":"MX","lat":16.68393,"lon":-93.71814},{"name":"Cipreses","country":"MX","lat":20.05889,"lon":-98.7675},{"name":"Cítala","country":"MX","lat":20.10409,"lon":-103.26181},{"name":"Citilcum","country":"MX","lat":20.95146,"lon":-89.11805},{"name":"Citlaltépec","country":"MX","lat":21.32912,"lon":-97.87861},{"name":"Ciudad Acuña","country":"MX","lat":29.32322,"lon":-100.95217},{"name":"Ciudad Altamirano","country":"MX","lat":18.3582,"lon":-100.66965},{"name":"Ciudad Apodaca","country":"MX","lat":25.78195,"lon":-100.18839},{"name":"Ciudad Ayala","country":"MX","lat":18.76694,"lon":-98.98222},{"name":"Ciudad Benito Juárez","country":"MX","lat":25.64724,"lon":-100.09582},{"name":"Ciudad Camargo","country":"MX","lat":26.31437,"lon":-98.83378},{"name":"Ciudad Cerralvo","country":"MX","lat":26.08499,"lon":-99.61508},{"name":"Ciudad Chemuyil","country":"MX","lat":20.34861,"lon":-87.35306},{"name":"Ciudad Coahuila (Kilómetro Cincuenta y Siete)","country":"MX","lat":32.19556,"lon":-115.0025},{"name":"Ciudad Constitución","country":"MX","lat":25.0321,"lon":-111.66256},{"name":"Ciudad Cuauhtémoc","country":"MX","lat":22.18439,"lon":-97.83472},{"name":"Ciudad Cuauhtémoc","country":"MX","lat":15.66587,"lon":-92.00388},{"name":"Ciudad de Allende","country":"MX","lat":25.27673,"lon":-100.01442},{"name":"Ciudad de Armería","country":"MX","lat":18.9378,"lon":-103.96417},{"name":"Ciudad de Atlixco","country":"MX","lat":18.90372,"lon":-98.43922},{"name":"Ciudad de Chiautla de Tapia","country":"MX","lat":18.3,"lon":-98.60389},{"name":"Ciudad de Cuetzalan","country":"MX","lat":20.01861,"lon":-97.52111},{"name":"Ciudad de Huajuapan de León","country":"MX","lat":17.80787,"lon":-97.77956},{"name":"Ciudad de Huitzuco","country":"MX","lat":18.30334,"lon":-99.33376},{"name":"Ciudad de Nanacamilpa","country":"MX","lat":19.49339,"lon":-98.53665},{"name":"Ciudad de Tlatlauquitepec","country":"MX","lat":19.85278,"lon":-97.49528},{"name":"Ciudad de Villa de Álvarez","country":"MX","lat":19.26722,"lon":-103.73778},{"name":"Ciudad de Villaldama","country":"MX","lat":26.49952,"lon":-100.42508},{"name":"Ciudad del Carmen","country":"MX","lat":18.64592,"lon":-91.82991},{"name":"Ciudad del Maíz","country":"MX","lat":22.40187,"lon":-99.60468},{"name":"Ciudad Delicias","country":"MX","lat":28.19013,"lon":-105.47012},{"name":"Ciudad Fernández","country":"MX","lat":21.94045,"lon":-100.01153},{"name":"Ciudad General Escobedo","country":"MX","lat":25.79698,"lon":-100.31791},{"name":"Ciudad General Terán","country":"MX","lat":25.25857,"lon":-99.68371},{"name":"Ciudad Guadalupe Victoria","country":"MX","lat":24.44401,"lon":-104.12156},{"name":"Ciudad Gustavo Díaz Ordaz","country":"MX","lat":26.23186,"lon":-98.5956},{"name":"Ciudad Guzmán","country":"MX","lat":19.70466,"lon":-103.4617},{"name":"Ciudad Guzmán [CERESO]","country":"MX","lat":19.65194,"lon":-103.5},{"name":"Ciudad Hidalgo","country":"MX","lat":14.68148,"lon":-92.15217},{"name":"Ciudad Hidalgo","country":"MX","lat":19.6927,"lon":-100.55445},{"name":"Ciudad Insurgentes","country":"MX","lat":25.26345,"lon":-111.77444},{"name":"Ciudad Juárez","country":"MX","lat":31.72024,"lon":-106.46084},{"name":"Ciudad Lázaro Cárdenas","country":"MX","lat":17.97066,"lon":-102.22124},{"name":"Ciudad Lerdo","country":"MX","lat":25.53718,"lon":-103.52456},{"name":"Ciudad López Mateos","country":"MX","lat":19.55793,"lon":-99.25675},{"name":"Ciudad Madero","country":"MX","lat":22.27228,"lon":-97.83623},{"name":"Ciudad Mante","country":"MX","lat":22.74304,"lon":-98.9739},{"name":"Ciudad Manuel Doblado","country":"MX","lat":20.72888,"lon":-101.95226},{"name":"Ciudad Melchor Múzquiz","country":"MX","lat":27.87933,"lon":-101.51615},{"name":"Ciudad Mendoza","country":"MX","lat":18.80645,"lon":-97.1787},{"name":"Ciudad Miguel Alemán","country":"MX","lat":26.39952,"lon":-99.02836},{"name":"Ciudad Morelos","country":"MX","lat":32.34389,"lon":-117.01056},{"name":"Ciudad Nezahualcoyotl","country":"MX","lat":19.40061,"lon":-99.01483},{"name":"Ciudad Obregón","country":"MX","lat":27.48642,"lon":-109.94083},{"name":"Ciudad Pemex","country":"MX","lat":17.88268,"lon":-92.48406},{"name":"Ciudad Río Bravo","country":"MX","lat":25.98729,"lon":-98.09414},{"name":"Ciudad Sabinas Hidalgo","country":"MX","lat":26.50358,"lon":-100.18187},{"name":"Ciudad Sahagun","country":"MX","lat":19.77557,"lon":-98.57471},{"name":"Ciudad Satélite","country":"MX","lat":22.11083,"lon":-100.79583},{"name":"Ciudad Satélite del Norte","country":"MX","lat":25.91448,"lon":-100.26542},{"name":"Ciudad Serdán","country":"MX","lat":18.98856,"lon":-97.44643},{"name":"Ciudad Tula","country":"MX","lat":22.99732,"lon":-99.71101},{"name":"Ciudad Valles","country":"MX","lat":21.99631,"lon":-99.01093},{"name":"Ciudad Victoria","country":"MX","lat":23.74174,"lon":-99.14599},{"name":"Cliserio Alanís (San Gaspar)","country":"MX","lat":18.86111,"lon":-99.16},{"name":"Cloete","country":"MX","lat":27.92347,"lon":-101.17597},{"name":"Coacalco","country":"MX","lat":19.62923,"lon":-99.10689},{"name":"Coachimalco","country":"MX","lat":17.62523,"lon":-98.68122},{"name":"Coachiti","country":"MX","lat":20.55944,"lon":-100.58944},{"name":"Coacoatzintla","country":"MX","lat":19.65163,"lon":-96.94043},{"name":"Coacotla","country":"MX","lat":17.93656,"lon":-94.66711},{"name":"Coacoyula de Álvarez","country":"MX","lat":18.07635,"lon":-99.6305},{"name":"Coacoyulichán","country":"MX","lat":16.79484,"lon":-98.93551},{"name":"Coacoyulillo","country":"MX","lat":17.33471,"lon":-99.64859},{"name":"Coacuilco","country":"MX","lat":21.10377,"lon":-98.58643},{"name":"Coahuayana de Hidalgo","country":"MX","lat":18.70224,"lon":-103.66145},{"name":"Coahuayana Viejo","country":"MX","lat":18.75119,"lon":-103.66798},{"name":"Coahuayutla de Guerrero","country":"MX","lat":18.31469,"lon":-101.73574},{"name":"Coahuitlán","country":"MX","lat":20.26064,"lon":-97.72934},{"name":"Coahuixco","country":"MX","lat":19.80556,"lon":-97.41028},{"name":"Coahuixtla","country":"MX","lat":18.57417,"lon":-99.37},{"name":"Coajomulco","country":"MX","lat":19.03375,"lon":-99.20428},{"name":"Coalcomán de Vázquez Pallares","country":"MX","lat":18.7775,"lon":-103.16},{"name":"Coamilpa de Juárez","country":"MX","lat":19.19778,"lon":-99.44361},{"name":"Coapilla","country":"MX","lat":17.13137,"lon":-93.15946},{"name":"Coatecas Altas","country":"MX","lat":16.53926,"lon":-96.66878},{"name":"Coatepec","country":"MX","lat":19.13735,"lon":-99.42948},{"name":"Coatepec","country":"MX","lat":19.45229,"lon":-96.96148},{"name":"Coatepec","country":"MX","lat":18.66754,"lon":-98.55987},{"name":"Coatepec","country":"MX","lat":19.38485,"lon":-98.84546},{"name":"Coatepec Costales","country":"MX","lat":18.33922,"lon":-99.7214},{"name":"Coatepec Harinas","country":"MX","lat":18.89492,"lon":-99.72153},{"name":"Coatetelco","country":"MX","lat":18.72963,"lon":-99.32605},{"name":"Coatlán del Río","country":"MX","lat":18.74423,"lon":-99.43324},{"name":"Coatzacoalcos","country":"MX","lat":18.14905,"lon":-94.4447},{"name":"Coatzingo","country":"MX","lat":18.61199,"lon":-98.17267},{"name":"Coatzintla","country":"MX","lat":20.48699,"lon":-97.46823},{"name":"Coba","country":"MX","lat":20.48298,"lon":-87.73888},{"name":"Cochoapa","country":"MX","lat":16.7219,"lon":-98.37196},{"name":"Cochoapa el Grande","country":"MX","lat":17.1928,"lon":-98.45592},{"name":"Cocohital","country":"MX","lat":18.39527,"lon":-93.34527},{"name":"Cocorit","country":"MX","lat":27.57519,"lon":-109.9591},{"name":"Cocotitlán","country":"MX","lat":19.23336,"lon":-98.86596},{"name":"Cocoyoc","country":"MX","lat":18.88417,"lon":-98.98194},{"name":"Cocoyol","country":"MX","lat":18.16448,"lon":-88.6908},{"name":"Cocoyotla","country":"MX","lat":18.75445,"lon":-99.45075},{"name":"Cocucho","country":"MX","lat":19.69477,"lon":-102.18925},{"name":"Cocula","country":"MX","lat":18.24116,"lon":-99.66202},{"name":"Cocula","country":"MX","lat":20.36517,"lon":-103.82215},{"name":"Coeneo de la Libertad","country":"MX","lat":19.82195,"lon":-101.5847},{"name":"Coetzala","country":"MX","lat":18.78521,"lon":-96.91697},{"name":"Cofradia","country":"MX","lat":20.4732,"lon":-103.55808},{"name":"Cofradía","country":"MX","lat":19.43333,"lon":-103.55},{"name":"Cofradía de Juárez","country":"MX","lat":18.96261,"lon":-103.95549},{"name":"Cofradía de Morelos","country":"MX","lat":18.86785,"lon":-103.83668},{"name":"Cofradía de Navolato (Cofradía de los Rocha)","country":"MX","lat":24.76806,"lon":-107.64806},{"name":"Cofradía de Suchitlán","country":"MX","lat":19.40954,"lon":-103.70043},{"name":"Cohuecán","country":"MX","lat":18.78268,"lon":-98.72085},{"name":"Coixtlahuaca","country":"MX","lat":17.72021,"lon":-97.3188},{"name":"Cojumatlán de Régules","country":"MX","lat":20.11729,"lon":-102.85171},{"name":"Col. Bosques de las Lomas","country":"MX","lat":19.37893,"lon":-99.26587},{"name":"Colatlán","country":"MX","lat":20.81642,"lon":-98.09697},{"name":"Colima","country":"MX","lat":19.24997,"lon":-103.72714},{"name":"Colinas de Plata","country":"MX","lat":20.07833,"lon":-98.72667},{"name":"Colinas de Santa Cruz Segunda Sección","country":"MX","lat":20.62361,"lon":-100.46667},{"name":"Colinas del Aeropuerto","country":"MX","lat":25.81705,"lon":-100.10258},{"name":"Colinas del Roble","country":"MX","lat":20.50417,"lon":-103.39833},{"name":"Colinas del Sol","country":"MX","lat":32.40306,"lon":-117.03056},{"name":"Colinas del Sol","country":"MX","lat":32.46583,"lon":-117.03694},{"name":"Colipa","country":"MX","lat":19.92323,"lon":-96.72713},{"name":"Collantes","country":"MX","lat":16.1881,"lon":-97.97184},{"name":"Colombia de Guadalupe","country":"MX","lat":17.0884,"lon":-98.75901},{"name":"Colón","country":"MX","lat":20.78323,"lon":-100.05149},{"name":"Colonia 18 de Marzo","country":"MX","lat":20.55556,"lon":-101.03556},{"name":"Colonia 2 de Septiembre","country":"MX","lat":19.70056,"lon":-99.11667},{"name":"Colonia 24 de Febrero","country":"MX","lat":25.64722,"lon":-108.64917},{"name":"Colonia 28 de Mayo (Santa Rosa)","country":"MX","lat":20.16611,"lon":-98.39},{"name":"Colonia 3 de Mayo","country":"MX","lat":18.82726,"lon":-99.69304},{"name":"Colonia 3 de Mayo (La Cruz)","country":"MX","lat":19.98083,"lon":-99.16361},{"name":"Colonia Abraham González (La Quemada)","country":"MX","lat":28.20667,"lon":-105.4075},{"name":"Colonia Adolfo López Mateos","country":"MX","lat":19.40056,"lon":-99.45944},{"name":"Colonia Adolfo Ruiz Cortines (Colonia Obrera)","country":"MX","lat":18.25694,"lon":-96.16139},{"name":"Colonia Aeropuerto","country":"MX","lat":17.62028,"lon":-101.45889},{"name":"Colonia Agrícola Álvaro Obregón","country":"MX","lat":19.22806,"lon":-99.55583},{"name":"Colonia Agrícola Analco","country":"MX","lat":19.34972,"lon":-99.475},{"name":"Colonia Agrícola de Ocotepec (Colonia San José)","country":"MX","lat":18.92972,"lon":-98.54444},{"name":"Colonia Agrícola México (Palmitas)","country":"MX","lat":25.10972,"lon":-107.94472},{"name":"Colonia Alborada","country":"MX","lat":16.88151,"lon":-99.81779},{"name":"Colonia Álvaro Obregón","country":"MX","lat":22.25183,"lon":-99.67416},{"name":"Colonia Álvaro Obregón","country":"MX","lat":19.37691,"lon":-99.49484},{"name":"Colonia Ángel Bocanegra (Adolfo López Mateos)","country":"MX","lat":18.92639,"lon":-99.02972},{"name":"Colonia Antorcha Campesina (Santa Rosa)","country":"MX","lat":19.68,"lon":-100.52611},{"name":"Colonia Aquiles Córdoba Morán","country":"MX","lat":19.70667,"lon":-100.53528},{"name":"Colonia Arboledas (San Andrés)","country":"MX","lat":19.2025,"lon":-99.58083},{"name":"Colonia Aviación Autopan","country":"MX","lat":19.37917,"lon":-99.69278},{"name":"Colonia Azteca","country":"MX","lat":19.07806,"lon":-99.65417},{"name":"Colonia Bellavista","country":"MX","lat":19.2982,"lon":-99.80879},{"name":"Colonia Benito Juárez","country":"MX","lat":19.88985,"lon":-98.80661},{"name":"Colonia Campesina","country":"MX","lat":28.14028,"lon":-105.52667},{"name":"Colonia Chalchihuecan","country":"MX","lat":19.21417,"lon":-96.21444},{"name":"Colonia Constitución","country":"MX","lat":17.53667,"lon":-98.59944},