[{"name":"Ajil","country":"MY","lat":5.0829,"lon":103.0857},{"name":"Alam Damai","country":"MY","lat":3.06028,"lon":101.7408},{"name":"Alor Gajah","country":"MY","lat":2.3804,"lon":102.2089},{"name":"Alor Janggus","country":"MY","lat":6.17386,"lon":100.31156},{"name":"Alor Merah","country":"MY","lat":6.16667,"lon":100.38333},{"name":"Alor Setar","country":"MY","lat":6.12104,"lon":100.36014},{"name":"Alur Pongsu","country":"MY","lat":5.03333,"lon":100.58333},{"name":"Ampang","country":"MY","lat":3.15,"lon":101.76667},{"name":"Anak Bukit","country":"MY","lat":6.184,"lon":100.37752},{"name":"Ara Damansara","country":"MY","lat":3.11898,"lon":101.58656},{"name":"Assam Jawa","country":"MY","lat":3.30126,"lon":101.28754},{"name":"Au Long","country":"MY","lat":4.85,"lon":100.71667},{"name":"Ayer Baloi","country":"MY","lat":1.5915,"lon":103.3327},{"name":"Ayer Hangat","country":"MY","lat":6.42062,"lon":99.82199},{"name":"Ayer Hitam","country":"MY","lat":1.915,"lon":103.1808},{"name":"Ayer Itam","country":"MY","lat":5.40158,"lon":100.27815},{"name":"Ayer Molek","country":"MY","lat":2.2028,"lon":102.3172},{"name":"Ayer Tawar","country":"MY","lat":4.3055,"lon":100.7618},{"name":"Bagan Datoh","country":"MY","lat":3.98333,"lon":100.78333},{"name":"Bagan Datuk","country":"MY","lat":3.9899,"lon":100.7819},{"name":"Bagan Pulau Ketam","country":"MY","lat":3.01667,"lon":101.26667},{"name":"Bagan Samak","country":"MY","lat":5.0895,"lon":100.56191},{"name":"Bagan Serai","country":"MY","lat":5.0108,"lon":100.54101},{"name":"Bagan Tiang","country":"MY","lat":5.11667,"lon":100.41667},{"name":"Bahau","country":"MY","lat":2.8079,"lon":102.4049},{"name":"Bakri","country":"MY","lat":2.0441,"lon":102.6527},{"name":"Balik Pulau","country":"MY","lat":5.34916,"lon":100.23938},{"name":"Balingian","country":"MY","lat":2.93057,"lon":112.54135},{"name":"Bandar 16 Sierra","country":"MY","lat":2.97135,"lon":101.65464},{"name":"Bandar Al-Muktafi Billah Shah","country":"MY","lat":4.6111,"lon":103.2092},{"name":"Bandar Baharu","country":"MY","lat":5.13428,"lon":100.49549},{"name":"Bandar Baru Ayer Itam","country":"MY","lat":5.38907,"lon":100.28177},{"name":"Bandar Baru Enstek","country":"MY","lat":2.75106,"lon":101.76544},{"name":"Bandar Baru Salak Tinggi","country":"MY","lat":2.81232,"lon":101.73562},{"name":"Bandar Botanic","country":"MY","lat":2.98794,"lon":101.43966},{"name":"Bandar Bukit Raja","country":"MY","lat":3.08737,"lon":101.43339},{"name":"Bandar Country Homes","country":"MY","lat":3.32752,"lon":101.53106},{"name":"Bandar Kinrara","country":"MY","lat":3.04926,"lon":101.64153},{"name":"Bandar Labuan","country":"MY","lat":5.28319,"lon":115.25371},{"name":"Bandar Laguna Merbok","country":"MY","lat":5.68919,"lon":100.49622},{"name":"Bandar Mahkota Cheras","country":"MY","lat":3.0542,"lon":101.79844},{"name":"Bandar Nabawan","country":"MY","lat":5.0393,"lon":116.4274},{"name":"Bandar Parklands","country":"MY","lat":2.97457,"lon":101.45721},{"name":"Bandar Penawar","country":"MY","lat":1.5513,"lon":104.226},{"name":"Bandar Permaisuri","country":"MY","lat":5.52241,"lon":102.74854},{"name":"Bandar Puncak Alam","country":"MY","lat":3.2389,"lon":101.42793},{"name":"Bandar Putra Kulai","country":"MY","lat":1.64958,"lon":103.62661},{"name":"Bandar Saujana Utama","country":"MY","lat":3.20663,"lon":101.47729},{"name":"Bandar Seri Alam","country":"MY","lat":1.50434,"lon":103.87525},{"name":"Bandar Springhill","country":"MY","lat":2.60127,"lon":101.86408},{"name":"Bandar Sri Damansara","country":"MY","lat":3.1903,"lon":101.61061},{"name":"Bandar Sri Sendayan","country":"MY","lat":2.67375,"lon":101.8721},{"name":"Bandar Sungai Mati","country":"MY","lat":2.1467,"lon":102.5655},{"name":"Bandar Sunway","country":"MY","lat":3.0693,"lon":101.6074},{"name":"Bandar Tasik Puteri","country":"MY","lat":3.28531,"lon":101.4741},{"name":"Bandar Tenggara","country":"MY","lat":1.87,"lon":103.6158},{"name":"Bandar Tun Hussein Onn","country":"MY","lat":3.05469,"lon":101.75939},{"name":"Bandar Tun Razak","country":"MY","lat":2.9029,"lon":102.8877},{"name":"Bandar Utama","country":"MY","lat":3.14818,"lon":101.61407},{"name":"Bandau","country":"MY","lat":6.5205,"lon":116.7534},{"name":"Bangi","country":"MY","lat":2.9,"lon":101.78333},{"name":"Bangsar","country":"MY","lat":3.12945,"lon":101.67004},{"name":"Banting","country":"MY","lat":2.8136,"lon":101.50185},{"name":"Batang Berjuntai","country":"MY","lat":3.38333,"lon":101.41667},{"name":"Batang Kali","country":"MY","lat":3.4684,"lon":101.6389},{"name":"Batu Anam","country":"MY","lat":2.5825,"lon":102.711},{"name":"Batu Arang","country":"MY","lat":3.31667,"lon":101.46667},{"name":"Batu Berendam","country":"MY","lat":2.2487,"lon":102.246},{"name":"Batu Caves","country":"MY","lat":3.238,"lon":101.682},{"name":"Batu Feringgi","country":"MY","lat":5.4709,"lon":100.24529},{"name":"Batu Gajah","country":"MY","lat":4.46916,"lon":101.04107},{"name":"Batu Hitam","country":"MY","lat":5.38961,"lon":100.23262},{"name":"Batu Itam","country":"MY","lat":5.39513,"lon":100.21659},{"name":"Batu Kawan","country":"MY","lat":5.25822,"lon":100.42876},{"name":"Batu Kurau","country":"MY","lat":4.96667,"lon":100.8},{"name":"Batu Pahat","country":"MY","lat":1.8548,"lon":102.9325},{"name":"Batu Tiga","country":"MY","lat":3.078,"lon":101.547},{"name":"Bau","country":"MY","lat":1.41667,"lon":110.15},{"name":"Bayan Lepas","country":"MY","lat":5.29992,"lon":100.26052},{"name":"Beaufort","country":"MY","lat":5.3473,"lon":115.7455},{"name":"Bedong","country":"MY","lat":5.72743,"lon":100.50876},{"name":"Behrang Stesen","country":"MY","lat":3.74438,"lon":101.45125},{"name":"Bekenu","country":"MY","lat":4.05392,"lon":113.84407},{"name":"Bekok","country":"MY","lat":2.2972,"lon":103.1302},{"name":"Belaga","country":"MY","lat":2.7,"lon":113.78333},{"name":"Belawai","country":"MY","lat":2.23333,"lon":111.21667},{"name":"Beluran","country":"MY","lat":5.8956,"lon":117.5557},{"name":"Beluru","country":"MY","lat":3.98333,"lon":114.1},{"name":"Bemban","country":"MY","lat":2.2684,"lon":102.3746},{"name":"Bentong Town","country":"MY","lat":3.52229,"lon":101.90866},{"name":"Bentung","country":"MY","lat":3.5316,"lon":101.9038},{"name":"Bercham","country":"MY","lat":4.6411,"lon":101.1393},{"name":"Berincang","country":"MY","lat":4.49112,"lon":101.38694},{"name":"Beruas","country":"MY","lat":4.5,"lon":100.78333},{"name":"Betong","country":"MY","lat":1.4,"lon":111.51667},{"name":"Bidur","country":"MY","lat":4.11667,"lon":101.28333},{"name":"Binatang","country":"MY","lat":2.16667,"lon":111.63333},{"name":"Bintulu","country":"MY","lat":3.16667,"lon":113.03333},{"name":"Blue Valley","country":"MY","lat":4.58293,"lon":101.41418},{"name":"Bongawan","country":"MY","lat":5.53333,"lon":115.85},{"name":"Brickfields","country":"MY","lat":3.12966,"lon":101.68424},{"name":"Brinchang","country":"MY","lat":4.4911,"lon":101.38843},{"name":"Budu","country":"MY","lat":1.76667,"lon":111.5},{"name":"Bukit Beruntung","country":"MY","lat":3.41558,"lon":101.55709},{"name":"Bukit Bintang","country":"MY","lat":3.14657,"lon":101.71023},{"name":"Bukit Damansara","country":"MY","lat":3.15045,"lon":101.65483},{"name":"Bukit Gambir","country":"MY","lat":2.211,"lon":102.6546},{"name":"Bukit Gemuroh","country":"MY","lat":5.29775,"lon":100.21147},{"name":"Bukit Ibam","country":"MY","lat":3.1637,"lon":102.9777},{"name":"Bukit Indah","country":"MY","lat":1.47999,"lon":103.65959},{"name":"Bukit Jalil","country":"MY","lat":3.04913,"lon":101.68036},{"name":"Bukit Jambul","country":"MY","lat":5.3337,"lon":100.28996},{"name":"Bukit Kayu Hitam","country":"MY","lat":6.51668,"lon":100.41893},{"name":"Bukit Kerinchi","country":"MY","lat":3.10628,"lon":101.66761},{"name":"Bukit Mertajam","country":"MY","lat":5.36301,"lon":100.4667},{"name":"Bukit Pinang","country":"MY","lat":5.93333,"lon":100.45},{"name":"Bukit Rahman Putra","country":"MY","lat":3.21727,"lon":101.5608},{"name":"Bukit Rambai","country":"MY","lat":2.2594,"lon":102.1838},{"name":"Bukit Tambun","country":"MY","lat":5.27179,"lon":100.4601},{"name":"Bukit Tengah","country":"MY","lat":5.34605,"lon":100.43917},{"name":"Buloh Kasap","country":"MY","lat":2.5536,"lon":102.764},{"name":"Butterworth","country":"MY","lat":5.3991,"lon":100.36382},{"name":"Cangkat Jong","country":"MY","lat":3.9851,"lon":101.1237},{"name":"Cenderiang","country":"MY","lat":4.26667,"lon":101.23333},{"name":"Ceruh","country":"MY","lat":3.9042,"lon":101.8132},{"name":"Chaah","country":"MY","lat":2.249,"lon":103.048},{"name":"Chaah Bahru","country":"MY","lat":2.09934,"lon":103.02219},{"name":"Changloon","country":"MY","lat":6.43422,"lon":100.43133},{"name":"Chemor","country":"MY","lat":4.7211,"lon":101.1189},{"name":"Chenderong","country":"MY","lat":4.4091,"lon":101.0495},{"name":"Cherang Ruku","country":"MY","lat":5.87062,"lon":102.49479},{"name":"Cheras","country":"MY","lat":3.108,"lon":101.726},{"name":"Cukai","country":"MY","lat":4.25,"lon":103.41667},{"name":"Cyberjaya","country":"MY","lat":2.92281,"lon":101.65718},{"name":"Dabong","country":"MY","lat":5.37676,"lon":102.00968},{"name":"Dalat","country":"MY","lat":2.66667,"lon":112.08333},{"name":"Damansara Damai","country":"MY","lat":3.19893,"lon":101.59184},{"name":"Daro","country":"MY","lat":2.51667,"lon":111.43333},{"name":"Data Kakus","country":"MY","lat":2.65465,"lon":113.62249},{"name":"Debak","country":"MY","lat":1.56667,"lon":111.41667},{"name":"Denai Alam","country":"MY","lat":3.16027,"lon":101.51501},{"name":"Dengkil","country":"MY","lat":2.86,"lon":101.6806},{"name":"Derga","country":"MY","lat":6.12092,"lon":100.3893},{"name":"Desa Parkcity","country":"MY","lat":3.18611,"lon":101.62875},{"name":"Desa Petaling","country":"MY","lat":3.08385,"lon":101.70895},{"name":"Donggongon","country":"MY","lat":5.90702,"lon":116.10146},{"name":"Dungun","country":"MY","lat":4.775,"lon":103.4162},{"name":"Durian Tunggal","country":"MY","lat":2.3125,"lon":102.2805},{"name":"Eco Sanctuary","country":"MY","lat":2.93703,"lon":101.53527},{"name":"Elmina","country":"MY","lat":3.18523,"lon":101.52461},{"name":"Empaong","country":"MY","lat":1.41667,"lon":111.53333},{"name":"Engkilili","country":"MY","lat":1.13864,"lon":111.66665},{"name":"FELCRA Lubek Sireh","country":"MY","lat":6.65007,"lon":100.22412},{"name":"FELDA Bukit Damar","country":"MY","lat":3.5397,"lon":102.1189},{"name":"FELDA Chini","country":"MY","lat":3.37457,"lon":102.94343},{"name":"Felda Gugusan Adela","country":"MY","lat":1.47877,"lon":104.17744},{"name":"FELDA Kemansul","country":"MY","lat":3.28562,"lon":102.22616},{"name":"FELDA Maokil","country":"MY","lat":2.29562,"lon":102.96786},{"name":"FELDA Semenchu","country":"MY","lat":1.56929,"lon":104.09993},{"name":"FELDA Soeharto","country":"MY","lat":3.67963,"lon":101.39261},{"name":"FELDA Taib Andak","country":"MY","lat":1.7336,"lon":103.64521},{"name":"Forest City","country":"MY","lat":1.33884,"lon":103.58876},{"name":"Gambang","country":"MY","lat":3.7068,"lon":103.1002},{"name":"Gedangsa","country":"MY","lat":3.73333,"lon":101.4},{"name":"Gelang Patah","country":"MY","lat":1.4484,"lon":103.5873},{"name":"Gelung Pepuyu","country":"MY","lat":4.36792,"lon":100.8201},{"name":"Gemas","country":"MY","lat":2.5832,"lon":102.6117},{"name":"Gemencheh","country":"MY","lat":2.5331,"lon":102.3989},{"name":"George Town","country":"MY","lat":5.41123,"lon":100.33543},{"name":"Gerik","country":"MY","lat":5.41667,"lon":101.13333},{"name":"Gerisek","country":"MY","lat":2.2097,"lon":102.7095},{"name":"Glenmarie Estate","country":"MY","lat":3.08333,"lon":101.58333},{"name":"Glugor","country":"MY","lat":5.37215,"lon":100.30708},{"name":"Gopeng","country":"MY","lat":4.4715,"lon":101.1663},{"name":"Gua Musang","country":"MY","lat":4.88441,"lon":101.96857},{"name":"Guar Chempedak","country":"MY","lat":5.85846,"lon":100.45928},{"name":"Gunong","country":"MY","lat":6.19011,"lon":100.34135},{"name":"Gurun","country":"MY","lat":5.81717,"lon":100.47381},{"name":"Hendrop","country":"MY","lat":4.719,"lon":101.5521},{"name":"Horizon Hills","country":"MY","lat":1.45768,"lon":103.64554},{"name":"Hulu Langat","country":"MY","lat":3.1137,"lon":101.8142},{"name":"Hulu Yam Lama","country":"MY","lat":3.4537,"lon":101.6413},{"name":"Hutan Melintang","country":"MY","lat":3.8766,"lon":100.9328},{"name":"Igan","country":"MY","lat":2.82281,"lon":111.70794},{"name":"Ijok","country":"MY","lat":3.31667,"lon":101.4},{"name":"Inanam","country":"MY","lat":5.9922,"lon":116.1321},{"name":"Ipoh","country":"MY","lat":4.5841,"lon":101.0829},{"name":"Iskandar Puteri","country":"MY","lat":1.39324,"lon":103.62322},{"name":"Jawi","country":"MY","lat":5.21525,"lon":100.49211},{"name":"Jelutong","country":"MY","lat":5.38998,"lon":100.31885},{"name":"Jenjarum","country":"MY","lat":2.8724,"lon":101.49484},{"name":"Jerantut","country":"MY","lat":3.936,"lon":102.3626},{"name":"Jertih","country":"MY","lat":5.7336,"lon":102.4897},{"name":"Jinjang","country":"MY","lat":3.20881,"lon":101.65623},{"name":"Jitra","country":"MY","lat":6.26812,"lon":100.42167},{"name":"Johor Bahru","country":"MY","lat":1.4655,"lon":103.7578},{"name":"Johor Jaya","country":"MY","lat":1.5392,"lon":103.8092},{"name":"Julau","country":"MY","lat":2.01667,"lon":111.91667},{"name":"Juru","country":"MY","lat":5.31201,"lon":100.44229},{"name":"Kajang","country":"MY","lat":2.99424,"lon":101.78875},{"name":"Kampar","country":"MY","lat":4.3,"lon":101.15},{"name":"Kampong Baharu Cheras Batu Sebelas","country":"MY","lat":3.05,"lon":101.76667},{"name":"Kampong Bakai","country":"MY","lat":5.53333,"lon":100.73333},{"name":"Kampong Chap","country":"MY","lat":6.05,"lon":102.35},{"name":"Kampong Chenderong Balai","country":"MY","lat":4.13333,"lon":101.08333},{"name":"Kampong Cherang Hangus","country":"MY","lat":6.03333,"lon":102.35},{"name":"Kampong Datuk Keramat","country":"MY","lat":3.16667,"lon":101.73333},{"name":"Kampong Dungun","country":"MY","lat":3.21667,"lon":101.31667},{"name":"Kampong Gunong","country":"MY","lat":5.71667,"lon":101.75},{"name":"Kampong Kadok","country":"MY","lat":6,"lon":102.25},{"name":"Kampong Masjid Tanah","country":"MY","lat":2.35,"lon":102.11667},{"name":"Kampong Menumbok","country":"MY","lat":5.30316,"lon":115.36997},{"name":"Kampong Merbok","country":"MY","lat":5.71667,"lon":100.41667},{"name":"Kampong Pangkal Kalong","country":"MY","lat":5.91667,"lon":102.21667},{"name":"Kampong Sidam","country":"MY","lat":5.53333,"lon":100.56667},{"name":"Kampong Sijangkang","country":"MY","lat":2.94048,"lon":101.46367},{"name":"Kampong Sungai Batu","country":"MY","lat":5.31764,"lon":100.70043},{"name":"Kampong Sungai Kechil Ulu","country":"MY","lat":5.10962,"lon":100.5438},{"name":"Kampong Sungai Rusa","country":"MY","lat":5.38333,"lon":100.21667},{"name":"Kampong Tajar","country":"MY","lat":6.1,"lon":100.41667},{"name":"Kampong Tanjong Chat","country":"MY","lat":6.15,"lon":102.25},{"name":"Kampong Tok Bali","country":"MY","lat":5.89174,"lon":102.48356},{"name":"Kampong Wang Tepus","country":"MY","lat":6.25,"lon":100.48333},{"name":"Kampung Air Lanas","country":"MY","lat":5.77613,"lon":101.88504},{"name":"Kampung Alor Mengkudu","country":"MY","lat":6.08838,"lon":100.39167},{"name":"Kampung Asun","country":"MY","lat":6.33333,"lon":100.33333},{"name":"Kampung Ayer Keroh","country":"MY","lat":2.2654,"lon":102.2801},{"name":"Kampung Ayer Molek","country":"MY","lat":2.2139,"lon":102.3278},{"name":"Kampung Ayer Puteh","country":"MY","lat":5.18223,"lon":100.60191},{"name":"Kampung Bagan","country":"MY","lat":1.8481,"lon":102.8588},{"name":"Kampung Baharu Nilai","country":"MY","lat":2.8033,"lon":101.7972},{"name":"Kampung Baharu Paroi","country":"MY","lat":2.7241,"lon":102.0007},{"name":"Kampung Baru","country":"MY","lat":3.16544,"lon":101.70394},{"name":"Kampung Baru Balakong","country":"MY","lat":3.02938,"lon":101.74714},{"name":"Kampung Baru Subang","country":"MY","lat":3.15,"lon":101.53333},{"name":"Kampung Baru Ulu Melaka","country":"MY","lat":6.35196,"lon":99.78791},{"name":"Kampung Batang Melaka Ulu","country":"MY","lat":2.4591,"lon":102.4139},{"name":"Kampung Batu Empat","country":"MY","lat":1.776,"lon":103.8736},{"name":"Kampung Batu Feringgi","country":"MY","lat":5.46948,"lon":100.24449},{"name":"Kampung Batu Lima","country":"MY","lat":5.79345,"lon":100.68937},{"name":"Kampung Batu Sembilan Luar","country":"MY","lat":4.3493,"lon":103.394},{"name":"Kampung Bertam Ulu","country":"MY","lat":2.2898,"lon":102.1928},{"name":"Kampung Bongor","country":"MY","lat":5.70397,"lon":100.91426},{"name":"Kampung Bukit Baharu","country":"MY","lat":2.2152,"lon":102.2851},{"name":"Kampung Bukit Beruang","country":"MY","lat":2.2414,"lon":102.2792},{"name":"Kampung Bukit Bunga","country":"MY","lat":5.83369,"lon":101.90033},{"name":"Kampung Bukit Jering","country":"MY","lat":5.47746,"lon":101.90779},{"name":"Kampung Bukit Tinggi, Bentong","country":"MY","lat":3.34944,"lon":101.82631},{"name":"Kampung Cangkat Jering","country":"MY","lat":4.78333,"lon":100.71667},{"name":"Kampung Cangkat Keruing","country":"MY","lat":4.3775,"lon":100.6891},{"name":"Kampung Cheng","country":"MY","lat":2.2635,"lon":102.2179},{"name":"Kampung Chui Chak","country":"MY","lat":4.0453,"lon":101.1715},{"name":"Kampung Chuping","country":"MY","lat":6.5013,"lon":100.25576},{"name":"Kampung Dong","country":"MY","lat":3.8959,"lon":101.8947},{"name":"Kampung Enggor","country":"MY","lat":4.82577,"lon":100.97038},{"name":"Kampung Gedung Siam","country":"MY","lat":3.6942,"lon":102.9635},{"name":"Kampung Gula","country":"MY","lat":4.93333,"lon":100.46667},{"name":"Kampung Haji Kudong","country":"MY","lat":5.58314,"lon":100.36238},{"name":"Kampung Hutan Arau","country":"MY","lat":6.42942,"lon":100.28174},{"name":"Kampung Jeli","country":"MY","lat":5.7,"lon":101.83333},{"name":"Kampung Jelutong Tengah","country":"MY","lat":1.4714,"lon":103.5675},{"name":"Kampung Jerlun","country":"MY","lat":6.21392,"lon":100.26581},{"name":"Kampung Kangkar Pulai","country":"MY","lat":1.5591,"lon":103.5863},{"name":"Kampung Kangkar Teberau","country":"MY","lat":1.532,"lon":103.7549},{"name":"Kampung Kerubong","country":"MY","lat":2.2958,"lon":102.2537},{"name":"Kampung Kilim","country":"MY","lat":6.4055,"lon":99.8502},{"name":"Kampung Kobah","country":"MY","lat":5.96667,"lon":100.43333},{"name":"Kampung Kok","country":"MY","lat":6.36759,"lon":99.68252},{"name":"Kampung Kuala Balah","country":"MY","lat":5.41667,"lon":101.91667},{"name":"Kampung Kuala Besut","country":"MY","lat":5.83297,"lon":102.55061},{"name":"Kampung Kuala Linggi","country":"MY","lat":2.38527,"lon":101.97311},{"name":"Kampung Kuala Matu","country":"MY","lat":2.71667,"lon":111.46667},{"name":"Kampung Kuala Muda","country":"MY","lat":5.5744,"lon":100.33984},{"name":"Kampung Kuala Selama","country":"MY","lat":5.23816,"lon":100.68297},{"name":"Kampung Kuala Sepetang","country":"MY","lat":4.5429,"lon":100.6597},{"name":"Kampung Kundassang","country":"MY","lat":5.9824,"lon":116.5712},{"name":"Kampung Kupang","country":"MY","lat":5.63638,"lon":100.84517},{"name":"Kampung Labohan Dagang","country":"MY","lat":2.80209,"lon":101.61963},{"name":"Kampung Ladang Sawit Lepar","country":"MY","lat":3.5827,"lon":103.0962},{"name":"Kampung Lalang","country":"MY","lat":5.79179,"lon":100.89719},{"name":"Kampung Lambor Kanan","country":"MY","lat":4.2664,"lon":100.9044},{"name":"Kampung Larkin Lama","country":"MY","lat":1.5024,"lon":103.744},{"name":"Kampung Lemal","country":"MY","lat":6.03021,"lon":102.14126},{"name":"Kampung Lubok Merbau","country":"MY","lat":6.01961,"lon":100.72932},{"name":"Kampung Machap Baru","country":"MY","lat":2.3829,"lon":102.3311},{"name":"Kampung Manjoi","country":"MY","lat":4.6192,"lon":101.0685},{"name":"Kampung Minyak Beku","country":"MY","lat":1.7954,"lon":102.8971},{"name":"Kampung Naga Lilit","country":"MY","lat":5.47646,"lon":100.55087},{"name":"Kampung New Zealand","country":"MY","lat":3.65,"lon":102.86667},{"name":"Kampung Olak Lempit","country":"MY","lat":2.83558,"lon":101.59472},{"name":"Kampung On Lok","country":"MY","lat":2.4723,"lon":102.3829},{"name":"Kampung Oran","country":"MY","lat":6.46529,"lon":100.24558},{"name":"Kampung Padang Cina","country":"MY","lat":5.43809,"lon":100.57905},{"name":"Kampung Padang Lalang","country":"MY","lat":6.16368,"lon":100.3099},{"name":"Kampung Pantai Aceh","country":"MY","lat":5.41569,"lon":100.19585},{"name":"Kampung Parit Belahan Tampok","country":"MY","lat":1.661,"lon":103.1936},{"name":"Kampung Parit Panjang","country":"MY","lat":5.70566,"lon":100.74618},{"name":"Kampung Pasir Gudang Baru","country":"MY","lat":1.4726,"lon":103.878},{"name":"Kampung Pengkalan Gelong","country":"MY","lat":6.19346,"lon":100.38304},{"name":"Kampung Perak","country":"MY","lat":3.8682,"lon":102.5862},{"name":"Kampung Pering","country":"MY","lat":6.37598,"lon":100.33644},{"name":"Kampung Permatang Pasir","country":"MY","lat":5.37237,"lon":100.21089},{"name":"Kampung Pondok Upih","country":"MY","lat":5.33733,"lon":100.23247},{"name":"Kampung Pulai","country":"MY","lat":5.65838,"lon":100.89172},{"name":"Kampung Ramuan China Kechil","country":"MY","lat":2.4301,"lon":102.075},{"name":"Kampung Relau","country":"MY","lat":5.23126,"lon":100.55593},{"name":"Kampung Sedenak","country":"MY","lat":1.7114,"lon":103.5276},{"name":"Kampung Selang","country":"MY","lat":2.35,"lon":102.876},{"name":"Kampung Setia","country":"MY","lat":3.24177,"lon":101.53296},{"name":"Kampung Simpang Durian","country":"MY","lat":3.1014,"lon":102.2222},{"name":"Kampung Simpang Pulai","country":"MY","lat":5.71057,"lon":100.99651},{"name":"Kampung Simpang Renggam","country":"MY","lat":1.8278,"lon":103.3},{"name":"Kampung Siong","country":"MY","lat":5.78863,"lon":100.90862},{"name":"Kampung Sirusa","country":"MY","lat":2.4957,"lon":101.8415},{"name":"Kampung Sok","country":"MY","lat":5.77361,"lon":100.73051},{"name":"Kampung Sri Jaya","country":"MY","lat":3.8299,"lon":101.9277},{"name":"Kampung Sungai Acheh","country":"MY","lat":5.15172,"lon":100.42482},{"name":"Kampung Sungai Ara","country":"MY","lat":5.32699,"lon":100.27348},{"name":"Kampung Sungai Glugur","country":"MY","lat":5.36966,"lon":100.31353},{"name":"Kampung Sungai Kajang","country":"MY","lat":3.4161,"lon":101.173},{"name":"Kampung Sungai Penchala","country":"MY","lat":3.16236,"lon":101.62696},{"name":"Kampung Sungai Rusa","country":"MY","lat":5.38193,"lon":100.21729},{"name":"Kampung Sungai Terap","country":"MY","lat":5.29352,"lon":100.6283},{"name":"Kampung Sungai Udang Besar","country":"MY","lat":5.16129,"lon":100.42677},{"name":"Kampung Tanjung Karang","country":"MY","lat":3.4242,"lon":101.1849},{"name":"Kampung Tanjung Keling","country":"MY","lat":2.2267,"lon":102.1716},{"name":"Kampung Tanjung Minyak","country":"MY","lat":2.2666,"lon":102.2004},{"name":"Kampung Tawar Besar","country":"MY","lat":5.55658,"lon":100.81204},{"name":"Kampung Tebong","country":"MY","lat":2.4382,"lon":102.3269},{"name":"Kampung Teh","country":"MY","lat":3.9607,"lon":102.347},{"name":"Kampung Tekek","country":"MY","lat":2.8147,"lon":104.1592},{"name":"Kampung Telaga Papan","country":"MY","lat":5.76319,"lon":102.63893},{"name":"Kampung Teluk Air Tawar","country":"MY","lat":5.48333,"lon":100.38333},{"name":"Kampung Teluk Kemang","country":"MY","lat":2.46146,"lon":101.85951},{"name":"Kampung Teluk Kumbar","country":"MY","lat":5.28769,"lon":100.23379},{"name":"Kampung Titi Tinggi","country":"MY","lat":6.63726,"lon":100.26271},{"name":"Kampung Ulu Tris","country":"MY","lat":2.6677,"lon":101.6684},{"name":"Kampung Umbai","country":"MY","lat":2.1586,"lon":102.3475},{"name":"Kampung Wakaf Sku","country":"MY","lat":6.11625,"lon":102.24229},{"name":"Kampung Wakaf Stan","country":"MY","lat":6.07985,"lon":102.28969},{"name":"Kamunting","country":"MY","lat":4.88333,"lon":100.73333},{"name":"Kangar","country":"MY","lat":6.4414,"lon":100.19862},{"name":"Kangkar Baru","country":"MY","lat":1.9891,"lon":103.0826},{"name":"Kangkar Sedili Kecil","country":"MY","lat":1.75,"lon":104.15},{"name":"Kangkong","country":"MY","lat":6.0005,"lon":100.34463},{"name":"Kanowit","country":"MY","lat":2.1,"lon":112.15},{"name":"Kapar","country":"MY","lat":3.13333,"lon":101.38333},{"name":"Kapit","country":"MY","lat":1.99546,"lon":112.93254},{"name":"Karak","country":"MY","lat":3.4,"lon":102.03333},{"name":"Kawasan Penempatan Ulu Benut Lima","country":"MY","lat":1.7439,"lon":103.3207},{"name":"Kawasan Penempatan Ulu Benut Tiga","country":"MY","lat":1.7497,"lon":103.277},{"name":"Kawasan Penempatan Ulu Sungai Benut","country":"MY","lat":1.7541,"lon":103.2798},{"name":"Kawasan Perindustrian Cheng","country":"MY","lat":2.2618,"lon":102.2317},{"name":"Kelapa Sawit","country":"MY","lat":1.6698,"lon":103.5327},{"name":"Kemajuan Tanah Bukit Aping Barat","country":"MY","lat":1.8294,"lon":103.9901},{"name":"Kemajuan Tanah Bukit Aping Timur","country":"MY","lat":1.8348,"lon":104.0212},{"name":"Kemajuan Tanah Bukit Besar","country":"MY","lat":1.7698,"lon":103.7064},{"name":"Kemajuan Tanah Bukit Easter","country":"MY","lat":1.7486,"lon":104.0777},{"name":"Kemajuan Tanah Bukit Goh","country":"MY","lat":3.9128,"lon":103.2572},{"name":"Kemajuan Tanah Bukit Kepayang","country":"MY","lat":3.3229,"lon":102.5794},{"name":"Kemajuan Tanah Bukit Ramon","country":"MY","lat":1.7532,"lon":103.7261},{"name":"Kemajuan Tanah Chemplak","country":"MY","lat":2.38,"lon":102.944},{"name":"Kemajuan Tanah Chemplak Barat","country":"MY","lat":2.388,"lon":102.934},{"name":"Kemajuan Tanah Inas Utara dan Selatan","country":"MY","lat":1.7734,"lon":103.6098},{"name":"Kemajuan Tanah Lok Heng Barat","country":"MY","lat":1.7225,"lon":104.0913},{"name":"Kemajuan Tanah Pasir Raja","country":"MY","lat":1.7578,"lon":103.6742},{"name":"Kemajuan Tanah Rentam","country":"MY","lat":3.2679,"lon":102.6228},{"name":"Kemajuan Tanah Sebertak","country":"MY","lat":3.2562,"lon":102.5975},{"name":"Kemajuan Tanah Simpang Waha","country":"MY","lat":1.7615,"lon":104.074},{"name":"Kemajuan Tanah Sungai Pancing Selatan","country":"MY","lat":3.7866,"lon":103.1683},{"name":"Kemajuan Tanah Sungai Pancing Timur","country":"MY","lat":3.8177,"lon":103.1993},{"name":"Kemajuan Tanah Sungai Pancing Utara","country":"MY","lat":3.8382,"lon":103.1598},{"name":"Kemajuan Tanah Tembangau","country":"MY","lat":3.0321,"lon":102.5228},{"name":"Kemajuan Tanah Tementi","country":"MY","lat":3.2707,"lon":102.6076},{"name":"Kemajuan Tanah Ulu Tebrau","country":"MY","lat":1.6358,"lon":103.756},{"name":"Kemayan","country":"MY","lat":3.1364,"lon":102.362},{"name":"Kempas","country":"MY","lat":1.5489,"lon":103.6965},{"name":"Keningau","country":"MY","lat":5.3378,"lon":116.1602},{"name":"Kepala Batas","country":"MY","lat":5.51707,"lon":100.4265},{"name":"Kepala Batas","country":"MY","lat":6.20411,"lon":100.40754},{"name":"Kepong","country":"MY","lat":3.21398,"lon":101.64018},{"name":"Kerling","country":"MY","lat":3.5908,"lon":101.6024},{"name":"Kertih","country":"MY","lat":4.5141,"lon":103.4483},{"name":"Keruh","country":"MY","lat":5.71667,"lon":101},{"name":"Ketengah Jaya","country":"MY","lat":4.57218,"lon":103.31879},{"name":"Ketereh","country":"MY","lat":5.95701,"lon":102.24817},{"name":"Kinabatangan","country":"MY","lat":5.58602,"lon":117.85083},{"name":"Kinarut","country":"MY","lat":5.8231,"lon":116.0466},{"name":"Klang","country":"MY","lat":3.03667,"lon":101.44333},{"name":"Klebang Besar","country":"MY","lat":2.2186,"lon":102.1995},{"name":"Kluang","country":"MY","lat":2.03046,"lon":103.31689},{"name":"Kobang","country":"MY","lat":4.44188,"lon":118.69287},{"name":"Kodiang","country":"MY","lat":6.39638,"lon":100.30755},{"name":"Kota Belud","country":"MY","lat":6.351,"lon":116.4305},{"name":"Kota Bharu","country":"MY","lat":6.12361,"lon":102.24333},{"name":"Kota Damansara","country":"MY","lat":3.15454,"lon":101.58022},{"name":"Kota Kinabalu","country":"MY","lat":5.9749,"lon":116.0724},{"name":"Kota Kuala Muda","country":"MY","lat":5.58822,"lon":100.37085},{"name":"Kota Samarahan","country":"MY","lat":1.46031,"lon":110.48821},{"name":"Kota Sarang Samut","country":"MY","lat":5.94554,"lon":100.36453},{"name":"Kota Tinggi","country":"MY","lat":1.7381,"lon":103.8999},{"name":"Kota Warisan","country":"MY","lat":2.82388,"lon":101.69365},{"name":"Kuah","country":"MY","lat":6.32649,"lon":99.8432},{"name":"Kuala Baram","country":"MY","lat":4.5855,"lon":113.98974},{"name":"Kuala Besut","country":"MY","lat":5.83303,"lon":102.55514},{"name":"Kuala Geris","country":"MY","lat":5.38333,"lon":102.06667},{"name":"Kuala Kangsar","country":"MY","lat":4.76667,"lon":100.93333},{"name":"Kuala Kedah","country":"MY","lat":6.1,"lon":100.3},{"name":"Kuala Ketil","country":"MY","lat":5.6,"lon":100.65},{"name":"Kuala Klawang","country":"MY","lat":2.9395,"lon":102.0704},{"name":"Kuala Krai","country":"MY","lat":5.5313,"lon":102.19925},{"name":"Kuala Kubu Baharu","country":"MY","lat":3.5638,"lon":101.6581},{"name":"Kuala Kurau","country":"MY","lat":5.01821,"lon":100.42824},{"name":"Kuala Lipis","country":"MY","lat":4.1842,"lon":102.0468},{"name":"Kuala Lumpur","country":"MY","lat":3.1412,"lon":101.68653},{"name":"Kuala Nerang","country":"MY","lat":6.25844,"lon":100.61264},{"name":"Kuala Nerus","country":"MY","lat":5.37293,"lon":103.02053},{"name":"Kuala Pegang","country":"MY","lat":5.63623,"lon":100.80913},{"name":"Kuala Penyu","country":"MY","lat":5.5714,"lon":115.5984},{"name":"Kuala Perlis","country":"MY","lat":6.4,"lon":100.13333},{"name":"Kuala Pilah","country":"MY","lat":2.7389,"lon":102.2487},{"name":"Kuala Rompin","country":"MY","lat":2.81667,"lon":103.48333},{"name":"Kuala Sanglang","country":"MY","lat":6.26116,"lon":100.19644},{"name":"Kuala Selangor","country":"MY","lat":3.35,"lon":101.25},{"name":"Kuala Sungai Baru","country":"MY","lat":2.3594,"lon":102.0353},{"name":"Kuala Terengganu","country":"MY","lat":5.3302,"lon":103.1408},{"name":"Kuala Teriang","country":"MY","lat":6.36377,"lon":99.71532},{"name":"Kuang","country":"MY","lat":3.2594,"lon":101.5541},{"name":"Kuantan","country":"MY","lat":3.8077,"lon":103.326},{"name":"Kubang Semang","country":"MY","lat":5.40375,"lon":100.45745},{"name":"Kuchai Lama","country":"MY","lat":3.08469,"lon":101.69086},{"name":"Kuching","country":"MY","lat":1.55,"lon":110.33333},{"name":"Kudat","country":"MY","lat":6.88732,"lon":116.82364},{"name":"Kukup","country":"MY","lat":1.3233,"lon":103.4426},{"name":"Kulai","country":"MY","lat":1.6561,"lon":103.6032},{"name":"Kulim","country":"MY","lat":5.36499,"lon":100.56177},{"name":"Labis","country":"MY","lat":2.385,"lon":103.021},{"name":"Labuan","country":"MY","lat":5.28028,"lon":115.2475},{"name":"Ladang Seri Kundang","country":"MY","lat":3.2856,"lon":101.519},{"name":"Lahad Datu","country":"MY","lat":5.02298,"lon":118.32897},{"name":"Lahat","country":"MY","lat":4.5388,"lon":101.0365},{"name":"Laman Permai","country":"MY","lat":3.17374,"lon":101.54204},{"name":"Langgar","country":"MY","lat":6.14762,"lon":100.43238},{"name":"Lawas","country":"MY","lat":4.8604,"lon":115.409},{"name":"Layang Layang","country":"MY","lat":1.8154,"lon":103.4784},{"name":"Lenggeng","country":"MY","lat":2.8558,"lon":101.9424},{"name":"Lenggong","country":"MY","lat":5.10633,"lon":100.96792},{"name":"Lengkuas","country":"MY","lat":6.02782,"lon":100.38185},{"name":"Lepai","country":"MY","lat":6.08333,"lon":100.36667},{"name":"Lidung Jelo","country":"MY","lat":2.64848,"lon":114.78653},{"name":"Limbang","country":"MY","lat":4.75477,"lon":115.01011},{"name":"Limbong","country":"MY","lat":6.13333,"lon":100.41667},{"name":"Lingga","country":"MY","lat":1.35,"lon":111.16667},{"name":"Linggi","country":"MY","lat":2.4857,"lon":102.0096},{"name":"Long Ampan Aing or Abanang","country":"MY","lat":2.65671,"lon":114.73675},{"name":"Long Bedian","country":"MY","lat":3.8,"lon":114.73333},{"name":"Long Lama","country":"MY","lat":3.76667,"lon":114.4},{"name":"Lubok Antu","country":"MY","lat":1.04186,"lon":111.83398},{"name":"Lubok Buntar","country":"MY","lat":5.14216,"lon":100.58971},{"name":"Lubok China","country":"MY","lat":2.4536,"lon":102.0695},{"name":"Lukut","country":"MY","lat":2.5703,"lon":101.833},{"name":"Lumut","country":"MY","lat":4.2323,"lon":100.6298},{"name":"Lunas","country":"MY","lat":5.43058,"lon":100.53012},{"name":"Lundu","country":"MY","lat":1.67439,"lon":109.85171},{"name":"Lurah Bilut","country":"MY","lat":3.6648,"lon":101.8888},{"name":"Machap","country":"MY","lat":2.3862,"lon":102.2907},{"name":"Mahang","country":"MY","lat":5.32511,"lon":100.74866},{"name":"Malacca","country":"MY","lat":2.196,"lon":102.2405},{"name":"Malim Nawar","country":"MY","lat":4.3506,"lon":101.1188},{"name":"Maludam","country":"MY","lat":1.65,"lon":111.03333},{"name":"Mambang Di Awan","country":"MY","lat":4.26667,"lon":101.15},{"name":"Mantin","country":"MY","lat":2.8243,"lon":101.8949},{"name":"Maradong","country":"MY","lat":2.08333,"lon":111.61667},{"name":"Maran","country":"MY","lat":3.586,"lon":102.773},{"name":"Marang","country":"MY","lat":5.2056,"lon":103.2059},{"name":"Marudi","country":"MY","lat":4.18333,"lon":114.31667},{"name":"Masai","country":"MY","lat":1.4907,"lon":103.8788},{"name":"Matu","country":"MY","lat":2.68333,"lon":111.53333},{"name":"Mawai","country":"MY","lat":1.8685,"lon":103.9568},{"name":"Melor","country":"MY","lat":5.96561,"lon":102.29422},{"name":"Menglembu","country":"MY","lat":4.5594,"lon":101.0484},{"name":"Mentakab","country":"MY","lat":3.4854,"lon":102.3484},{"name":"Merlimau","country":"MY","lat":2.1449,"lon":102.4251},{"name":"Mersing","country":"MY","lat":2.4312,"lon":103.8405},{"name":"Meru","country":"MY","lat":3.13622,"lon":101.4394},{"name":"Metro City New Township","country":"MY","lat":1.56798,"lon":110.30588},{"name":"Miri","country":"MY","lat":4.39928,"lon":113.99163},{"name":"Mont Kiara","country":"MY","lat":3.16866,"lon":101.65076},{"name":"Morib","country":"MY","lat":2.7518,"lon":101.44433},{"name":"Muadzam Shah","country":"MY","lat":3.0627,"lon":103.0892},{"name":"Muar","country":"MY","lat":2.0442,"lon":102.5689},{"name":"Mukah","country":"MY","lat":2.89435,"lon":112.09145},{"name":"Mukim Pulai","country":"MY","lat":1.53333,"lon":103.66667},{"name":"Mukim Tioman","country":"MY","lat":2.7825,"lon":104.17},{"name":"Mulu","country":"MY","lat":1.68333,"lon":111.38333},{"name":"Mutiara Damansara","country":"MY","lat":3.15724,"lon":101.60822},{"name":"Nanga Medamit","country":"MY","lat":4.46667,"lon":114.91667},{"name":"Nanga Merit","country":"MY","lat":2.28333,"lon":113.13333},{"name":"Neram Satu","country":"MY","lat":4.0129,"lon":103.2766},{"name":"Niah","country":"MY","lat":3.86203,"lon":113.71521},{"name":"Nibong Tebal","country":"MY","lat":5.16586,"lon":100.47793},{"name":"Niyor","country":"MY","lat":2.0945,"lon":103.2807},{"name":"Nyalas","country":"MY","lat":2.4338,"lon":102.4714},{"name":"Oya","country":"MY","lat":2.86667,"lon":111.88333},{"name":"Padang Besar","country":"MY","lat":6.38333,"lon":100.3},{"name":"Padang Endau","country":"MY","lat":2.65568,"lon":103.61504},{"name":"Padang Hang","country":"MY","lat":6.20635,"lon":100.30177},{"name":"Padang Mat Sirat","country":"MY","lat":6.35423,"lon":99.73404},{"name":"Padang Rengas","country":"MY","lat":4.76667,"lon":100.85},{"name":"Padang Serai","country":"MY","lat":5.51307,"lon":100.55356},{"name":"Padang Sira","country":"MY","lat":6.36211,"lon":100.33954},{"name":"Padang Tengku","country":"MY","lat":4.23238,"lon":101.98986},{"name":"Pagoh","country":"MY","lat":2.1495,"lon":102.7704},{"name":"Paka","country":"MY","lat":4.6374,"lon":103.4368},{"name":"Pakan","country":"MY","lat":1.88333,"lon":111.68333},{"name":"Paloh","country":"MY","lat":2.1904,"lon":103.1963},{"name":"Pandamaran","country":"MY","lat":3.01083,"lon":101.42081},{"name":"Pangkor","country":"MY","lat":4.2134,"lon":100.5747},{"name":"Pantai Belimbing","country":"MY","lat":2.3436,"lon":102.2567},{"name":"Pantai Cenang","country":"MY","lat":6.29369,"lon":99.72786},{"name":"Pantai Remis","country":"MY","lat":4.4557,"lon":100.6288},{"name":"Pantu","country":"MY","lat":1.13968,"lon":111.11771},{"name":"Papar","country":"MY","lat":5.73333,"lon":115.93333},{"name":"Parit","country":"MY","lat":4.48333,"lon":100.91667},{"name":"Parit Buntar","country":"MY","lat":5.12671,"lon":100.49316},{"name":"Parit Jawa","country":"MY","lat":1.9577,"lon":102.6401},{"name":"Parit Raja","country":"MY","lat":1.8681,"lon":103.1124},{"name":"Parit Sulung","country":"MY","lat":1.976,"lon":102.8835},{"name":"Pasir Gudang","country":"MY","lat":1.462,"lon":103.9053},{"name":"Pasir Mas","country":"MY","lat":6.04934,"lon":102.13987},{"name":"Pasir Panjang","country":"MY","lat":2.4322,"lon":101.9352},{"name":"Pasir Puteh","country":"MY","lat":5.83333,"lon":102.4},{"name":"Paya Terubong","country":"MY","lat":5.37278,"lon":100.27972},{"name":"Pekan","country":"MY","lat":3.4836,"lon":103.3996},{"name":"Pekan Nenas","country":"MY","lat":1.51,"lon":103.5141},{"name":"Pekan Serkat","country":"MY","lat":1.3033,"lon":103.4894},{"name":"Pelabuhan Klang","country":"MY","lat":2.99959,"lon":101.39287},{"name":"Pelentong","country":"MY","lat":1.5243,"lon":103.824},{"name":"Penaga","country":"MY","lat":5.52719,"lon":100.3841},{"name":"Pendang","country":"MY","lat":5.99516,"lon":100.47885},{"name":"Pengerang","country":"MY","lat":1.3651,"lon":104.1118},{"name":"Pengkalan Chepa","country":"MY","lat":6.17471,"lon":102.28802},{"name":"Pengkalan Kundor","country":"MY","lat":6.07794,"lon":100.36038},{"name":"Penyabong","country":"MY","lat":1.63109,"lon":104.1469},{"name":"Perai","country":"MY","lat":5.38333,"lon":100.38333},{"name":"Peringat","country":"MY","lat":6.03333,"lon":102.28333},{"name":"Perling","country":"MY","lat":1.48061,"lon":103.68381},{"name":"Permatang Kuching","country":"MY","lat":5.46339,"lon":100.38144},{"name":"Permatang Pasir","country":"MY","lat":5.41628,"lon":100.43864},{"name":"Petagas","country":"MY","lat":5.91161,"lon":116.04991},{"name":"Petaling Jaya","country":"MY","lat":3.10726,"lon":101.60671},{"name":"Pokok Sena","country":"MY","lat":6.17055,"lon":100.51885},{"name":"Pontian Besar","country":"MY","lat":1.5059,"lon":103.3816},{"name":"Pontian Kechil","country":"MY","lat":1.4866,"lon":103.3896},{"name":"Port Dickson","country":"MY","lat":2.52462,"lon":101.79651},{"name":"Proton City","country":"MY","lat":3.74287,"lon":101.5352},{"name":"Puchong","country":"MY","lat":3,"lon":101.61667},{"name":"Pudu","country":"MY","lat":3.13333,"lon":101.71667},{"name":"Pulai","country":"MY","lat":5.65489,"lon":100.89541},{"name":"Pulai Chondong","country":"MY","lat":5.87133,"lon":102.23177},{"name":"Pulau Sebang","country":"MY","lat":2.455,"lon":102.2329},{"name":"Pusa","country":"MY","lat":1.58333,"lon":111.25},{"name":"Pusing","country":"MY","lat":4.4941,"lon":101.0079},{"name":"Putatan","country":"MY","lat":5.9258,"lon":116.06094},{"name":"Putra Heights","country":"MY","lat":2.99361,"lon":101.57255},{"name":"Putrajaya","country":"MY","lat":2.93527,"lon":101.69112},{"name":"Ranau","country":"MY","lat":5.9538,"lon":116.6641},{"name":"Rantau Panjang","country":"MY","lat":6.0219,"lon":101.9767},{"name":"Rasa","country":"MY","lat":3.4955,"lon":101.6294},{"name":"Raub","country":"MY","lat":3.7899,"lon":101.857},{"name":"Rawang","country":"MY","lat":3.3213,"lon":101.5767},{"name":"Redang Panjang","country":"MY","lat":5.11667,"lon":100.78333},{"name":"Relau","country":"MY","lat":5.33096,"lon":100.28296},{"name":"Rembau","country":"MY","lat":2.5897,"lon":102.0913},{"name":"Rembia","country":"MY","lat":2.328,"lon":102.2101},{"name":"Rengit","country":"MY","lat":1.6807,"lon":103.1478},{"name":"Ringlet","country":"MY","lat":4.4155,"lon":101.3836},{"name":"Roban","country":"MY","lat":1.91667,"lon":111.33333},{"name":"Rompin","country":"MY","lat":2.7083,"lon":102.5047},{"name":"Sabak Bernam","country":"MY","lat":3.7698,"lon":100.9879},{"name":"Sala Kechik","country":"MY","lat":5.98425,"lon":100.34923},{"name":"Sandakan","country":"MY","lat":5.8402,"lon":118.1179},{"name":"Saratok","country":"MY","lat":1.73333,"lon":111.33333},{"name":"Sarikei","country":"MY","lat":2.11667,"lon":111.51667},{"name":"Sebauh","country":"MY","lat":3.11667,"lon":113.26667},{"name":"Sebuyau","country":"MY","lat":1.51667,"lon":110.93333},{"name":"Segamat","country":"MY","lat":2.5148,"lon":102.8158},{"name":"Sekinchan","country":"MY","lat":3.5074,"lon":101.1041},{"name":"Selama","country":"MY","lat":5.2236,"lon":100.69262},{"name":"Selama Kedah","country":"MY","lat":5.23242,"lon":100.68284},{"name":"Selangau","country":"MY","lat":2.52477,"lon":112.32543},{"name":"Selayang Baru Utara","country":"MY","lat":3.2549,"lon":101.6668},{"name":"Sematan","country":"MY","lat":1.8,"lon":109.76667},{"name":"Semenyih","country":"MY","lat":2.9516,"lon":101.843},{"name":"Semerah","country":"MY","lat":1.8845,"lon":102.7832},{"name":"Seminyih","country":"MY","lat":2.94761,"lon":101.84695},{"name":"Semporna","country":"MY","lat":4.48178,"lon":118.61119},{"name":"Senggarang","country":"MY","lat":1.7511,"lon":103.0494},{"name":"Sentul","country":"MY","lat":3.18333,"lon":101.68333},{"name":"Sepang","country":"MY","lat":2.6931,"lon":101.7498},{"name":"Seputeh","country":"MY","lat":3.11667,"lon":101.68333},{"name":"Serdang","country":"MY","lat":5.20372,"lon":100.62476},{"name":"Seremban","country":"MY","lat":2.7297,"lon":101.9381},{"name":"Seremban 2","country":"MY","lat":2.68982,"lon":101.90766},{"name":"Seremban 3","country":"MY","lat":2.67361,"lon":101.93111},{"name":"Serendah","country":"MY","lat":3.3646,"lon":101.6041},{"name":"Seri Iskandar","country":"MY","lat":4.35993,"lon":100.98491},{"name":"Seri Kembangan","country":"MY","lat":3.03333,"lon":101.71667},{"name":"Seri Manjung","country":"MY","lat":4.1987,"lon":100.67},{"name":"Serian","country":"MY","lat":1.16667,"lon":110.56667},{"name":"Setapak","country":"MY","lat":3.207,"lon":101.727},{"name":"Setia Alam","country":"MY","lat":3.10155,"lon":101.45565},{"name":"Setia Tropika","country":"MY","lat":1.54631,"lon":103.71829},{"name":"Shah Alam","country":"MY","lat":3.08507,"lon":101.53281},{"name":"Sibu","country":"MY","lat":2.3,"lon":111.81667},{"name":"Sibu Jaya","country":"MY","lat":2.24026,"lon":111.97135},{"name":"Siburan","country":"MY","lat":1.36667,"lon":110.4},{"name":"Sik","country":"MY","lat":5.83333,"lon":100.75},{"name":"Simpang","country":"MY","lat":4.81667,"lon":100.7},{"name":"Simpang Empat","country":"MY","lat":4.95,"lon":100.63333},{"name":"Simpang Empat","country":"MY","lat":5.2818,"lon":100.47768},{"name":"Simpang Empat","country":"MY","lat":6.02674,"lon":100.39603},{"name":"Simpang Pertang","country":"MY","lat":2.9434,"lon":102.2589},{"name":"Simpang Renggam","country":"MY","lat":1.825,"lon":103.3107},{"name":"Simunjan","country":"MY","lat":1.38333,"lon":110.75},{"name":"Sintok","country":"MY","lat":6.44233,"lon":100.5235},{"name":"Sipitang","country":"MY","lat":5.07903,"lon":115.54964},{"name":"Sitiawan","country":"MY","lat":4.2168,"lon":100.6996},{"name":"Skudai","country":"MY","lat":1.53741,"lon":103.65779},{"name":"Slim River","country":"MY","lat":3.83333,"lon":101.4},{"name":"Song","country":"MY","lat":2.01667,"lon":112.55},{"name":"Spaoh","country":"MY","lat":1.5,"lon":111.5},{"name":"Sri Aman","country":"MY","lat":1.24722,"lon":111.45278},{"name":"Sri Petaling","country":"MY","lat":3.06881,"lon":101.68971},{"name":"SS2","country":"MY","lat":3.12036,"lon":101.62246},{"name":"Subang Jaya","country":"MY","lat":3.04384,"lon":101.58062},{"name":"Sundar","country":"MY","lat":4.9,"lon":115.2},{"name":"Sungai Baharu","country":"MY","lat":6.16399,"lon":100.33392},{"name":"Sungai Bakap","country":"MY","lat":5.22231,"lon":100.49541},{"name":"Sungai Besar","country":"MY","lat":3.6746,"lon":100.9867},{"name":"Sungai Buloh","country":"MY","lat":3.21,"lon":101.561},{"name":"Sungai Chenaam","country":"MY","lat":5.14609,"lon":100.4092},{"name":"Sungai Dua","country":"MY","lat":5.44266,"lon":100.42972},{"name":"Sungai Durian","country":"MY","lat":4.31667,"lon":101.05},{"name":"Sungai Jawi","country":"MY","lat":5.19779,"lon":100.49244},{"name":"Sungai Kob","country":"MY","lat":5.42998,"lon":100.64484},{"name":"Sungai Koyan","country":"MY","lat":4.21864,"lon":101.8015},{"name":"Sungai Lalang","country":"MY","lat":5.6998,"lon":100.51449},{"name":"Sungai Lembing","country":"MY","lat":3.9178,"lon":103.0361},{"name":"Sungai Pelek New Village","country":"MY","lat":2.65,"lon":101.7},{"name":"Sungai Petani","country":"MY","lat":5.647,"lon":100.48772},{"name":"Sungai Siput","country":"MY","lat":4.3945,"lon":101.1947},{"name":"Sungai Sumun","country":"MY","lat":3.8915,"lon":100.8532},{"name":"Sungai Udang","country":"MY","lat":2.269,"lon":102.1427},{"name":"Sungkai","country":"MY","lat":4,"lon":101.31667},{"name":"Taiping","country":"MY","lat":4.85,"lon":100.73333},{"name":"Taman Desa","country":"MY","lat":3.10591,"lon":101.68683},{"name":"Taman Dusun Setia","country":"MY","lat":2.7141,"lon":101.9644},{"name":"Taman Greenwood","country":"MY","lat":3.23208,"lon":101.70484},{"name":"Taman Ikan Emas","country":"MY","lat":3.11619,"lon":101.7202},{"name":"Taman Kota Sarang Semut","country":"MY","lat":5.97907,"lon":100.39993},{"name":"Taman Melati","country":"MY","lat":3.22124,"lon":101.72324},{"name":"Taman Melawati","country":"MY","lat":3.21083,"lon":101.74825},{"name":"Taman Mount Austin","country":"MY","lat":1.5609,"lon":103.782},{"name":"Taman Naga Emas","country":"MY","lat":3.07775,"lon":101.69758},{"name":"Taman OUG","country":"MY","lat":3.07292,"lon":101.6763},{"name":"Taman Pelangi","country":"MY","lat":2.428,"lon":102.6801},{"name":"Taman Permas Jaya","country":"MY","lat":1.511,"lon":103.8198},{"name":"Taman Petaling","country":"MY","lat":3.19916,"lon":101.64983},{"name":"Taman Rajawali","country":"MY","lat":5.89477,"lon":118.04576},{"name":"Taman Scientex","country":"MY","lat":1.51219,"lon":103.9166},{"name":"Taman Senai","country":"MY","lat":1.6006,"lon":103.6419},{"name":"Taman Senawang Indah","country":"MY","lat":2.691,"lon":101.989},{"name":"Taman Sepang Putra","country":"MY","lat":2.623,"lon":101.7027},{"name":"Taman Seremban Jaya","country":"MY","lat":2.6831,"lon":101.97},{"name":"Taman Sri Sinar","country":"MY","lat":3.1868,"lon":101.65085},{"name":"Taman Tun Dr Ismail","country":"MY","lat":3.14506,"lon":101.62617},{"name":"Taman Universiti","country":"MY","lat":1.5331,"lon":103.6155},{"name":"Tambunan","country":"MY","lat":5.71667,"lon":116.4},{"name":"Tampin","country":"MY","lat":2.4701,"lon":102.2302},{"name":"Tanah Merah","country":"MY","lat":5.8,"lon":102.15},{"name":"Tanah Rata","country":"MY","lat":4.46361,"lon":101.3763},{"name":"Tangkak","country":"MY","lat":2.2673,"lon":102.5453},{"name":"Tanjong Malim","country":"MY","lat":3.681,"lon":101.5198},{"name":"Tanjung Bungah","country":"MY","lat":5.46491,"lon":100.28165},{"name":"Tanjung Piandang","country":"MY","lat":5.07236,"lon":100.38105},{"name":"Tanjung Rambutan","country":"MY","lat":4.6706,"lon":101.1546},{"name":"Tanjung Sepat","country":"MY","lat":2.6579,"lon":101.5629},{"name":"Tanjung Tokong","country":"MY","lat":5.46061,"lon":100.30742},{"name":"Tapah Road","country":"MY","lat":4.16667,"lon":101.2},{"name":"Tasek Glugor","country":"MY","lat":5.48032,"lon":100.49849},{"name":"Tatau","country":"MY","lat":2.88333,"lon":112.85},{"name":"Tawau","country":"MY","lat":4.24482,"lon":117.89115},{"name":"Tebedu","country":"MY","lat":1.02656,"lon":110.36331},{"name":"Tebengau","country":"MY","lat":6.04603,"lon":100.33137},{"name":"Telaga Batu","country":"MY","lat":5.46667,"lon":100.23333},{"name":"Telaga Mas","country":"MY","lat":6.16667,"lon":100.46667},{"name":"Teloi Kanan","country":"MY","lat":5.71681,"lon":100.65819},{"name":"Teluk Bahang","country":"MY","lat":5.45834,"lon":100.21541},{"name":"Teluk Intan","country":"MY","lat":4.02219,"lon":101.02083},{"name":"Teluk Mas","country":"MY","lat":2.1654,"lon":102.322},{"name":"Teluk Panglima Garang","country":"MY","lat":2.90796,"lon":101.46877},{"name":"Temerluh","country":"MY","lat":3.4506,"lon":102.4176},{"name":"Templer Bestari","country":"MY","lat":3.29111,"lon":101.63802},{"name":"Tenom","country":"MY","lat":5.11922,"lon":115.93719},{"name":"Teras","country":"MY","lat":3.742,"lon":101.8112},{"name":"Terung","country":"MY","lat":4.71667,"lon":100.73333},{"name":"Tikam Batu","country":"MY","lat":5.58718,"lon":100.44018},{"name":"Titi","country":"MY","lat":2.9983,"lon":102.0765},{"name":"Titi Gajah","country":"MY","lat":6.20189,"lon":100.39326},{"name":"Titiwangsa","country":"MY","lat":3.17822,"lon":101.70312},{"name":"Tokai","country":"MY","lat":6.02867,"lon":100.40691},{"name":"Tongkang Pechah","country":"MY","lat":1.9203,"lon":102.9561},{"name":"Tropicana Indah","country":"MY","lat":3.14165,"lon":101.59089},{"name":"Trusan","country":"MY","lat":4.7849,"lon":115.2728},{"name":"Tumpat","country":"MY","lat":6.19775,"lon":102.17098},{"name":"Ujong Pasir","country":"MY","lat":2.18914,"lon":102.27262},{"name":"Ulu Kelang","country":"MY","lat":3.18,"lon":101.773},{"name":"Ulu Kinta","country":"MY","lat":4.66667,"lon":101.21667},{"name":"Ulu Tiram","country":"MY","lat":1.6,"lon":103.81667},{"name":"Val Dor","country":"MY","lat":5.25198,"lon":100.49046},{"name":"Wakaf Baharu","country":"MY","lat":6.11667,"lon":102.2},{"name":"Wallace Bay","country":"MY","lat":4.2555,"lon":117.6678},{"name":"Wangsa Maju","country":"MY","lat":3.20056,"lon":101.73972},{"name":"Yan Besar","country":"MY","lat":5.7989,"lon":100.37264},{"name":"Yong Peng","country":"MY","lat":2.0136,"lon":103.0659}]