[{"name":"Abala","country":"NE","lat":14.9369,"lon":3.4336},{"name":"Abalak","country":"NE","lat":15.4509,"lon":6.2793},{"name":"Adérbissinat","country":"NE","lat":15.6275,"lon":7.8945},{"name":"Agadez","country":"NE","lat":16.97333,"lon":7.99111},{"name":"Aguié","country":"NE","lat":13.50601,"lon":7.77863},{"name":"Alaghsas","country":"NE","lat":17.0187,"lon":8.0168},{"name":"Arlit","country":"NE","lat":18.73694,"lon":7.38528},{"name":"Ayorou","country":"NE","lat":14.73075,"lon":0.91739},{"name":"Bagaroua","country":"NE","lat":14.63616,"lon":4.34896},{"name":"Baléyara","country":"NE","lat":13.7838,"lon":2.9523},{"name":"Bani Bangou","country":"NE","lat":15.0416,"lon":2.7037},{"name":"Bankilaré","country":"NE","lat":14.57653,"lon":0.72669},{"name":"Bélbéji","country":"NE","lat":14.6769,"lon":7.98282},{"name":"Bermo","country":"NE","lat":14.70816,"lon":6.61908},{"name":"Bilma","country":"NE","lat":18.68532,"lon":12.91643},{"name":"Birni N Konni","country":"NE","lat":13.79599,"lon":5.25026},{"name":"Birnin Gaouré","country":"NE","lat":13.08173,"lon":2.91099},{"name":"Bosso","country":"NE","lat":13.69869,"lon":13.30951},{"name":"Bouza","country":"NE","lat":14.42293,"lon":6.04278},{"name":"Dakoro","country":"NE","lat":14.51056,"lon":6.765},{"name":"Damagaram Takèr","country":"NE","lat":14.1377,"lon":9.4842},{"name":"Diffa","country":"NE","lat":13.31536,"lon":12.61135},{"name":"Dioundiou","country":"NE","lat":12.61677,"lon":3.54427},{"name":"Dogondoutchi","country":"NE","lat":13.6403,"lon":4.02649},{"name":"Dosso","country":"NE","lat":13.049,"lon":3.1937},{"name":"Dungas","country":"NE","lat":13.06153,"lon":9.34342},{"name":"Falmey","country":"NE","lat":12.59539,"lon":2.85112},{"name":"Filingué","country":"NE","lat":14.3521,"lon":3.3168},{"name":"Gaya","country":"NE","lat":11.88435,"lon":3.44919},{"name":"Gazaoua","country":"NE","lat":13.52578,"lon":7.91398},{"name":"Gothèye","country":"NE","lat":13.8559,"lon":1.56707},{"name":"Goudoumaria","country":"NE","lat":13.7109,"lon":11.1885},{"name":"Gouré","country":"NE","lat":13.9835,"lon":10.27035},{"name":"Guidan Roumdji","country":"NE","lat":13.6576,"lon":6.69567},{"name":"I-n-Gall","country":"NE","lat":16.78778,"lon":6.93417},{"name":"Iferouâne","country":"NE","lat":19.0625,"lon":8.42},{"name":"Illéla","country":"NE","lat":14.4605,"lon":5.2437},{"name":"Kantché","country":"NE","lat":13.53926,"lon":8.46293},{"name":"Keïta","country":"NE","lat":14.7551,"lon":5.7749},{"name":"Kollo","country":"NE","lat":13.3043,"lon":2.339},{"name":"Loga","country":"NE","lat":13.6132,"lon":3.2358},{"name":"Madaoua","country":"NE","lat":14.073,"lon":5.96},{"name":"Madarounfa","country":"NE","lat":13.30867,"lon":7.15602},{"name":"Magaria","country":"NE","lat":12.99826,"lon":8.90991},{"name":"Maïné Soroa","country":"NE","lat":13.21139,"lon":12.0241},{"name":"Malbaza","country":"NE","lat":13.92706,"lon":5.52032},{"name":"Maradi","country":"NE","lat":13.5,"lon":7.10174},{"name":"Matamey","country":"NE","lat":13.42309,"lon":8.47485},{"name":"Mayahi","country":"NE","lat":13.95532,"lon":7.67122},{"name":"Mirriah","country":"NE","lat":13.70727,"lon":9.15013},{"name":"Ngourti","country":"NE","lat":15.33128,"lon":13.19932},{"name":"Nguigmi","country":"NE","lat":14.24953,"lon":13.10921},{"name":"Niamey","country":"NE","lat":13.51366,"lon":2.1098},{"name":"Ouallam","country":"NE","lat":14.31641,"lon":2.08597},{"name":"Say","country":"NE","lat":13.1007,"lon":2.3689},{"name":"Tahoua","country":"NE","lat":14.8888,"lon":5.2692},{"name":"Takiéta","country":"NE","lat":13.68066,"lon":8.52904},{"name":"Tanout","country":"NE","lat":14.97089,"lon":8.88786},{"name":"Tasker","country":"NE","lat":15.11744,"lon":10.69687},{"name":"Tassara","country":"NE","lat":16.80472,"lon":5.64417},{"name":"Tchin Tabaradèn","country":"NE","lat":15.8969,"lon":5.7985},{"name":"Tchirozérine","country":"NE","lat":17.22096,"lon":7.7614},{"name":"Téra","country":"NE","lat":14.00776,"lon":0.75306},{"name":"Tessaoua","country":"NE","lat":13.75737,"lon":7.9874},{"name":"Tibiri","country":"NE","lat":13.56271,"lon":7.04848},{"name":"Tibiri","country":"NE","lat":13.10575,"lon":3.99774},{"name":"Tillabéri","country":"NE","lat":14.20711,"lon":1.45418},{"name":"Tillia","country":"NE","lat":16.12333,"lon":4.78972},{"name":"Torodi","country":"NE","lat":13.11915,"lon":1.79869},{"name":"Zinder","country":"NE","lat":13.80716,"lon":8.9881}]