[{"name":"‘Ibrī","country":"OM","lat":23.22573,"lon":56.51572},{"name":"Adam","country":"OM","lat":22.37934,"lon":57.52718},{"name":"Al Buraymī","country":"OM","lat":24.25088,"lon":55.79312},{"name":"Al Khābūrah","country":"OM","lat":23.97144,"lon":57.09313},{"name":"Al Mazyūnah","country":"OM","lat":17.83836,"lon":52.66042},{"name":"Al Qābil","country":"OM","lat":22.571,"lon":58.69472},{"name":"As Suwayq","country":"OM","lat":23.84944,"lon":57.43861},{"name":"Badīyah","country":"OM","lat":22.45,"lon":58.8},{"name":"Bahlā’","country":"OM","lat":22.97886,"lon":57.3047},{"name":"Barkā’","country":"OM","lat":23.67872,"lon":57.88605},{"name":"Bawshar","country":"OM","lat":23.57769,"lon":58.39982},{"name":"Bayt al ‘Awābī","country":"OM","lat":23.30324,"lon":57.52459},{"name":"Bidbid","country":"OM","lat":23.40787,"lon":58.1283},{"name":"Dib Dibba","country":"OM","lat":26.19778,"lon":56.25778},{"name":"Haymā’","country":"OM","lat":19.95931,"lon":56.27575},{"name":"Ibrā’","country":"OM","lat":22.69057,"lon":58.53337},{"name":"Izkī","country":"OM","lat":22.93333,"lon":57.76667},{"name":"Khasab","country":"OM","lat":26.17993,"lon":56.24774},{"name":"Liwá","country":"OM","lat":24.53077,"lon":56.563},{"name":"Madḩā’ al Jadīdah","country":"OM","lat":25.28345,"lon":56.3328},{"name":"Muscat","country":"OM","lat":23.58413,"lon":58.40778},{"name":"Nizwá","country":"OM","lat":22.93333,"lon":57.53333},{"name":"Rustaq","country":"OM","lat":23.39083,"lon":57.42444},{"name":"Şaḩam","country":"OM","lat":24.17222,"lon":56.88861},{"name":"Şalālah","country":"OM","lat":17.01505,"lon":54.09237},{"name":"Seeb","country":"OM","lat":23.67027,"lon":58.18911},{"name":"Shināş","country":"OM","lat":24.7426,"lon":56.46698},{"name":"Sohar","country":"OM","lat":24.34745,"lon":56.70937},{"name":"Sufālat Samā’il","country":"OM","lat":23.31667,"lon":58.01667},{"name":"Sur","country":"OM","lat":22.56667,"lon":59.52889},{"name":"Yanqul","country":"OM","lat":23.58645,"lon":56.53969}]