[{"name":"Aanislag","country":"PH","lat":13.0748,"lon":123.703},{"name":"Abaca","country":"PH","lat":11.1342,"lon":122.7156},{"name":"Abaca","country":"PH","lat":9.9204,"lon":124.5051},{"name":"Abaga","country":"PH","lat":7.9384,"lon":123.7724},{"name":"Abangay","country":"PH","lat":10.96667,"lon":122.65},{"name":"Abiera","country":"PH","lat":11.5749,"lon":122.09},{"name":"Abilay","country":"PH","lat":10.73333,"lon":122.5},{"name":"Abis","country":"PH","lat":9.7173,"lon":122.9438},{"name":"Aborlan","country":"PH","lat":9.43361,"lon":118.54879},{"name":"Abra de Ilog","country":"PH","lat":13.4437,"lon":120.7291},{"name":"Abucay","country":"PH","lat":14.73347,"lon":120.53358},{"name":"Abucay","country":"PH","lat":12.982,"lon":123.6492},{"name":"Abucayan","country":"PH","lat":9.929,"lon":123.9146},{"name":"Abulug","country":"PH","lat":18.44528,"lon":121.45333},{"name":"Abut","country":"PH","lat":17.35423,"lon":121.60138},{"name":"Abuyog","country":"PH","lat":12.9461,"lon":124.0519},{"name":"Abuyog","country":"PH","lat":10.747,"lon":125.0107},{"name":"Abuyon","country":"PH","lat":13.6226,"lon":122.5191},{"name":"Acao","country":"PH","lat":16.52556,"lon":120.37639},{"name":"Accusilian","country":"PH","lat":17.74791,"lon":121.46254},{"name":"Acli","country":"PH","lat":15.12279,"lon":120.6447},{"name":"Adams","country":"PH","lat":18.46667,"lon":120.9},{"name":"Adela","country":"PH","lat":12.44164,"lon":120.97291},{"name":"Adlaon","country":"PH","lat":10.3,"lon":123.9},{"name":"Adlay","country":"PH","lat":9.40972,"lon":125.8975},{"name":"Adtugan","country":"PH","lat":7.81194,"lon":124.85444},{"name":"Afusing Centro","country":"PH","lat":17.8526,"lon":121.6269},{"name":"Ag-ambulong","country":"PH","lat":11.3684,"lon":122.5094},{"name":"Aga","country":"PH","lat":14.0965,"lon":120.80217},{"name":"Aganan","country":"PH","lat":10.78333,"lon":122.53333},{"name":"Agay","country":"PH","lat":9.05361,"lon":125.58667},{"name":"Agbannawag","country":"PH","lat":17.37641,"lon":121.5478},{"name":"Agbannawag","country":"PH","lat":15.6792,"lon":121.0833},{"name":"Agcogon","country":"PH","lat":12.06146,"lon":121.95911},{"name":"Agdangan","country":"PH","lat":13.8771,"lon":121.91305},{"name":"Aggugaddah","country":"PH","lat":17.70016,"lon":121.8025},{"name":"Aglalana","country":"PH","lat":11.1803,"lon":122.6574},{"name":"Aglayan","country":"PH","lat":8.055,"lon":125.13417},{"name":"Aglipay","country":"PH","lat":16.4889,"lon":121.645},{"name":"Agno","country":"PH","lat":16.1161,"lon":119.7993},{"name":"Agoncillo","country":"PH","lat":13.93556,"lon":120.93261},{"name":"Agoo","country":"PH","lat":16.3228,"lon":120.3666},{"name":"Agoo","country":"PH","lat":16.08333,"lon":120.1},{"name":"Agos","country":"PH","lat":13.3434,"lon":123.3983},{"name":"Agpangi","country":"PH","lat":10.57716,"lon":123.4232},{"name":"Agsungot","country":"PH","lat":10.43444,"lon":123.90611},{"name":"Aguada","country":"PH","lat":12.81667,"lon":123.83333},{"name":"Aguilar","country":"PH","lat":15.8884,"lon":120.2378},{"name":"Aguining","country":"PH","lat":10.0861,"lon":124.5944},{"name":"Aguisan","country":"PH","lat":10.1603,"lon":122.8615},{"name":"Agupit","country":"PH","lat":13.4225,"lon":123.32472},{"name":"Agusan","country":"PH","lat":8.49056,"lon":124.73722},{"name":"Agutaya","country":"PH","lat":11.148,"lon":120.9417},{"name":"Ajuy","country":"PH","lat":11.1724,"lon":123.0197},{"name":"Akle","country":"PH","lat":15.0482,"lon":121.0733},{"name":"Al-Barka","country":"PH","lat":6.48623,"lon":122.17552},{"name":"Alabat","country":"PH","lat":14.101,"lon":122.0125},{"name":"Alabel","country":"PH","lat":6.10179,"lon":125.29048},{"name":"Alabug","country":"PH","lat":17.73261,"lon":121.46773},{"name":"Alac","country":"PH","lat":15.9877,"lon":120.8065},{"name":"Alacaygan","country":"PH","lat":10.84014,"lon":123.0583},{"name":"Alad","country":"PH","lat":12.61682,"lon":122.24751},{"name":"Alae","country":"PH","lat":8.42444,"lon":124.81278},{"name":"Alamada","country":"PH","lat":7.33333,"lon":124.56667},{"name":"Alaminos","country":"PH","lat":16.15611,"lon":119.98111},{"name":"Alaminos","country":"PH","lat":14.06391,"lon":121.24649},{"name":"Alangalang","country":"PH","lat":11.20611,"lon":124.84667},{"name":"Alangilan","country":"PH","lat":9.2793,"lon":122.8789},{"name":"Alangilanan","country":"PH","lat":9.642,"lon":123.1059},{"name":"Alanib","country":"PH","lat":8.02778,"lon":124.98611},{"name":"Alannay","country":"PH","lat":18.06114,"lon":121.58616},{"name":"Alaska","country":"PH","lat":16.38134,"lon":120.33676},{"name":"Alayao","country":"PH","lat":14.2818,"lon":122.5524},{"name":"Albuera","country":"PH","lat":10.9158,"lon":124.6945},{"name":"Alburquerque","country":"PH","lat":9.60806,"lon":123.95806},{"name":"Alcala","country":"PH","lat":17.9021,"lon":121.65595},{"name":"Alcala","country":"PH","lat":15.84722,"lon":120.52417},{"name":"Alcantara","country":"PH","lat":12.2589,"lon":122.0544},{"name":"Alcantara","country":"PH","lat":9.97556,"lon":123.40611},{"name":"Alcoy","country":"PH","lat":9.7102,"lon":123.5067},{"name":"Alegria","country":"PH","lat":12.3984,"lon":124.3261},{"name":"Alegria","country":"PH","lat":10.64345,"lon":123.0836},{"name":"Alegria","country":"PH","lat":9.7289,"lon":123.3398},{"name":"Alegria","country":"PH","lat":9.46694,"lon":125.57722},{"name":"Alegria","country":"PH","lat":8.50667,"lon":126.01194},{"name":"Alejal","country":"PH","lat":7.38417,"lon":125.66},{"name":"Alemanguan","country":"PH","lat":10.61177,"lon":119.3268},{"name":"Alfonso","country":"PH","lat":14.14083,"lon":120.85389},{"name":"Alfonso Castañeda","country":"PH","lat":15.8006,"lon":121.3054},{"name":"Algeciras","country":"PH","lat":11.4154,"lon":120.8168},{"name":"Aliaga","country":"PH","lat":15.5,"lon":120.843},{"name":"Aliang","country":"PH","lat":14.28333,"lon":120.88333},{"name":"Alibago","country":"PH","lat":17.11667,"lon":121.86667},{"name":"Alibug","country":"PH","lat":12.22906,"lon":121.22811},{"name":"Alibunan","country":"PH","lat":11.14652,"lon":122.45911},{"name":"Alicante","country":"PH","lat":10.89704,"lon":123.0185},{"name":"Alicia","country":"PH","lat":16.77936,"lon":121.69734},{"name":"Alicia","country":"PH","lat":9.8949,"lon":124.4422},{"name":"Alicia","country":"PH","lat":7.51389,"lon":122.93},{"name":"Alijis","country":"PH","lat":10.4583,"lon":122.8348},{"name":"Alilem","country":"PH","lat":16.8861,"lon":120.5304},{"name":"Alim","country":"PH","lat":9.5649,"lon":122.4876},{"name":"Alimodian","country":"PH","lat":10.82139,"lon":122.43111},{"name":"Alimono","country":"PH","lat":11.1855,"lon":122.7129},{"name":"Alitagtag","country":"PH","lat":13.8645,"lon":121.0041},{"name":"Allacapan","country":"PH","lat":18.22598,"lon":121.55615},{"name":"Allangigan Primero","country":"PH","lat":17.17393,"lon":120.49195},{"name":"Allen","country":"PH","lat":12.5006,"lon":124.2849},{"name":"Almagro","country":"PH","lat":11.9109,"lon":124.2858},{"name":"Almaguer North","country":"PH","lat":16.3497,"lon":121.0926},{"name":"Almendras","country":"PH","lat":15.27576,"lon":120.69873},{"name":"Almeria","country":"PH","lat":11.62028,"lon":124.38167},{"name":"Aloguinsan","country":"PH","lat":10.2219,"lon":123.5483},{"name":"Aloleng","country":"PH","lat":16.1307,"lon":119.7824},{"name":"Alpaco","country":"PH","lat":10.24378,"lon":123.6825},{"name":"Altavas","country":"PH","lat":11.538,"lon":122.487},{"name":"Alua","country":"PH","lat":15.31154,"lon":120.89433},{"name":"Alubijid","country":"PH","lat":8.57333,"lon":124.47361},{"name":"Alubijid","country":"PH","lat":8.96278,"lon":125.42583},{"name":"Alugan","country":"PH","lat":12.2188,"lon":125.4808},{"name":"Alupay","country":"PH","lat":13.84696,"lon":121.30719},{"name":"Amacalan","country":"PH","lat":15.5815,"lon":120.6112},{"name":"Amadeo","country":"PH","lat":14.17056,"lon":120.92361},{"name":"Amaga","country":"PH","lat":8.53083,"lon":126.07028},{"name":"Amagbagan","country":"PH","lat":16.0914,"lon":120.5232},{"name":"Amas","country":"PH","lat":7.05694,"lon":124.98389},{"name":"Ambuclao","country":"PH","lat":16.48333,"lon":120.75},{"name":"Ambulong","country":"PH","lat":14.08804,"lon":121.06127},{"name":"Ambulong","country":"PH","lat":11.5793,"lon":122.4987},{"name":"Amdos","country":"PH","lat":9.8821,"lon":123.0972},{"name":"Amio","country":"PH","lat":9.3571,"lon":122.9413},{"name":"Amlimay","country":"PH","lat":16.69377,"lon":120.83704},{"name":"Ampatuan","country":"PH","lat":6.86667,"lon":124.46667},{"name":"Ampusungan","country":"PH","lat":16.7804,"lon":120.7247},{"name":"Amucao","country":"PH","lat":15.46405,"lon":120.68643},{"name":"Amulung","country":"PH","lat":17.8357,"lon":121.72375},{"name":"Amuñgan","country":"PH","lat":15.3652,"lon":119.9582},{"name":"Anahawan","country":"PH","lat":10.3429,"lon":124.8782},{"name":"Anahawan","country":"PH","lat":10.27722,"lon":125.2625},{"name":"Anakan","country":"PH","lat":8.84778,"lon":125.15139},{"name":"Anambongan","country":"PH","lat":15.86634,"lon":120.38858},{"name":"Anao","country":"PH","lat":15.7291,"lon":120.6253},{"name":"Anao","country":"PH","lat":15.1415,"lon":120.69136},{"name":"Anda","country":"PH","lat":16.2892,"lon":119.95},{"name":"Anda","country":"PH","lat":9.746,"lon":124.5767},{"name":"Andalan","country":"PH","lat":5.95944,"lon":121.39028},{"name":"Andili","country":"PH","lat":7.462,"lon":125.9701},{"name":"Andop","country":"PH","lat":7.86111,"lon":125.75389},{"name":"Andres Bonifacio","country":"PH","lat":10.91667,"lon":123.25},{"name":"Angad","country":"PH","lat":17.5849,"lon":120.6257},{"name":"Angadanan","country":"PH","lat":16.75526,"lon":121.74834},{"name":"Angat","country":"PH","lat":14.9285,"lon":121.03},{"name":"Angatel","country":"PH","lat":15.80589,"lon":120.34326},{"name":"Angeles City","country":"PH","lat":15.15,"lon":120.58333},{"name":"Angono","country":"PH","lat":14.5266,"lon":121.1536},{"name":"Ani-e","country":"PH","lat":8.61361,"lon":124.87056},{"name":"Anibongan","country":"PH","lat":7.39333,"lon":125.71889},{"name":"Anilao","country":"PH","lat":12.71402,"lon":121.51242},{"name":"Anilao","country":"PH","lat":10.97778,"lon":122.75222},{"name":"Anini-y","country":"PH","lat":10.4312,"lon":121.927},{"name":"Anito","country":"PH","lat":12.44972,"lon":125.28861},{"name":"Anonang","country":"PH","lat":11,"lon":124.03333},{"name":"Anopog","country":"PH","lat":10.25,"lon":123.25},{"name":"Anoring","country":"PH","lat":11.25,"lon":123.03333},{"name":"Antagan Segunda","country":"PH","lat":17.28268,"lon":121.87153},{"name":"Antequera","country":"PH","lat":9.7809,"lon":123.8988},{"name":"Anticala","country":"PH","lat":9.00444,"lon":125.64528},{"name":"Antipolo","country":"PH","lat":15.6181,"lon":121.19},{"name":"Antipolo","country":"PH","lat":14.62578,"lon":121.12251},{"name":"Antipolo","country":"PH","lat":13.5286,"lon":123.1622},{"name":"Antipolo","country":"PH","lat":13.3927,"lon":123.5231},{"name":"Antipolo","country":"PH","lat":11.16667,"lon":123.95},{"name":"Antipolo","country":"PH","lat":10.3565,"lon":122.9646},{"name":"Anulid","country":"PH","lat":15.82563,"lon":120.48834},{"name":"Anuling","country":"PH","lat":14.12388,"lon":120.8922},{"name":"Anuling","country":"PH","lat":6.03556,"lon":121.00667},{"name":"Anuling","country":"PH","lat":13.2093,"lon":123.6761},{"name":"Apad","country":"PH","lat":13.815,"lon":122.7664},{"name":"Apalit","country":"PH","lat":14.95333,"lon":120.77},{"name":"Aparri","country":"PH","lat":18.3566,"lon":121.6406},{"name":"Apas","country":"PH","lat":10.34076,"lon":123.90261},{"name":"Apitong","country":"PH","lat":13.2391,"lon":121.2075},{"name":"Aplaya","country":"PH","lat":14.32106,"lon":121.11369},{"name":"Aplaya","country":"PH","lat":8.60861,"lon":124.76806},{"name":"Apoya","country":"PH","lat":9.2207,"lon":122.9053},{"name":"Apud","country":"PH","lat":13.13928,"lon":123.29164},{"name":"Apurawan","country":"PH","lat":9.5994,"lon":118.3489},{"name":"Aquino","country":"PH","lat":11.8221,"lon":122.1088},{"name":"Araal","country":"PH","lat":10.4195,"lon":123.0437},{"name":"Araceli","country":"PH","lat":10.5529,"lon":119.9913},{"name":"Aramawayan","country":"PH","lat":9.34247,"lon":118.1623},{"name":"Aramayuan","country":"PH","lat":9.17008,"lon":118.1872},{"name":"Aranas Sur","country":"PH","lat":11.5635,"lon":122.3901},{"name":"Aranda","country":"PH","lat":10.2365,"lon":122.9467},{"name":"Aras-asan","country":"PH","lat":8.88781,"lon":126.3112},{"name":"Arayat","country":"PH","lat":15.1505,"lon":120.7697},{"name":"Arcangel","country":"PH","lat":11.5395,"lon":122.3455},{"name":"Arenas","country":"PH","lat":15.17042,"lon":120.68571},{"name":"Argao","country":"PH","lat":9.87944,"lon":123.59556},{"name":"Aringay","country":"PH","lat":16.394,"lon":120.3545},{"name":"Aritao","country":"PH","lat":16.2979,"lon":121.0345},{"name":"Armenia","country":"PH","lat":12.25324,"lon":123.74361},{"name":"Arminia","country":"PH","lat":15.43563,"lon":120.56379},{"name":"Aroroy","country":"PH","lat":12.5111,"lon":123.3977},{"name":"Arteche","country":"PH","lat":12.2645,"lon":125.4048},{"name":"Asia","country":"PH","lat":9.5506,"lon":122.5164},{"name":"Asingan","country":"PH","lat":16.0051,"lon":120.6695},{"name":"Astorga","country":"PH","lat":6.90722,"lon":125.45583},{"name":"Asturga","country":"PH","lat":11.25449,"lon":122.8018},{"name":"Asturias","country":"PH","lat":10.5669,"lon":123.7161},{"name":"Atabayan","country":"PH","lat":10.68333,"lon":122.41667},{"name":"Atimonan","country":"PH","lat":14.0027,"lon":121.92078},{"name":"Atipuluhan","country":"PH","lat":10.51336,"lon":122.9621},{"name":"Atok","country":"PH","lat":16.58355,"lon":120.69949},{"name":"Atop-atop","country":"PH","lat":11.2322,"lon":123.7602},{"name":"Atulayan","country":"PH","lat":17.6648,"lon":121.6937},{"name":"Aumbay","country":"PH","lat":7.1026,"lon":125.7837},{"name":"Aurelliana","country":"PH","lat":10.8849,"lon":121.9769},{"name":"Aurora","country":"PH","lat":13.3476,"lon":122.5195},{"name":"Aurora","country":"PH","lat":16.99065,"lon":121.63664},{"name":"Aurora","country":"PH","lat":13.2322,"lon":121.1203},{"name":"Aurora","country":"PH","lat":8.59306,"lon":125.8375},{"name":"Aurora","country":"PH","lat":7.9506,"lon":123.5826},{"name":"Avila","country":"PH","lat":10.692,"lon":122.709},{"name":"Awallan","country":"PH","lat":17.92439,"lon":121.91305},{"name":"Awang","country":"PH","lat":7.15306,"lon":124.22111},{"name":"Aya","country":"PH","lat":13.8945,"lon":121.1139},{"name":"Ayala Alabang","country":"PH","lat":14.40599,"lon":121.02222},{"name":"Ayugan","country":"PH","lat":13.5469,"lon":123.3217},{"name":"Ayungon","country":"PH","lat":9.8589,"lon":123.1444},{"name":"Ayusan Uno","country":"PH","lat":13.95609,"lon":121.30765},{"name":"Azagra","country":"PH","lat":9.4779,"lon":123.1367},{"name":"Baao","country":"PH","lat":13.4549,"lon":123.3653},{"name":"Baay","country":"PH","lat":18.1188,"lon":120.5753},{"name":"Babag","country":"PH","lat":7.73309,"lon":126.0713},{"name":"Babak","country":"PH","lat":7.13639,"lon":125.6875},{"name":"Babatngon","country":"PH","lat":11.4238,"lon":124.8449},{"name":"Babo-Pangulo","country":"PH","lat":15.08333,"lon":120.51667},{"name":"Babug","country":"PH","lat":12.37325,"lon":121.04171},{"name":"Bacabac","country":"PH","lat":15.72477,"lon":120.42816},{"name":"Bacacay","country":"PH","lat":13.2934,"lon":123.7919},{"name":"Bacag","country":"PH","lat":15.93,"lon":120.58222},{"name":"Bacalan","country":"PH","lat":11.5464,"lon":122.0849},{"name":"Bacarra","country":"PH","lat":18.2529,"lon":120.6125},{"name":"Bacayawan","country":"PH","lat":7.76667,"lon":124.23333},{"name":"Bachauan","country":"PH","lat":11.2067,"lon":123.9634},{"name":"Baclaran","country":"PH","lat":14.53194,"lon":120.99417},{"name":"Baclayon","country":"PH","lat":9.62639,"lon":123.89417},{"name":"Bacnar","country":"PH","lat":15.88641,"lon":120.34419},{"name":"Bacnor East","country":"PH","lat":17.03449,"lon":121.70375},{"name":"Bacnotan","country":"PH","lat":16.72222,"lon":120.3525},{"name":"Baco","country":"PH","lat":13.3573,"lon":121.0983},{"name":"Bacolod","country":"PH","lat":12.22854,"lon":123.50851},{"name":"Bacolod","country":"PH","lat":8.93167,"lon":126.28944},{"name":"Bacolod","country":"PH","lat":8.11667,"lon":123.91667},{"name":"Bacolod City","country":"PH","lat":10.66667,"lon":122.95},{"name":"Bacolor","country":"PH","lat":15.0003,"lon":120.652},{"name":"Bacon","country":"PH","lat":13.03778,"lon":124.04111},{"name":"Bacong","country":"PH","lat":9.74056,"lon":124.56896},{"name":"Bacong","country":"PH","lat":9.2464,"lon":123.2956},{"name":"Bacoor","country":"PH","lat":14.45896,"lon":120.93851},{"name":"Bacsay","country":"PH","lat":15.62063,"lon":120.34341},{"name":"Bactad Proper","country":"PH","lat":15.97842,"lon":120.61026},{"name":"Bacuag","country":"PH","lat":9.60806,"lon":125.63889},{"name":"Baculin","country":"PH","lat":7.4525,"lon":126.58417},{"name":"Baculongan","country":"PH","lat":16.8,"lon":120.8333},{"name":"Bacundao Weste","country":"PH","lat":15.91536,"lon":120.47668},{"name":"Bacungan","country":"PH","lat":9.91056,"lon":118.70222},{"name":"Bacuyangan","country":"PH","lat":9.637,"lon":122.4721},{"name":"Badak","country":"PH","lat":6.84722,"lon":124.72056},{"name":"Badian","country":"PH","lat":13.03167,"lon":123.30778},{"name":"Badian","country":"PH","lat":9.86472,"lon":123.39639},{"name":"Badiangan","country":"PH","lat":11.00573,"lon":122.50051},{"name":"Badlan","country":"PH","lat":11.1414,"lon":122.52},{"name":"Badoc","country":"PH","lat":17.9265,"lon":120.4764},{"name":"Bagabag","country":"PH","lat":16.6068,"lon":121.2542},{"name":"Bagac","country":"PH","lat":14.5962,"lon":120.3928},{"name":"Bagacay","country":"PH","lat":13.777,"lon":123.3032},{"name":"Bagacay","country":"PH","lat":12.9821,"lon":124.1415},{"name":"Bagacay","country":"PH","lat":10.15209,"lon":124.25857},{"name":"Bagacay","country":"PH","lat":9.8664,"lon":123.918},{"name":"Bagahanlad","country":"PH","lat":12.5797,"lon":123.6688},{"name":"Bagakay","country":"PH","lat":8.1454,"lon":123.8157},{"name":"Bagalangit","country":"PH","lat":13.71041,"lon":120.88467},{"name":"Bagamanoc","country":"PH","lat":13.9404,"lon":124.28962},{"name":"Bagan","country":"PH","lat":6.92556,"lon":124.42028},{"name":"Baganga","country":"PH","lat":7.57389,"lon":126.56},{"name":"Bagay","country":"PH","lat":11.1964,"lon":124.035},{"name":"Baggabag B","country":"PH","lat":16.50588,"lon":121.19014},{"name":"Bago City","country":"PH","lat":10.53333,"lon":122.83333},{"name":"Bagombong","country":"PH","lat":14.3413,"lon":121.3775},{"name":"Bagong Barrio","country":"PH","lat":14.88993,"lon":120.94095},{"name":"Bagong Pagasa","country":"PH","lat":14.6627,"lon":121.0328},{"name":"Bagong Sikat","country":"PH","lat":12.36745,"lon":121.06171},{"name":"Bagong Silang","country":"PH","lat":14.7783,"lon":121.04487},{"name":"Bagong Silangan","country":"PH","lat":14.706,"lon":121.108},{"name":"Bagong Tanza","country":"PH","lat":16.98269,"lon":121.61109},{"name":"Bagong-Sikat","country":"PH","lat":15.4801,"lon":121.3073},{"name":"Bagontapay","country":"PH","lat":6.85889,"lon":124.90889},{"name":"Bagroy","country":"PH","lat":10.2031,"lon":122.9362},{"name":"Bagtic","country":"PH","lat":9.6864,"lon":123.0122},{"name":"Bagu","country":"PH","lat":18.42441,"lon":121.35573},{"name":"Baguer","country":"PH","lat":7.25611,"lon":124.50417},{"name":"Baguinge","country":"PH","lat":16.77767,"lon":121.10624},{"name":"Baguio","country":"PH","lat":16.41639,"lon":120.59306},{"name":"Bagulin","country":"PH","lat":16.60833,"lon":120.43944},{"name":"Bagumbayan","country":"PH","lat":18.1939,"lon":121.66302},{"name":"Bagumbayan","country":"PH","lat":17.72271,"lon":121.44695},{"name":"Bagumbayan","country":"PH","lat":13.45,"lon":123.66667},{"name":"Bagumbayan","country":"PH","lat":13.4653,"lon":123.3899},{"name":"Bagumbayan","country":"PH","lat":10.446,"lon":122.8348},{"name":"Bagupaye","country":"PH","lat":13.565,"lon":122.3902},{"name":"Bah-Bah","country":"PH","lat":8.60722,"lon":125.91444},{"name":"Bahay","country":"PH","lat":13.5437,"lon":123.0407},{"name":"Bahay Pare","country":"PH","lat":15.03238,"lon":120.88083},{"name":"Baheli","country":"PH","lat":10.01369,"lon":118.77294},{"name":"Baikingon","country":"PH","lat":8.47222,"lon":124.55361},{"name":"Bail","country":"PH","lat":16.2867,"lon":120.4004},{"name":"Bailan","country":"PH","lat":11.4584,"lon":122.8301},{"name":"Bairan","country":"PH","lat":10.19718,"lon":123.7271},{"name":"Bais","country":"PH","lat":9.59111,"lon":123.12278},{"name":"Baka","country":"PH","lat":7.27611,"lon":124.26417},{"name":"Bakulong","country":"PH","lat":15.5379,"lon":120.6385},{"name":"Bakun","country":"PH","lat":16.7895,"lon":120.6631},{"name":"Bakung","country":"PH","lat":4.89111,"lon":119.79417},{"name":"Bal-os","country":"PH","lat":9.4416,"lon":122.6257},{"name":"Balabac","country":"PH","lat":7.98363,"lon":117.04868},{"name":"Balabag","country":"PH","lat":11.97,"lon":121.91917},{"name":"Balabag","country":"PH","lat":10.76333,"lon":122.49306},{"name":"Balabagan","country":"PH","lat":7.52639,"lon":124.11417},{"name":"Balading","country":"PH","lat":13.3906,"lon":123.7121},{"name":"Balagon","country":"PH","lat":8.0063,"lon":123.2396},{"name":"Balagtas","country":"PH","lat":11.1333,"lon":124.5192},{"name":"Balagtas","country":"PH","lat":14.81667,"lon":120.86667},{"name":"Balagtasin","country":"PH","lat":13.9018,"lon":121.0889},{"name":"Balagui","country":"PH","lat":11.4752,"lon":124.5324},{"name":"Balagunan","country":"PH","lat":7.49222,"lon":125.52111},{"name":"Balamban","country":"PH","lat":10.5039,"lon":123.7156},{"name":"Balanacan","country":"PH","lat":13.5289,"lon":121.8677},{"name":"Balanga","country":"PH","lat":14.67611,"lon":120.53611},{"name":"Balangbalang","country":"PH","lat":9.05694,"lon":125.62278},{"name":"Balangiga","country":"PH","lat":11.10972,"lon":125.3875},{"name":"Balangkayan","country":"PH","lat":11.47139,"lon":125.51056},{"name":"Balangonan","country":"PH","lat":5.57333,"lon":125.35389},{"name":"Balaoan","country":"PH","lat":16.8219,"lon":120.4045},{"name":"Balaoang","country":"PH","lat":15.6633,"lon":120.5147},{"name":"Balaogan","country":"PH","lat":13.4328,"lon":123.2818},{"name":"Balas","country":"PH","lat":6.6875,"lon":122.13806},{"name":"Balas","country":"PH","lat":15.04998,"lon":120.58611},{"name":"Balasan","country":"PH","lat":11.4728,"lon":123.0878},{"name":"Balasing","country":"PH","lat":14.8545,"lon":121.0127},{"name":"Balatan","country":"PH","lat":13.32111,"lon":123.23333},{"name":"Balatero","country":"PH","lat":13.5021,"lon":120.9244},{"name":"Balayan","country":"PH","lat":13.93714,"lon":120.73224},{"name":"Balayang","country":"PH","lat":15.5495,"lon":120.6943},{"name":"Balayong","country":"PH","lat":9.4744,"lon":123.0623},{"name":"Balbalan","country":"PH","lat":17.44139,"lon":121.20194},{"name":"Balele","country":"PH","lat":14.06532,"lon":121.09363},{"name":"Baleno","country":"PH","lat":12.4739,"lon":123.4982},{"name":"Baler","country":"PH","lat":15.7589,"lon":121.5607},{"name":"Balete","country":"PH","lat":14.01983,"lon":121.09506},{"name":"Balete","country":"PH","lat":13.01917,"lon":124.03194},{"name":"Balete","country":"PH","lat":11.5556,"lon":122.3803},{"name":"Balibagan Oeste","country":"PH","lat":10.8,"lon":122.51667},{"name":"Balibago","country":"PH","lat":15.1624,"lon":120.5954},{"name":"Balibago","country":"PH","lat":13.92572,"lon":120.62556},{"name":"Balibago","country":"PH","lat":13.6093,"lon":121.2971},{"name":"Baligang","country":"PH","lat":13.1537,"lon":123.6432},{"name":"Balila","country":"PH","lat":8.00278,"lon":125.01306},{"name":"Balili","country":"PH","lat":7.895,"lon":123.7337},{"name":"Balilihan","country":"PH","lat":9.7561,"lon":123.973},{"name":"Balimbing","country":"PH","lat":5.0825,"lon":119.96583},{"name":"Balinad","country":"PH","lat":13.2926,"lon":123.5454},{"name":"Balindong","country":"PH","lat":7.91667,"lon":124.20028},{"name":"Balingasag","country":"PH","lat":8.74417,"lon":124.77694},{"name":"Balingasay","country":"PH","lat":16.3573,"lon":119.8564},{"name":"Balingcanaway","country":"PH","lat":15.48215,"lon":120.68543},{"name":"Balingoan","country":"PH","lat":9.00389,"lon":124.85194},{"name":"Balingueo","country":"PH","lat":15.9583,"lon":120.40973},{"name":"Balinsacayao","country":"PH","lat":10.681,"lon":124.9595},{"name":"Balite","country":"PH","lat":14.89524,"lon":120.78721},{"name":"Balite","country":"PH","lat":15.64451,"lon":120.64196},{"name":"Balite Segundo","country":"PH","lat":14.1832,"lon":120.97433},{"name":"Balitoc","country":"PH","lat":13.86269,"lon":120.63554},{"name":"Baliton","country":"PH","lat":5.74361,"lon":125.23639},{"name":"Baliuag","country":"PH","lat":14.95472,"lon":120.89694},{"name":"Baliuag Nuevo","country":"PH","lat":13.5214,"lon":123.2016},{"name":"Baliwagan","country":"PH","lat":8.71861,"lon":124.79056},{"name":"Baliwagan","country":"PH","lat":10.3971,"lon":122.8911},{"name":"Ballesteros","country":"PH","lat":18.4126,"lon":121.5152},{"name":"Baloc","country":"PH","lat":15.6435,"lon":120.8852},{"name":"Balocawehay","country":"PH","lat":10.7221,"lon":124.9678},{"name":"Balogo","country":"PH","lat":15.99032,"lon":120.28302},{"name":"Balogo","country":"PH","lat":13.5016,"lon":123.0638},{"name":"Balogo","country":"PH","lat":13.2871,"lon":123.5496},{"name":"Balogo","country":"PH","lat":10.8868,"lon":124.7105},{"name":"Balogo","country":"PH","lat":10.1148,"lon":123.1706},{"name":"Balogo","country":"PH","lat":7.2823,"lon":124.46388},{"name":"Baloy","country":"PH","lat":15.8053,"lon":120.7742},{"name":"Balsic","country":"PH","lat":14.85906,"lon":120.4824},{"name":"Balucawi","country":"PH","lat":12.2013,"lon":123.8426},{"name":"Balucuc","country":"PH","lat":14.95282,"lon":120.81452},{"name":"Balud","country":"PH","lat":12.03686,"lon":123.19351},{"name":"Balud","country":"PH","lat":11.61667,"lon":125.43333},{"name":"Balud","country":"PH","lat":10.1476,"lon":123.6953},{"name":"Balugo","country":"PH","lat":12.57923,"lon":121.43931},{"name":"Balungao","country":"PH","lat":15.89806,"lon":120.68833},{"name":"Balut","country":"PH","lat":14.68333,"lon":120.55},{"name":"Balutakay","country":"PH","lat":6.72111,"lon":125.35167},{"name":"Balutu","country":"PH","lat":15.29875,"lon":120.69226},{"name":"Baluyot","country":"PH","lat":15.79586,"lon":120.46088},{"name":"Bamban","country":"PH","lat":15.6747,"lon":120.3315},{"name":"Bamban","country":"PH","lat":15.27386,"lon":120.56683},{"name":"Bambang","country":"PH","lat":16.3865,"lon":121.1066},{"name":"Banaba","country":"PH","lat":14.21667,"lon":120.85},{"name":"Banaba","country":"PH","lat":13.8966,"lon":121.21},{"name":"Banag","country":"PH","lat":13.37889,"lon":123.70333},{"name":"Banalo","country":"PH","lat":13.6464,"lon":121.1817},{"name":"Banate","country":"PH","lat":11.00222,"lon":122.8175},{"name":"Banaue","country":"PH","lat":16.91356,"lon":121.06184},{"name":"Banawa","country":"PH","lat":7.15361,"lon":124.86667},{"name":"Banawang","country":"PH","lat":14.6121,"lon":120.39},{"name":"Banaybanay","country":"PH","lat":13.9331,"lon":121.1151},{"name":"Banaybanay","country":"PH","lat":6.96233,"lon":126.01717},{"name":"Banayoyo","country":"PH","lat":17.23333,"lon":120.48333},{"name":"Bancal","country":"PH","lat":11.5591,"lon":123.1551},{"name":"Bancasi","country":"PH","lat":8.96667,"lon":125.46667},{"name":"Banco Filipino Homes","country":"PH","lat":14.43379,"lon":121.02231},{"name":"Banga","country":"PH","lat":10.5018,"lon":122.8289},{"name":"Bañga","country":"PH","lat":11.6387,"lon":122.3341},{"name":"Bañga","country":"PH","lat":6.42389,"lon":124.77833},{"name":"Bangad","country":"PH","lat":17.49543,"lon":121.77714},{"name":"Bangad","country":"PH","lat":15.5019,"lon":121.0275},{"name":"Bangad","country":"PH","lat":12.16125,"lon":123.40131},{"name":"Bangahan","country":"PH","lat":7.79634,"lon":124.73361},{"name":"Bangan-Oda","country":"PH","lat":16.1087,"lon":119.8307},{"name":"Banganan","country":"PH","lat":16.3144,"lon":121.0544},{"name":"Bangao","country":"PH","lat":16.8211,"lon":120.8404},{"name":"Bangar","country":"PH","lat":16.8936,"lon":120.4243},{"name":"Bangkal","country":"PH","lat":6.06667,"lon":121.06667},{"name":"Bangkirohan","country":"PH","lat":13.0553,"lon":123.7468},{"name":"Bangonay","country":"PH","lat":9.31444,"lon":125.55389},{"name":"Bangued","country":"PH","lat":17.60833,"lon":120.63806},{"name":"Bangui","country":"PH","lat":18.5376,"lon":120.7671},{"name":"Banhigan","country":"PH","lat":9.85903,"lon":123.38926},{"name":"Bani","country":"PH","lat":16.185,"lon":119.8613},{"name":"Bani","country":"PH","lat":15.5823,"lon":119.9335},{"name":"Banilad","country":"PH","lat":14.0667,"lon":120.7347},{"name":"Banilad","country":"PH","lat":9.2786,"lon":123.2936},{"name":"Banisilan","country":"PH","lat":7.49083,"lon":124.72417},{"name":"Bankaw","country":"PH","lat":5.0192,"lon":120.0091},{"name":"Banocboc","country":"PH","lat":14.3,"lon":122.58333},{"name":"Banog Sur","country":"PH","lat":16.16542,"lon":119.89802},{"name":"Banos","country":"PH","lat":12.64553,"lon":120.90972},{"name":"Banquero","country":"PH","lat":17.02305,"lon":121.77834},{"name":"Bansalan","country":"PH","lat":6.78611,"lon":125.21333},{"name":"Bansud","country":"PH","lat":12.865,"lon":121.45639},{"name":"Bantacan","country":"PH","lat":7.604,"lon":126.1298},{"name":"Bantay","country":"PH","lat":17.58472,"lon":120.38917},{"name":"Bantay","country":"PH","lat":17.43793,"lon":120.75775},{"name":"Bantayan","country":"PH","lat":12.5237,"lon":124.8283},{"name":"Bantayan","country":"PH","lat":11.1683,"lon":123.7223},{"name":"Bantilan","country":"PH","lat":14.75814,"lon":121.66902},{"name":"Bantiqui","country":"PH","lat":10.9245,"lon":124.4154},{"name":"Bantog","country":"PH","lat":16.0091,"lon":120.6929},{"name":"Bantogon","country":"PH","lat":6.53333,"lon":124.03333},{"name":"Bantuanon","country":"PH","lat":8.01528,"lon":125.07083},{"name":"Banugao","country":"PH","lat":14.74825,"lon":121.6184},{"name":"Bao","country":"PH","lat":13.6414,"lon":122.8314},{"name":"Baon","country":"PH","lat":6.79562,"lon":126.08778},{"name":"Baquero Norte","country":"PH","lat":15.7162,"lon":120.5543},{"name":"Baracatan","country":"PH","lat":6.9675,"lon":125.41583},{"name":"Barahan","country":"PH","lat":13.0121,"lon":120.762},{"name":"Barangobong","country":"PH","lat":15.87778,"lon":120.54833},{"name":"Baras","country":"PH","lat":14.51691,"lon":121.2658},{"name":"Baras","country":"PH","lat":13.6588,"lon":124.37},{"name":"Baras","country":"PH","lat":11.18333,"lon":125.01667},{"name":"Barayong","country":"PH","lat":13.1,"lon":123.71667},{"name":"Barbaza","country":"PH","lat":11.19572,"lon":122.03861},{"name":"Barcelona","country":"PH","lat":13.7715,"lon":123.0485},{"name":"Barcelona","country":"PH","lat":12.8683,"lon":124.1419},{"name":"Barcelona","country":"PH","lat":8.5275,"lon":123.4587},{"name":"Barcelona","country":"PH","lat":8.15917,"lon":126.43417},{"name":"Barili","country":"PH","lat":10.115,"lon":123.5103},{"name":"Barira","country":"PH","lat":7.48722,"lon":124.29917},{"name":"Bariw","country":"PH","lat":13.13333,"lon":123.73333},{"name":"Barlig","country":"PH","lat":17.03725,"lon":121.10384},{"name":"Baro","country":"PH","lat":15.99895,"lon":120.6735},{"name":"Barobo","country":"PH","lat":8.53528,"lon":126.12139},{"name":"Barong","country":"PH","lat":18.0576,"lon":120.734},{"name":"Barong Barong","country":"PH","lat":8.8535,"lon":117.8939},{"name":"Barongis","country":"PH","lat":7.26111,"lon":124.56417},{"name":"Barotac Nuevo","country":"PH","lat":10.89417,"lon":122.70444},{"name":"Barotac Viejo","country":"PH","lat":11.04194,"lon":122.85222},{"name":"Baroy","country":"PH","lat":8.0269,"lon":123.7784},{"name":"Barra","country":"PH","lat":12.0717,"lon":123.6395},{"name":"Barra","country":"PH","lat":8.51028,"lon":124.60444},{"name":"Barucboc Norte","country":"PH","lat":17.25857,"lon":121.60561},{"name":"Barugo","country":"PH","lat":11.32417,"lon":124.73833},{"name":"Barurao","country":"PH","lat":6.89806,"lon":124.5975},{"name":"Basa","country":"PH","lat":8.07222,"lon":126.06417},{"name":"Basag","country":"PH","lat":8.92548,"lon":125.62167},{"name":"Basak","country":"PH","lat":8.04111,"lon":124.86278},{"name":"Basak","country":"PH","lat":6.72736,"lon":124.15117},{"name":"Basak","country":"PH","lat":10.2264,"lon":123.3064},{"name":"Basay","country":"PH","lat":9.4087,"lon":122.64},{"name":"Bascaron","country":"PH","lat":13.1029,"lon":123.6999},{"name":"Basco","country":"PH","lat":20.44865,"lon":121.97017},{"name":"Basdiot","country":"PH","lat":9.94718,"lon":123.37515},{"name":"Basey","country":"PH","lat":11.28205,"lon":125.06986},{"name":"Basiad","country":"PH","lat":14.15617,"lon":122.33749},{"name":"Basiao","country":"PH","lat":11.54861,"lon":122.6375},{"name":"Basiawan","country":"PH","lat":6.53417,"lon":125.48694},{"name":"Basicao Coastal","country":"PH","lat":13.04589,"lon":123.40423},{"name":"Basilisa","country":"PH","lat":10,"lon":125.5},{"name":"Basing","country":"PH","lat":15.98505,"lon":120.26831},{"name":"Basista","country":"PH","lat":15.8524,"lon":120.3976},{"name":"Basud","country":"PH","lat":14.065,"lon":122.9642},{"name":"Basud","country":"PH","lat":12.98889,"lon":123.95},{"name":"Basud","country":"PH","lat":11.3663,"lon":124.3631},{"name":"Batac City","country":"PH","lat":18.0554,"lon":120.56489},{"name":"Batad","country":"PH","lat":11.418,"lon":123.108},{"name":"Batal","country":"PH","lat":16.6875,"lon":121.60083},{"name":"Batan","country":"PH","lat":11.5857,"lon":122.4971},{"name":"Batana","country":"PH","lat":13.2498,"lon":123.5641},{"name":"Batangas","country":"PH","lat":13.7567,"lon":121.0584},{"name":"Bataquil","country":"PH","lat":16.15528,"lon":120.5275},{"name":"Batarasa","country":"PH","lat":8.67335,"lon":117.62795},{"name":"Batas","country":"PH","lat":14.2,"lon":120.81667},{"name":"Batasan","country":"PH","lat":12.76667,"lon":120.78333},{"name":"Batasan","country":"PH","lat":7.03333,"lon":125.05},{"name":"Batasan Bata","country":"PH","lat":15.14442,"lon":120.94077},{"name":"Bateria","country":"PH","lat":11.1416,"lon":124.0267},{"name":"Batiano","country":"PH","lat":7.5534,"lon":126.4907},{"name":"Batitang","country":"PH","lat":15.4004,"lon":120.80276},{"name":"Bato","country":"PH","lat":13.6068,"lon":124.2986},{"name":"Bato","country":"PH","lat":13.3528,"lon":123.3677},{"name":"Bato","country":"PH","lat":10.80854,"lon":123.3733},{"name":"Bato","country":"PH","lat":10.825,"lon":119.471},{"name":"Bato","country":"PH","lat":10.32778,"lon":124.79111},{"name":"Bato","country":"PH","lat":8.6027,"lon":123.6449},{"name":"Bato","country":"PH","lat":7.04306,"lon":125.47306},{"name":"Bato Bato","country":"PH","lat":6.0344,"lon":120.9463},{"name":"Batobalane","country":"PH","lat":14.23333,"lon":122.75},{"name":"Batobato","country":"PH","lat":6.82522,"lon":126.08458},{"name":"Battung","country":"PH","lat":17.72261,"lon":121.45914},{"name":"Batu","country":"PH","lat":7.75333,"lon":122.82944},{"name":"Batuan","country":"PH","lat":12.3976,"lon":123.76279},{"name":"Batuan","country":"PH","lat":9.7808,"lon":124.1484},{"name":"Batutitik","country":"PH","lat":6.22333,"lon":125.25194},{"name":"Bau","country":"PH","lat":7.40528,"lon":124.64972},{"name":"Bauan","country":"PH","lat":17.72256,"lon":121.68028},{"name":"Bauan","country":"PH","lat":13.7917,"lon":121.0085},{"name":"Bauang","country":"PH","lat":16.53083,"lon":120.33306},{"name":"Baud","country":"PH","lat":11.2111,"lon":123.7031},{"name":"Baugo","country":"PH","lat":10.31745,"lon":123.919},{"name":"Bauko","country":"PH","lat":16.9898,"lon":120.8671},{"name":"Baunu-Timbangan","country":"PH","lat":6.00547,"lon":120.99406},{"name":"Bautista","country":"PH","lat":15.78362,"lon":120.49848},{"name":"Bautista","country":"PH","lat":13.99444,"lon":121.27778},{"name":"Bawison","country":"PH","lat":5.9375,"lon":120.8745},{"name":"Bay","country":"PH","lat":14.18368,"lon":121.28554},{"name":"Bay-ang","country":"PH","lat":11.03472,"lon":122.94167},{"name":"Bayabas","country":"PH","lat":16.45,"lon":120.51667},{"name":"Bayabas","country":"PH","lat":8.96972,"lon":126.28611},{"name":"Bayambang","country":"PH","lat":15.8127,"lon":120.4557},{"name":"Bayanan","country":"PH","lat":13.3592,"lon":121.1699},{"name":"Bayang","country":"PH","lat":7.79278,"lon":124.19167},{"name":"Bayanga","country":"PH","lat":7.52139,"lon":124.25222},{"name":"Bayaoas","country":"PH","lat":15.83404,"lon":120.26478},{"name":"Bayas","country":"PH","lat":11.4336,"lon":123.1816},{"name":"Bayasong","country":"PH","lat":6.64889,"lon":124.87306},{"name":"Bayawan","country":"PH","lat":9.3649,"lon":122.804},{"name":"Baybay","country":"PH","lat":13.4083,"lon":123.7135},{"name":"Baybay","country":"PH","lat":10.6785,"lon":124.8006},{"name":"Baybayin","country":"PH","lat":13.82083,"lon":121.26992},{"name":"Baylo","country":"PH","lat":7.85514,"lon":126.05563},{"name":"Bayog","country":"PH","lat":7.86667,"lon":123.06667},{"name":"Bayombong","country":"PH","lat":16.4812,"lon":121.1497},{"name":"Bayugan","country":"PH","lat":8.75611,"lon":125.7675},{"name":"Bayuin","country":"PH","lat":13.0411,"lon":121.38852},{"name":"Beberon","country":"PH","lat":13.5444,"lon":123.1405},{"name":"Becerril","country":"PH","lat":9.6531,"lon":123.4344},{"name":"Beddeng","country":"PH","lat":14.97728,"lon":120.08493},{"name":"Begang","country":"PH","lat":6.6909,"lon":122.0168},{"name":"Bel Air","country":"PH","lat":14.5594,"lon":121.0258},{"name":"Belance","country":"PH","lat":16.18333,"lon":121.25},{"name":"Belison","country":"PH","lat":10.8384,"lon":121.9605},{"name":"Benito Soliven","country":"PH","lat":16.98155,"lon":121.95994},{"name":"Besao","country":"PH","lat":17.095,"lon":120.8579},{"name":"Betwagan","country":"PH","lat":17.08333,"lon":120.96667},{"name":"Biabas","country":"PH","lat":9.8,"lon":124.46667},{"name":"Bialong","country":"PH","lat":6.98056,"lon":124.88889},{"name":"Biao","country":"PH","lat":10.1088,"lon":122.9772},{"name":"Biao","country":"PH","lat":7.16333,"lon":125.52111},{"name":"Biasong","country":"PH","lat":10.5229,"lon":123.736},{"name":"Biay","country":"PH","lat":15.7402,"lon":119.9067},{"name":"Bibiclat","country":"PH","lat":15.52186,"lon":120.86235},{"name":"Bical Norte","country":"PH","lat":15.81471,"lon":120.43509},{"name":"Bicos","country":"PH","lat":15.6602,"lon":121.0414},{"name":"Bien Unido","country":"PH","lat":10.13729,"lon":124.37761},{"name":"Biga","country":"PH","lat":13.90401,"lon":120.64875},{"name":"Biga","country":"PH","lat":14.25759,"lon":120.97195},{"name":"Biga","country":"PH","lat":13.3106,"lon":121.161},{"name":"Biga","country":"PH","lat":8.35778,"lon":124.25972},{"name":"Bigaa","country":"PH","lat":13.1993,"lon":123.7566},{"name":"Bigaan","country":"PH","lat":8.31722,"lon":126.28111},{"name":"Bignay Uno","country":"PH","lat":13.86445,"lon":121.48792},{"name":"Biking","country":"PH","lat":9.59382,"lon":123.84303},{"name":"Bil-Loca","country":"PH","lat":18.0875,"lon":120.5687},{"name":"Bilad","country":"PH","lat":15.73676,"lon":120.43321},{"name":"Bilao","country":"PH","lat":11.488,"lon":122.5599},{"name":"Bilar","country":"PH","lat":9.70825,"lon":124.10717},{"name":"Bilaran","country":"PH","lat":14.03528,"lon":120.71028},{"name":"Biliran","country":"PH","lat":11.46694,"lon":124.47396},{"name":"Bilog-Bilog","country":"PH","lat":14.11361,"lon":121.08861},{"name":"Bilwang","country":"PH","lat":10.8834,"lon":124.4667},{"name":"Binabaan","country":"PH","lat":11.0191,"lon":122.5221},{"name":"Binabalian","country":"PH","lat":16.4202,"lon":119.9279},{"name":"Binahaan","country":"PH","lat":13.9917,"lon":121.75391},{"name":"Binalan","country":"PH","lat":18.3275,"lon":121.5451},{"name":"Binalbagan","country":"PH","lat":10.1948,"lon":122.8581},{"name":"Binalonan","country":"PH","lat":16.0503,"lon":120.5926},{"name":"Biñan","country":"PH","lat":14.34267,"lon":121.08071},{"name":"Binangonan","country":"PH","lat":14.4646,"lon":121.1929},{"name":"Binantocan","country":"PH","lat":11.4073,"lon":122.8602},{"name":"Binanwanaan","country":"PH","lat":13.7,"lon":123.3},{"name":"Binay","country":"PH","lat":13.5019,"lon":122.5983},{"name":"Bincoñgan","country":"PH","lat":7.36667,"lon":125.75},{"name":"Binday","country":"PH","lat":16.12812,"lon":120.45238},{"name":"Bingawan","country":"PH","lat":11.233,"lon":122.5672},{"name":"Binguang","country":"PH","lat":17.45893,"lon":121.79519},{"name":"Binidayan","country":"PH","lat":7.80668,"lon":124.16846},{"name":"Binitayan","country":"PH","lat":13.2945,"lon":123.7579},{"name":"Binitinan","country":"PH","lat":8.71,"lon":124.77556},{"name":"Binlod","country":"PH","lat":9.91845,"lon":123.60743},{"name":"Binmaley","country":"PH","lat":16.03232,"lon":120.26904},{"name":"Binodegahan","country":"PH","lat":13.0614,"lon":123.4579},{"name":"Binon-an","country":"PH","lat":11.3947,"lon":123.1426},{"name":"Binondo","country":"PH","lat":14.603,"lon":120.974},{"name":"Binonga","country":"PH","lat":10.7719,"lon":122.9817},{"name":"Bintacay","country":"PH","lat":13.4986,"lon":121.8768},{"name":"Bintawan","country":"PH","lat":16.57588,"lon":121.18764},{"name":"Binuang","country":"PH","lat":5.95694,"lon":121.06},{"name":"Binuangan","country":"PH","lat":8.91528,"lon":124.78833},{"name":"Binuatan","country":"PH","lat":7.61222,"lon":123.34417},{"name":"Binubusan","country":"PH","lat":13.96947,"lon":120.63572},{"name":"Binucayan","country":"PH","lat":8.25,"lon":125.71667},{"name":"Binulasan","country":"PH","lat":14.73159,"lon":121.69781},{"name":"Biri","country":"PH","lat":12.68333,"lon":124.36361},{"name":"Bislig","country":"PH","lat":11.0725,"lon":125.03361},{"name":"Bislig","country":"PH","lat":8.21528,"lon":126.31639},{"name":"Bitadtun","country":"PH","lat":11.4969,"lon":122.08511},{"name":"Bitag Grande","country":"PH","lat":17.90244,"lon":121.85013},{"name":"Bitangan","country":"PH","lat":14.25389,"lon":120.87833},{"name":"Bitanjuan","country":"PH","lat":10.5955,"lon":124.7663},{"name":"Bitaogan","country":"PH","lat":6.76842,"lon":126.07738},{"name":"Bitin","country":"PH","lat":14.11647,"lon":121.22194},{"name":"Biton","country":"PH","lat":11.23279,"lon":123.9993},{"name":"Bitoon","country":"PH","lat":10.0804,"lon":123.4587},{"name":"Bituñgol","country":"PH","lat":14.88333,"lon":121.03333},{"name":"Biwang","country":"PH","lat":6.60592,"lon":124.54358},{"name":"Blingkong","country":"PH","lat":6.58808,"lon":124.88951},{"name":"Blinsung","country":"PH","lat":7.01806,"lon":124.18056},{"name":"Boac","country":"PH","lat":13.4463,"lon":121.84},{"name":"Bobon","country":"PH","lat":12.5246,"lon":124.5636},{"name":"Bobon","country":"PH","lat":6.86782,"lon":126.32838},{"name":"Bobon Second","country":"PH","lat":15.65653,"lon":120.38119},{"name":"Bobonan","country":"PH","lat":16.1348,"lon":120.5271},{"name":"Bocana","country":"PH","lat":10.0116,"lon":122.7217},{"name":"Bocaue","country":"PH","lat":14.79833,"lon":120.92611},{"name":"Bocos","country":"PH","lat":16.92646,"lon":121.05734},{"name":"Bodega","country":"PH","lat":14.9229,"lon":120.47982},{"name":"Bogo","country":"PH","lat":11.0517,"lon":124.0055},{"name":"Bogo","country":"PH","lat":9.85686,"lon":123.56417},{"name":"Bogtong","country":"PH","lat":15.75536,"lon":120.32899},{"name":"Bokod","country":"PH","lat":16.4895,"lon":120.8313},{"name":"Bolanon","country":"PH","lat":10.9171,"lon":123.4734},{"name":"Bolaoit","country":"PH","lat":15.93218,"lon":120.43073},{"name":"Bolboc","country":"PH","lat":14.02074,"lon":120.75595},{"name":"Bolila","country":"PH","lat":6.37167,"lon":125.57139},{"name":"Bolilao","country":"PH","lat":10.88333,"lon":122.73333},{"name":"Bolinao","country":"PH","lat":16.3883,"lon":119.8923},{"name":"Boliney","country":"PH","lat":17.40773,"lon":120.78115},{"name":"Bolingit","country":"PH","lat":15.95873,"lon":120.3496},{"name":"Bolisong","country":"PH","lat":9.69111,"lon":123.15167},{"name":"Bolitoc","country":"PH","lat":15.7395,"lon":119.8769},{"name":"Boljoon","country":"PH","lat":9.6281,"lon":123.4785},{"name":"Bolo","country":"PH","lat":15.9948,"lon":120.1647},{"name":"Bolo","country":"PH","lat":13.78991,"lon":120.98173},{"name":"Bolo","country":"PH","lat":13.753,"lon":122.9658},{"name":"Bolo","country":"PH","lat":11.54028,"lon":122.75722},{"name":"Bolo Bolo","country":"PH","lat":8.55833,"lon":124.53},{"name":"Bolong","country":"PH","lat":10.81667,"lon":122.51667},{"name":"Bolong","country":"PH","lat":7.09833,"lon":122.23917},{"name":"Bombon","country":"PH","lat":13.6887,"lon":123.2077},{"name":"Bonawon","country":"PH","lat":9.134,"lon":122.9193},{"name":"Bonbon","country":"PH","lat":10.2245,"lon":123.5573},{"name":"Bonbon","country":"PH","lat":9.10528,"lon":124.73389},{"name":"Bone South","country":"PH","lat":16.2446,"lon":120.9958},{"name":"Bonga","country":"PH","lat":13.2799,"lon":123.7587},{"name":"Bonga","country":"PH","lat":13.21667,"lon":123.55},{"name":"Bongabon","country":"PH","lat":15.6321,"lon":121.1448},{"name":"Boñgalon","country":"PH","lat":16.00022,"lon":120.15904},{"name":"Bongao","country":"PH","lat":5.02917,"lon":119.77306},{"name":"Bongued","country":"PH","lat":7.11667,"lon":124.4},{"name":"Bonifacio","country":"PH","lat":8.0525,"lon":123.6142},{"name":"Bontoc","country":"PH","lat":17.08731,"lon":120.97685},{"name":"Bontoc","country":"PH","lat":10.3556,"lon":124.9697},{"name":"Bood","country":"PH","lat":9.74508,"lon":123.82783},{"name":"Boot","country":"PH","lat":14.04556,"lon":121.07722},{"name":"Borbon","country":"PH","lat":10.838,"lon":124.0297},{"name":"Borbon","country":"PH","lat":8.48417,"lon":125.89306},{"name":"Borongan","country":"PH","lat":11.60806,"lon":125.43194},{"name":"Boroon","country":"PH","lat":8.18278,"lon":124.17701},{"name":"Bosdak","country":"PH","lat":13.4,"lon":122.5},{"name":"Boston","country":"PH","lat":7.87111,"lon":126.36417},{"name":"Botao","country":"PH","lat":15.91667,"lon":120.41667},{"name":"Botigues","country":"PH","lat":11.0995,"lon":123.6675},{"name":"Botolan","country":"PH","lat":15.2896,"lon":120.0245},{"name":"Boton","country":"PH","lat":12.9287,"lon":124.0479},{"name":"Brgy. Bachaw Norte, Kalibo","country":"PH","lat":11.71806,"lon":122.37806},{"name":"Brgy. Bulwang, Numancia","country":"PH","lat":11.72194,"lon":122.36111},{"name":"Brgy. Mabilo, New Washington","country":"PH","lat":11.67778,"lon":122.4075},{"name":"Brgy. Nalook, kalibo","country":"PH","lat":11.68586,"lon":122.36916},{"name":"Brgy. New Buswang, Kalibo","country":"PH","lat":11.71222,"lon":122.38472},{"name":"Brgy. Tinigao, Kalibo","country":"PH","lat":11.7,"lon":122.36667},{"name":"Brookes Point","country":"PH","lat":8.77201,"lon":117.8371},{"name":"Buadiposo-Buntong","country":"PH","lat":7.96667,"lon":124.38333},{"name":"Buadtasan","country":"PH","lat":6.00496,"lon":124.61266},{"name":"Buagsong","country":"PH","lat":10.25302,"lon":123.93909},{"name":"Bual","country":"PH","lat":7.1825,"lon":124.50583},{"name":"Bual","country":"PH","lat":6.79583,"lon":124.91083},{"name":"Bualan","country":"PH","lat":7.75,"lon":124.26667},{"name":"Bualan","country":"PH","lat":7.44778,"lon":124.2675},{"name":"Buan","country":"PH","lat":5.1608,"lon":120.0426},{"name":"Buan","country":"PH","lat":5.5508,"lon":120.8815},{"name":"Buang","country":"PH","lat":13.3115,"lon":123.6421},{"name":"Buanoy","country":"PH","lat":10.46746,"lon":123.6999},{"name":"Buansa","country":"PH","lat":6.0258,"lon":120.9614},{"name":"Buawan","country":"PH","lat":8.31667,"lon":124.30306},{"name":"Buayan","country":"PH","lat":6.11639,"lon":125.23472},{"name":"Buayan","country":"PH","lat":7.26111,"lon":124.52944},{"name":"Bucay","country":"PH","lat":17.5404,"lon":120.7188},{"name":"Buclad","country":"PH","lat":7.52778,"lon":125.75056},{"name":"Bucloc","country":"PH","lat":17.44113,"lon":120.85885},{"name":"Buco","country":"PH","lat":14.08323,"lon":120.99016},{"name":"Budta","country":"PH","lat":7.20417,"lon":124.43972},{"name":"Bued","country":"PH","lat":16.16086,"lon":119.9988},{"name":"Bued","country":"PH","lat":15.83657,"lon":120.65006},{"name":"Buenavista","country":"PH","lat":10.08333,"lon":124.11611},{"name":"Buenavista","country":"PH","lat":13.867,"lon":123.302},{"name":"Buenavista","country":"PH","lat":13.25511,"lon":121.94149},{"name":"Buenavista","country":"PH","lat":12.17639,"lon":123.79056},{"name":"Buenavista","country":"PH","lat":10.79874,"lon":123.5544},{"name":"Buenavista","country":"PH","lat":10.70111,"lon":122.6275},{"name":"Buenavista","country":"PH","lat":10.61466,"lon":123.0994},{"name":"Buenavista","country":"PH","lat":10.54406,"lon":123.4478},{"name":"Buenavista","country":"PH","lat":10.1776,"lon":123.6013},{"name":"Buenavista","country":"PH","lat":10.1379,"lon":123.2439},{"name":"Buenavista","country":"PH","lat":9.84056,"lon":124.2225},{"name":"Buenavista","country":"PH","lat":9.115,"lon":126.16083},{"name":"Buenavista","country":"PH","lat":8.97694,"lon":125.40889},{"name":"Buenavista","country":"PH","lat":7.23611,"lon":122.25528},{"name":"Buenlag","country":"PH","lat":15.82976,"lon":120.51139},{"name":"Buenlag","country":"PH","lat":15.62743,"lon":120.58199},{"name":"Buensuseso","country":"PH","lat":15.19333,"lon":120.67314},{"name":"Buga","country":"PH","lat":13.2966,"lon":123.3596},{"name":"Buga","country":"PH","lat":10.71667,"lon":122.26667},{"name":"Bugaan","country":"PH","lat":14.03987,"lon":120.93609},{"name":"Bugallon","country":"PH","lat":15.9528,"lon":120.2155},{"name":"Bugang","country":"PH","lat":10.74185,"lon":123.3933},{"name":"Bugas","country":"PH","lat":9.89804,"lon":123.40492},{"name":"Bugasan","country":"PH","lat":7.44083,"lon":124.25917},{"name":"Bugasong","country":"PH","lat":11.04464,"lon":122.06463},{"name":"Bugcaon","country":"PH","lat":8.04583,"lon":125.11278},{"name":"Bugho","country":"PH","lat":10.7921,"lon":124.9364},{"name":"Bugko","country":"PH","lat":12.5356,"lon":124.7923},{"name":"Bugo","country":"PH","lat":8.50833,"lon":124.75944},{"name":"Bugsoc","country":"PH","lat":9.7834,"lon":124.2712},{"name":"Buguey","country":"PH","lat":18.28823,"lon":121.8331},{"name":"Buguias","country":"PH","lat":16.72267,"lon":120.82834},{"name":"Buhangin","country":"PH","lat":6.49111,"lon":125.5475},{"name":"Buhatan","country":"PH","lat":12.9755,"lon":124.0478},{"name":"Buhi","country":"PH","lat":13.4322,"lon":123.517},{"name":"Bukal","country":"PH","lat":13.9132,"lon":121.5264},{"name":"Bukal","country":"PH","lat":13.8364,"lon":121.0939},{"name":"Bukal Sur","country":"PH","lat":13.93806,"lon":121.38556},{"name":"Bukay Pait","country":"PH","lat":6.56161,"lon":124.76706},{"name":"Bukid","country":"PH","lat":5.57167,"lon":125.40556},{"name":"Bula","country":"PH","lat":13.4701,"lon":123.278},{"name":"Bula","country":"PH","lat":11.448,"lon":122.5685},{"name":"Bulacan","country":"PH","lat":14.79278,"lon":120.87889},{"name":"Bulacan","country":"PH","lat":6.5675,"lon":125.42111},{"name":"Bulacnin","country":"PH","lat":13.9903,"lon":121.139},{"name":"Bulad","country":"PH","lat":10.2548,"lon":122.9983},{"name":"Bulalacao","country":"PH","lat":12.32535,"lon":121.34351},{"name":"Bulalacao","country":"PH","lat":16.8358,"lon":120.8085},{"name":"Bulalacao","country":"PH","lat":11.7435,"lon":120.1715},{"name":"Bulan","country":"PH","lat":12.67139,"lon":123.875},{"name":"Bulaon","country":"PH","lat":15.08262,"lon":120.66288},{"name":"Bularit","country":"PH","lat":15.56824,"lon":120.62167},{"name":"Bulasa","country":"PH","lat":9.93206,"lon":123.61802},{"name":"Bulata","country":"PH","lat":9.8599,"lon":122.4016},{"name":"Bulatukan","country":"PH","lat":6.9025,"lon":125.16083},{"name":"Bulawin","country":"PH","lat":15.4173,"lon":119.9564},{"name":"Buldon","country":"PH","lat":7.50972,"lon":124.37139},{"name":"Bulihan","country":"PH","lat":14.87581,"lon":120.89563},{"name":"Bulihan","country":"PH","lat":14.156,"lon":120.6441},{"name":"Bulihan","country":"PH","lat":13.8091,"lon":121.2485},{"name":"Bulihan","country":"PH","lat":14.2782,"lon":120.99503},{"name":"Buliok","country":"PH","lat":7.01667,"lon":124.7},{"name":"Buliran","country":"PH","lat":15.54602,"lon":120.95959},{"name":"Buliran Segundo","country":"PH","lat":15.26667,"lon":120.86667},{"name":"Bulit","country":"PH","lat":7.11528,"lon":124.78944},{"name":"Buliwao","country":"PH","lat":16.48333,"lon":121.23333},{"name":"Bulo","country":"PH","lat":12.4109,"lon":123.5672},{"name":"Bulod","country":"PH","lat":9.68333,"lon":123.15},{"name":"Bulog","country":"PH","lat":15.9602,"lon":120.4017},{"name":"Bulu","country":"PH","lat":17.33333,"lon":121.76667},{"name":"Bulualto","country":"PH","lat":15.22127,"lon":120.95326},{"name":"Buluan","country":"PH","lat":6.72028,"lon":124.80194},{"name":"Buluang","country":"PH","lat":13.3068,"lon":123.3425},{"name":"Buluang","country":"PH","lat":12.23336,"lon":119.87581},{"name":"Buluangan","country":"PH","lat":10.38707,"lon":123.3381},{"name":"Bulusan","country":"PH","lat":12.74936,"lon":124.12087},{"name":"Bumbaran","country":"PH","lat":7.8,"lon":124.65},{"name":"Bunawan","country":"PH","lat":8.16722,"lon":125.99083},{"name":"Bundoc","country":"PH","lat":15.48575,"lon":120.71743},{"name":"Bunga","country":"PH","lat":11.4838,"lon":124.5918},{"name":"Bunga","country":"PH","lat":10.7731,"lon":124.7847},{"name":"Bungabon","country":"PH","lat":7.2221,"lon":125.8731},{"name":"Bungad","country":"PH","lat":14.6481,"lon":121.024},{"name":"Bungahan","country":"PH","lat":13.94286,"lon":120.66178},{"name":"Bungoy","country":"PH","lat":13.99779,"lon":121.36564},{"name":"Bungsuan","country":"PH","lat":11.2404,"lon":122.6976},{"name":"Bunguiao","country":"PH","lat":7.10444,"lon":122.19639},{"name":"Bunog","country":"PH","lat":9.14028,"lon":117.78167},{"name":"Bunol","country":"PH","lat":15.6671,"lon":120.8344},{"name":"Burabod","country":"PH","lat":13.2686,"lon":123.4162},{"name":"Buracan","country":"PH","lat":13.6,"lon":123.5},{"name":"Burauen","country":"PH","lat":10.97556,"lon":124.89278},{"name":"Buray","country":"PH","lat":10.715,"lon":122.45944},{"name":"Burdeos","country":"PH","lat":14.84302,"lon":121.96906},{"name":"Burgos","country":"PH","lat":18.51658,"lon":120.64492},{"name":"Burgos","country":"PH","lat":17.3324,"lon":120.4954},{"name":"Burgos","country":"PH","lat":17.08914,"lon":121.70254},{"name":"Burgos","country":"PH","lat":16.8246,"lon":121.73313},{"name":"Burgos","country":"PH","lat":16.51861,"lon":120.46278},{"name":"Burgos","country":"PH","lat":16.07181,"lon":121.04954},{"name":"Burgos","country":"PH","lat":16.0583,"lon":119.865},{"name":"Burgos","country":"PH","lat":15.72892,"lon":120.57224},{"name":"Burgos","country":"PH","lat":15.49465,"lon":120.40453},{"name":"Burgos","country":"PH","lat":9.26639,"lon":126.18833},{"name":"Burias","country":"PH","lat":11.4463,"lon":122.5497},{"name":"Burias","country":"PH","lat":5.71778,"lon":125.25361},{"name":"Burirao","country":"PH","lat":9.2,"lon":118.1},{"name":"Buruanga","country":"PH","lat":11.84428,"lon":121.88841},{"name":"Busay","country":"PH","lat":10.5378,"lon":122.886},{"name":"Busdi","country":"PH","lat":8.27611,"lon":125.25139},{"name":"Busilak","country":"PH","lat":16.4775,"lon":121.1241},{"name":"Busing","country":"PH","lat":13.15139,"lon":122.97139},{"name":"Busok","country":"PH","lat":6.5082,"lon":124.60009},{"name":"Bustos","country":"PH","lat":14.95806,"lon":120.91778},{"name":"Busuanga","country":"PH","lat":12.15847,"lon":119.91781},{"name":"Butag","country":"PH","lat":12.6292,"lon":123.9335},{"name":"Butazon","country":"PH","lat":11.3072,"lon":124.462},{"name":"Butig","country":"PH","lat":7.72444,"lon":124.30083},{"name":"Butigui","country":"PH","lat":17.11534,"lon":121.43304},{"name":"Butuan","country":"PH","lat":8.94917,"lon":125.54361},{"name":"Butubut Norte","country":"PH","lat":16.8034,"lon":120.4344},{"name":"Butulan","country":"PH","lat":5.61444,"lon":125.43167},{"name":"Buug","country":"PH","lat":7.7294,"lon":123.0598},{"name":"Buyabod","country":"PH","lat":13.4666,"lon":122.0526},{"name":"Buyo","country":"PH","lat":13.6813,"lon":123.4733},{"name":"Buyo","country":"PH","lat":13.1144,"lon":123.8666},{"name":"Buyuan","country":"PH","lat":10.67086,"lon":122.3574},{"name":"Caabiangan","country":"PH","lat":16.0874,"lon":119.9245},{"name":"Caba","country":"PH","lat":16.4316,"lon":120.3446},{"name":"Cabacao","country":"PH","lat":13.3356,"lon":120.6588},{"name":"Cabacungan","country":"PH","lat":10.3237,"lon":123.1331},{"name":"Cabacuñgan","country":"PH","lat":10.93333,"lon":124.98167},{"name":"Cabadbaran","country":"PH","lat":9.12261,"lon":125.53549},{"name":"Cabadiangan","country":"PH","lat":10.1459,"lon":122.9431},{"name":"Cabadiangan","country":"PH","lat":9.7534,"lon":122.4739},{"name":"Cabagan","country":"PH","lat":17.42782,"lon":121.76955},{"name":"Cabalaoangan","country":"PH","lat":15.98333,"lon":120.78333},{"name":"Cabalawan","country":"PH","lat":10.74139,"lon":123.9525},{"name":"Cabalitian","country":"PH","lat":16.0883,"lon":120.7922},{"name":"Cabaluay","country":"PH","lat":7.00139,"lon":122.18028},{"name":"Cabanatuan City","country":"PH","lat":15.48586,"lon":120.96648},{"name":"Cabanbanan","country":"PH","lat":14.2404,"lon":121.4341},{"name":"Cabanbanan","country":"PH","lat":10.0852,"lon":122.9579},{"name":"Cabangahan","country":"PH","lat":9.0781,"lon":122.9469},{"name":"Cabangahan","country":"PH","lat":8.02278,"lon":125.1375},{"name":"Cabangan","country":"PH","lat":15.158,"lon":120.0569},{"name":"Cabanglasan","country":"PH","lat":8.12139,"lon":125.3275},{"name":"Cabannungan Second","country":"PH","lat":17.1249,"lon":121.8506},{"name":"Cabano","country":"PH","lat":10.5869,"lon":122.7002},{"name":"Cabaritan East","country":"PH","lat":18.41781,"lon":121.48872},{"name":"Cabarroguis","country":"PH","lat":16.51105,"lon":121.52118},{"name":"Cabatang","country":"PH","lat":13.9669,"lon":121.3668},{"name":"Cabatuan","country":"PH","lat":16.95655,"lon":121.66854},{"name":"Cabatuan","country":"PH","lat":12.5228,"lon":125.2202},{"name":"Cabatuan","country":"PH","lat":10.8794,"lon":122.486},{"name":"Cabay","country":"PH","lat":13.8708,"lon":121.37992},{"name":"Cabay","country":"PH","lat":11.44556,"lon":125.49333},{"name":"Cabayangan","country":"PH","lat":7.40722,"lon":125.73306},{"name":"Cabayaoasan","country":"PH","lat":15.66323,"lon":120.55135},{"name":"Cabcab","country":"PH","lat":13.6268,"lon":124.0515},{"name":"Cabcaben","country":"PH","lat":14.454,"lon":120.5914},{"name":"Cabiao","country":"PH","lat":15.2488,"lon":120.8548},{"name":"Cabiguan","country":"PH","lat":12.90583,"lon":123.73139},{"name":"Cabilao","country":"PH","lat":11.5396,"lon":123.1436},{"name":"Cabilauan","country":"PH","lat":10.89222,"lon":122.65917},{"name":"Cabinuangan","country":"PH","lat":7.68333,"lon":126.03333},{"name":"Cabiraoan","country":"PH","lat":18.32377,"lon":122.08595},{"name":"Cabitan","country":"PH","lat":12.29434,"lon":123.34121},{"name":"Cabittaogan","country":"PH","lat":17.57788,"lon":120.35914},{"name":"Cabodiongan","country":"PH","lat":12.6643,"lon":125.0456},{"name":"Cabog","country":"PH","lat":15.3153,"lon":121.3703},{"name":"Cabognon","country":"PH","lat":13.1829,"lon":123.6777},{"name":"Cabra","country":"PH","lat":13.88833,"lon":120.04944},{"name":"Cabucgayan","country":"PH","lat":11.47194,"lon":124.575},{"name":"Cabugao","country":"PH","lat":17.7931,"lon":120.4578},{"name":"Cabugao","country":"PH","lat":13.5962,"lon":124.2804},{"name":"Cabugao","country":"PH","lat":10.81028,"lon":122.54472},{"name":"Cabul-an","country":"PH","lat":10.15684,"lon":124.04397},{"name":"Cabulay","country":"PH","lat":16.74556,"lon":121.4975},{"name":"Cabungan","country":"PH","lat":16.33999,"lon":119.9949},{"name":"Caburan","country":"PH","lat":5.91806,"lon":125.64111},{"name":"Cabusao","country":"PH","lat":13.7227,"lon":123.1169},{"name":"Cabuyao","country":"PH","lat":14.2726,"lon":121.1262},{"name":"Cadagmayan Norte","country":"PH","lat":10.81667,"lon":122.5},{"name":"Caditaan","country":"PH","lat":12.80528,"lon":123.84917},{"name":"Cadiz","country":"PH","lat":10.9465,"lon":123.288},{"name":"Cadlan","country":"PH","lat":13.5971,"lon":123.257},{"name":"Cafe","country":"PH","lat":15.33686,"lon":120.70623},{"name":"Cagamotan","country":"PH","lat":12.35583,"lon":125.28391},{"name":"Cagayan de Oro","country":"PH","lat":8.48222,"lon":124.64722},{"name":"Cagayancillo","country":"PH","lat":9.57694,"lon":121.20722},{"name":"Cagbang","country":"PH","lat":10.7,"lon":122.49889},{"name":"Cagdianao","country":"PH","lat":9.92111,"lon":125.66917},{"name":"Cagmanaba","country":"PH","lat":13.05501,"lon":123.29706},{"name":"Cagsiay","country":"PH","lat":14.21667,"lon":121.75},{"name":"Cagwait","country":"PH","lat":8.91861,"lon":126.30111},{"name":"Caibiran","country":"PH","lat":11.57167,"lon":124.58222},{"name":"Caigangan","country":"PH","lat":13.25811,"lon":121.93363},{"name":"Cainta","country":"PH","lat":14.5786,"lon":121.1222},{"name":"Cajidiocan","country":"PH","lat":12.36696,"lon":122.68141},{"name":"Cajimos","country":"PH","lat":12.59463,"lon":122.27531},{"name":"Calaba","country":"PH","lat":17.6178,"lon":120.6162},{"name":"Calaba","country":"PH","lat":15.3005,"lon":120.87423},{"name":"Calabaca","country":"PH","lat":14.3001,"lon":122.43364},{"name":"Calabanga","country":"PH","lat":13.7068,"lon":123.2087},{"name":"Calabasa","country":"PH","lat":7.24639,"lon":122.23417},{"name":"Calabugao","country":"PH","lat":8.45639,"lon":125.15889},{"name":"Calaca","country":"PH","lat":13.93244,"lon":120.81327},{"name":"Calachuchi","country":"PH","lat":12.21775,"lon":123.53061},{"name":"Calamagui East","country":"PH","lat":17.48815,"lon":121.76845},{"name":"Calamba","country":"PH","lat":14.21167,"lon":121.16528},{"name":"Calamba","country":"PH","lat":10.1755,"lon":123.2826},{"name":"Calamba","country":"PH","lat":9.10361,"lon":125.59417},{"name":"Calamba","country":"PH","lat":8.5587,"lon":123.6425},{"name":"Calampisauan","country":"PH","lat":10.60985,"lon":123.4765},{"name":"Calamundingan","country":"PH","lat":12.93101,"lon":121.47062},{"name":"Calanasan","country":"PH","lat":18.255,"lon":121.03444},{"name":"Calancuasan Norte","country":"PH","lat":15.80137,"lon":120.64102},{"name":"Calangain","country":"PH","lat":14.89815,"lon":120.55877},{"name":"Calanogas","country":"PH","lat":7.75,"lon":124.1},{"name":"Calantac","country":"PH","lat":17.90904,"lon":121.7228},{"name":"Calantas","country":"PH","lat":15.01933,"lon":120.51793},{"name":"Calantas","country":"PH","lat":13.97202,"lon":120.77456},{"name":"Calaoagan","country":"PH","lat":18.04279,"lon":121.72325},{"name":"Calapan","country":"PH","lat":13.4117,"lon":121.1803},{"name":"Calape","country":"PH","lat":10.2736,"lon":122.9743},{"name":"Calape","country":"PH","lat":11.9425,"lon":125.02139},{"name":"Calape","country":"PH","lat":11.1756,"lon":124.0335},{"name":"Calape","country":"PH","lat":9.8922,"lon":123.8748},{"name":"Calasgasan","country":"PH","lat":14.08333,"lon":122.93333},{"name":"Calasiao","country":"PH","lat":16.0111,"lon":120.36},{"name":"Calatagan","country":"PH","lat":13.83224,"lon":120.63219},{"name":"Calatagan","country":"PH","lat":13.5885,"lon":124.2065},{"name":"Calatrava","country":"PH","lat":12.6198,"lon":122.0714},{"name":"Calatrava","country":"PH","lat":10.59496,"lon":123.4838},{"name":"Calatugas","country":"PH","lat":9.16898,"lon":118.2235},{"name":"Calauag","country":"PH","lat":13.9575,"lon":122.288},{"name":"Calauag","country":"PH","lat":10.66817,"lon":119.5705},{"name":"Calauan","country":"PH","lat":14.14989,"lon":121.3152},{"name":"Calaya","country":"PH","lat":10.4916,"lon":122.6255},{"name":"Calayaan","country":"PH","lat":15.56739,"lon":120.51434},{"name":"Calbayog City","country":"PH","lat":12.0668,"lon":124.5962},{"name":"Calbiga","country":"PH","lat":11.62472,"lon":125.01639},{"name":"Calepaan","country":"PH","lat":16.0195,"lon":120.619},{"name":"Calero","country":"PH","lat":10.37331,"lon":123.99786},{"name":"Calibungan","country":"PH","lat":15.5982,"lon":120.724},{"name":"Calibutbut","country":"PH","lat":15.11494,"lon":120.59815},{"name":"Calidñgan","country":"PH","lat":10.1,"lon":123.63333},{"name":"Calilayan","country":"PH","lat":13.8503,"lon":121.93},{"name":"Calinaoan Malasin","country":"PH","lat":17.35189,"lon":121.74074},{"name":"Calingcuan","country":"PH","lat":15.33333,"lon":120.58333},{"name":"Calinog","country":"PH","lat":11.11667,"lon":122.56667},{"name":"Calintaan","country":"PH","lat":12.56667,"lon":120.93333},{"name":"Calituban","country":"PH","lat":10.23995,"lon":124.2919},{"name":"Calizo","country":"PH","lat":11.5819,"lon":122.3857},{"name":"Callaguip","country":"PH","lat":18.07139,"lon":120.48667},{"name":"Caloc-an","country":"PH","lat":9.04694,"lon":125.53056},{"name":"Calog Norte","country":"PH","lat":18.36359,"lon":121.38533},{"name":"Calolbon","country":"PH","lat":13.596,"lon":124.0991},{"name":"Calomboyan","country":"PH","lat":15.94652,"lon":120.30348},{"name":"Calongbuyan","country":"PH","lat":17.16478,"lon":120.42716},{"name":"Caloocan City","country":"PH","lat":14.64953,"lon":120.96788},{"name":"Calsib","country":"PH","lat":15.84711,"lon":120.26412},{"name":"Calubcub Dos","country":"PH","lat":13.7393,"lon":121.42193},{"name":"Calubian","country":"PH","lat":11.4472,"lon":124.4281},{"name":"Calumboyan","country":"PH","lat":10.79129,"lon":124.02749},{"name":"Calumpang","country":"PH","lat":15.174,"lon":121.0249},{"name":"Calumpang","country":"PH","lat":14.6228,"lon":121.0897},{"name":"Calumpang","country":"PH","lat":14.1966,"lon":121.402},{"name":"Calumpang","country":"PH","lat":13.9897,"lon":121.5494},{"name":"Calumpang","country":"PH","lat":13.84239,"lon":120.97555},{"name":"Calumpit","country":"PH","lat":14.91639,"lon":120.76583},{"name":"Caluya","country":"PH","lat":11.931,"lon":121.5477},{"name":"Cama Juan","country":"PH","lat":15.39223,"lon":120.76848},{"name":"Camachile","country":"PH","lat":14.64361,"lon":120.58083},{"name":"Camalaniugan","country":"PH","lat":18.274,"lon":121.6748},{"name":"Camaley","country":"PH","lat":15.99724,"lon":120.30107},{"name":"Camalig","country":"PH","lat":13.1821,"lon":123.6543},{"name":"Camaligan","country":"PH","lat":13.6224,"lon":123.1667},{"name":"Camalobalo","country":"PH","lat":10.2731,"lon":122.9505},{"name":"Camambugan","country":"PH","lat":10.05844,"lon":124.43811},{"name":"Camandag","country":"PH","lat":10.33333,"lon":123.06667},{"name":"Camangcamang","country":"PH","lat":10.1791,"lon":122.9865},{"name":"Cambanay","country":"PH","lat":10.54361,"lon":123.98611},{"name":"Cambanugoy","country":"PH","lat":7.5413,"lon":125.7553},{"name":"Cambarus","country":"PH","lat":10.21342,"lon":122.52117},{"name":"Cambuga","country":"PH","lat":13.61667,"lon":122.45},{"name":"Camias","country":"PH","lat":15.16679,"lon":120.97416},{"name":"Camiling","country":"PH","lat":15.6866,"lon":120.4128},{"name":"Caminauit","country":"PH","lat":12.33135,"lon":121.08251},{"name":"Camindangan","country":"PH","lat":9.9184,"lon":122.6296},{"name":"Camingawan","country":"PH","lat":9.8958,"lon":122.8625},{"name":"Camohaguin","country":"PH","lat":13.9089,"lon":122.1666},{"name":"Camp Flora","country":"PH","lat":13.3508,"lon":122.6641},{"name":"Campoyo","country":"PH","lat":9.6564,"lon":123.1479},{"name":"Campusong","country":"PH","lat":10.81583,"lon":124.03222},{"name":"Camudmud","country":"PH","lat":7.17611,"lon":125.69333},{"name":"Can-asujan","country":"PH","lat":10.1299,"lon":123.6574},{"name":"Can-Avid","country":"PH","lat":11.99528,"lon":125.44722},{"name":"Canaman","country":"PH","lat":13.648,"lon":123.1699},{"name":"Canan Norte","country":"PH","lat":15.90986,"lon":120.47763},{"name":"Canaoalan","country":"PH","lat":16.02902,"lon":120.29641},{"name":"Canauay","country":"PH","lat":9.0651,"lon":123.0524},{"name":"Canayan","country":"PH","lat":8.19556,"lon":125.14472},{"name":"Candaba","country":"PH","lat":15.0956,"lon":120.8267},{"name":"Candabong","country":"PH","lat":9.73376,"lon":124.53616},{"name":"Candating","country":"PH","lat":15.15056,"lon":120.81847},{"name":"Candelaria","country":"PH","lat":13.93111,"lon":121.42333},{"name":"Candelaria","country":"PH","lat":11.2893,"lon":122.5228},{"name":"Candiis","country":"PH","lat":8.97028,"lon":125.18417},{"name":"Candijay","country":"PH","lat":9.8182,"lon":124.4977},{"name":"Candon","country":"PH","lat":17.19472,"lon":120.45167},{"name":"Candoni","country":"PH","lat":9.817,"lon":122.6043},{"name":"Canhandugan","country":"PH","lat":11.135,"lon":124.77972},{"name":"Canhaway","country":"PH","lat":9.7501,"lon":124.4722},{"name":"Caningay","country":"PH","lat":9.8297,"lon":122.6442},{"name":"Canjulao","country":"PH","lat":9.6605,"lon":124.3532},{"name":"Canlaon","country":"PH","lat":10.38697,"lon":123.2227},{"name":"Canmaya Diot","country":"PH","lat":9.9384,"lon":124.0942},{"name":"Canomoy","country":"PH","lat":12.15735,"lon":123.27011},{"name":"Canroma","country":"PH","lat":10.3606,"lon":122.879},{"name":"Cansilayan","country":"PH","lat":10.55976,"lon":123.0184},{"name":"Cansolungon","country":"PH","lat":10.151,"lon":122.9978},{"name":"Cansuje","country":"PH","lat":9.92314,"lon":123.49629},{"name":"Cantao-an","country":"PH","lat":10.24258,"lon":123.7496},{"name":"Cantapoy","country":"PH","lat":9.49056,"lon":125.43639},{"name":"Cantel","country":"PH","lat":12.6176,"lon":121.5136},{"name":"Cantilan","country":"PH","lat":9.33361,"lon":125.9775},{"name":"Cantoria","country":"PH","lat":16.8441,"lon":120.4045},{"name":"Canturay","country":"PH","lat":9.7937,"lon":122.4543},{"name":"Canubing No 2","country":"PH","lat":13.35,"lon":121.13333},{"name":"Caoayan","country":"PH","lat":17.56194,"lon":120.3975},{"name":"Capaga","country":"PH","lat":11.4379,"lon":122.7479},{"name":"Capalayan","country":"PH","lat":9.74056,"lon":125.54444},{"name":"Capalonga","country":"PH","lat":14.3306,"lon":122.4937},{"name":"Capandanan","country":"PH","lat":15.95943,"lon":120.69519},{"name":"Capas","country":"PH","lat":15.33117,"lon":120.5898},{"name":"Capissayan Sur","country":"PH","lat":18.0509,"lon":121.8177},{"name":"Capitan Ramon","country":"PH","lat":10.7602,"lon":123.1148},{"name":"Capoocan","country":"PH","lat":11.29333,"lon":124.64194},{"name":"Capucnasan","country":"PH","lat":13.6,"lon":123.21667},{"name":"Capul","country":"PH","lat":12.4237,"lon":124.1811},{"name":"Capulaan","country":"PH","lat":15.90497,"lon":120.53719},{"name":"Capuluan","country":"PH","lat":13.8162,"lon":122.5158},{"name":"Capuy","country":"PH","lat":12.98333,"lon":123.93333},{"name":"Carabalan","country":"PH","lat":10.0964,"lon":122.946},{"name":"Caracal","country":"PH","lat":8.12722,"lon":122.845},{"name":"Caraga","country":"PH","lat":7.32972,"lon":126.5675},{"name":"Caramay","country":"PH","lat":10.1815,"lon":119.236},{"name":"Caramoan","country":"PH","lat":13.7707,"lon":123.8631},{"name":"Caramoran","country":"PH","lat":13.9849,"lon":124.1347},{"name":"Caramutan","country":"PH","lat":15.92074,"lon":120.61012},{"name":"Caranan","country":"PH","lat":13.5167,"lon":123.0156},{"name":"Carasi","country":"PH","lat":18.19889,"lon":120.86833},{"name":"Caraycaray","country":"PH","lat":11.5551,"lon":124.415},{"name":"Caraycayon","country":"PH","lat":13.61667,"lon":123.48333},{"name":"Carcar","country":"PH","lat":10.1061,"lon":123.6402},{"name":"Cardona","country":"PH","lat":15.5722,"lon":120.5897},{"name":"Cardona","country":"PH","lat":14.48646,"lon":121.22752},{"name":"Caridad","country":"PH","lat":10.8315,"lon":124.7518},{"name":"Caridad","country":"PH","lat":10.4967,"lon":122.8974},{"name":"Carig","country":"PH","lat":17.65929,"lon":121.74357},{"name":"Carigara","country":"PH","lat":11.29811,"lon":124.67895},{"name":"Carles","country":"PH","lat":11.5726,"lon":123.1342},{"name":"Carmelo","country":"PH","lat":11.01667,"lon":122.81667},{"name":"Carmelo","country":"PH","lat":10.7051,"lon":123.7935},{"name":"Carmen","country":"PH","lat":15.88642,"lon":120.59984},{"name":"Carmen","country":"PH","lat":15.44702,"lon":120.82676},{"name":"Carmen","country":"PH","lat":12.6171,"lon":122.1211},{"name":"Carmen","country":"PH","lat":9.8223,"lon":124.1964},{"name":"Carmen","country":"PH","lat":9.22639,"lon":126.01722},{"name":"Carmen","country":"PH","lat":8.98861,"lon":125.2925},{"name":"Carmen","country":"PH","lat":7.36056,"lon":125.70639},{"name":"Carmen","country":"PH","lat":7.20444,"lon":124.79167},{"name":"Carmen Grande","country":"PH","lat":10.3787,"lon":122.9156},{"name":"Carmona","country":"PH","lat":14.3132,"lon":121.0576},{"name":"Caronoan West","country":"PH","lat":16.2633,"lon":120.4463},{"name":"Carot","country":"PH","lat":16.34468,"lon":119.98005},{"name":"Carpenter Hill","country":"PH","lat":6.44413,"lon":124.88138},{"name":"Carranglan","country":"PH","lat":15.9613,"lon":121.0641},{"name":"Carrascal","country":"PH","lat":9.37028,"lon":125.94917},{"name":"Carriedo","country":"PH","lat":16.031,"lon":120.7549},{"name":"Carriedo","country":"PH","lat":12.9344,"lon":124.105},{"name":"Cartagena","country":"PH","lat":9.8203,"lon":122.4004},{"name":"Caruray","country":"PH","lat":10.3094,"lon":119.0128},{"name":"Carusucan","country":"PH","lat":15.96589,"lon":120.63598},{"name":"Casala-an","country":"PH","lat":9.11667,"lon":123.05},{"name":"Casambalangan","country":"PH","lat":18.37646,"lon":122.12745},{"name":"Casay","country":"PH","lat":9.8204,"lon":123.5496},{"name":"Casay","country":"PH","lat":13.2632,"lon":122.5217},{"name":"Casian","country":"PH","lat":11.035,"lon":119.7136},{"name":"Casiguran","country":"PH","lat":12.87374,"lon":124.00759},{"name":"Casisang","country":"PH","lat":8.13806,"lon":125.125},{"name":"Cassanayan","country":"PH","lat":11.5169,"lon":123.0512},{"name":"Castañas","country":"PH","lat":13.8744,"lon":121.5533},{"name":"Castilla","country":"PH","lat":12.94861,"lon":123.88222},{"name":"Castillejos","country":"PH","lat":14.93363,"lon":120.19785},{"name":"Castillo","country":"PH","lat":13.7313,"lon":123.1166},{"name":"Casuguran","country":"PH","lat":14.7167,"lon":122.37422},{"name":"Catabangan","country":"PH","lat":13.8777,"lon":122.6615},{"name":"Catablan","country":"PH","lat":15.9757,"lon":120.4953},{"name":"Cataingan","country":"PH","lat":12.003,"lon":123.992},{"name":"Catanauan","country":"PH","lat":13.5926,"lon":122.3215},{"name":"Catarman","country":"PH","lat":12.4989,"lon":124.6377},{"name":"Catarman","country":"PH","lat":9.60169,"lon":123.86111},{"name":"Catarman","country":"PH","lat":9.12556,"lon":124.67556},{"name":"Catayauan","country":"PH","lat":18.16072,"lon":121.65271},{"name":"Catbalogan","country":"PH","lat":11.77528,"lon":124.88611},{"name":"Cateel","country":"PH","lat":7.79139,"lon":126.45333},{"name":"Caterman","country":"PH","lat":17.21738,"lon":120.42442},{"name":"Caticlan","country":"PH","lat":11.93337,"lon":121.95981},{"name":"Caticugan","country":"PH","lat":9.1,"lon":123},{"name":"Catigbian","country":"PH","lat":9.8501,"lon":123.9994},{"name":"Catmon","country":"PH","lat":11.53516,"lon":124.43115},{"name":"Catmon","country":"PH","lat":10.71667,"lon":124},{"name":"Catmondaan","country":"PH","lat":10.68692,"lon":124.01494},{"name":"Cato","country":"PH","lat":15.8362,"lon":119.9151},{"name":"Catubig","country":"PH","lat":12.4098,"lon":125.0548},{"name":"Catuday","country":"PH","lat":16.2923,"lon":119.8062},{"name":"Catungan","country":"PH","lat":10.7706,"lon":122.0149},{"name":"Catungawan Sur","country":"PH","lat":9.7817,"lon":124.4693},{"name":"Cauayan","country":"PH","lat":16.93472,"lon":121.7725},{"name":"Cauayan","country":"PH","lat":15.15149,"lon":120.67166},{"name":"Cauayan","country":"PH","lat":9.9718,"lon":122.6249},{"name":"Causip","country":"PH","lat":13.5159,"lon":123.2834},{"name":"Causwagan","country":"PH","lat":8.4475,"lon":125.84028},{"name":"Cavinti","country":"PH","lat":14.24482,"lon":121.50797},{"name":"Cavite","country":"PH","lat":15.67785,"lon":120.76978},{"name":"Cavite City","country":"PH","lat":14.48369,"lon":120.89878},{"name":"Cawayan","country":"PH","lat":9.80391,"lon":123.53236},{"name":"Cawayan","country":"PH","lat":13.3672,"lon":122.5094},{"name":"Cawayan","country":"PH","lat":12.6557,"lon":121.5456},{"name":"Cawayan","country":"PH","lat":11.6237,"lon":122.4649},{"name":"Cawayan Bugtong","country":"PH","lat":15.63362,"lon":120.77695},{"name":"Cayang","country":"PH","lat":11.06667,"lon":123.98333},{"name":"Cayanga","country":"PH","lat":16.11508,"lon":120.39875},{"name":"Cayanguan","country":"PH","lat":11.689,"lon":122.2909},{"name":"Cayhagan","country":"PH","lat":9.6783,"lon":122.4335},{"name":"Cayungnan","country":"PH","lat":16.1332,"lon":119.8375},{"name":"Cebu City","country":"PH","lat":10.31672,"lon":123.89071},{"name":"Cebuano","country":"PH","lat":6.38794,"lon":124.96841},{"name":"Centro1, Santa. Rosa 1, Baco, Oriental Mindoro","country":"PH","lat":13.37442,"lon":121.06289},{"name":"Cervantes","country":"PH","lat":16.9909,"lon":120.7359},{"name":"Cervantes","country":"PH","lat":12.36861,"lon":124.65972},{"name":"Cervantes","country":"PH","lat":10.8726,"lon":123.5209},{"name":"Chambrey","country":"PH","lat":10.9768,"lon":123.1682},{"name":"Cigaras","country":"PH","lat":14.2266,"lon":121.4298},{"name":"City of Isabela","country":"PH","lat":6.70407,"lon":121.97117},{"name":"City of Ligao","country":"PH","lat":13.21684,"lon":123.51418},{"name":"Clarin","country":"PH","lat":9.9616,"lon":124.0252},{"name":"Clarin","country":"PH","lat":8.2023,"lon":123.8582},{"name":"Claver","country":"PH","lat":9.5725,"lon":125.73306},{"name":"Claveria","country":"PH","lat":18.60742,"lon":121.08322},{"name":"Claveria","country":"PH","lat":12.9035,"lon":123.2457},{"name":"Claveria","country":"PH","lat":8.61,"lon":124.89472},{"name":"Codcod","country":"PH","lat":10.46337,"lon":123.2495},{"name":"Cogan","country":"PH","lat":10.59306,"lon":124.01778},{"name":"Cogon","country":"PH","lat":10.0372,"lon":123.4539},{"name":"Cogon","country":"PH","lat":7.15083,"lon":125.71722},{"name":"Cogon","country":"PH","lat":11.4641,"lon":122.803},{"name":"Cogon","country":"PH","lat":10.7133,"lon":123.8284},{"name":"Cogon","country":"PH","lat":10.26778,"lon":123.75861},{"name":"Cogon Cruz","country":"PH","lat":10.50944,"lon":123.96972},{"name":"Cogtong","country":"PH","lat":9.8374,"lon":124.5291},{"name":"Colipapa","country":"PH","lat":9.4726,"lon":122.5616},{"name":"Colongulo","country":"PH","lat":6.33861,"lon":124.72167},{"name":"Colonia","country":"PH","lat":10.6553,"lon":123.7911},{"name":"Colonia","country":"PH","lat":6.64361,"lon":122.1575},{"name":"Columbio","country":"PH","lat":6.69639,"lon":124.93722},{"name":"Comagascas","country":"PH","lat":9.13972,"lon":125.55972},{"name":"Comillas","country":"PH","lat":15.39833,"lon":120.70045},{"name":"Comillas Norte","country":"PH","lat":16.959,"lon":120.7469},{"name":"Communal","country":"PH","lat":13.2548,"lon":121.1366},{"name":"Compostela","country":"PH","lat":10.455,"lon":124.0106},{"name":"Compostela","country":"PH","lat":7.67306,"lon":126.08889},{"name":"Concepcion","country":"PH","lat":15.44447,"lon":120.8007},{"name":"Concepcion","country":"PH","lat":15.32546,"lon":120.65723},{"name":"Concepcion","country":"PH","lat":15.22089,"lon":120.83114},{"name":"Concepcion","country":"PH","lat":12.3975,"lon":122.09361},{"name":"Concepcion","country":"PH","lat":11.2161,"lon":123.1073},{"name":"Concepcion","country":"PH","lat":10.692,"lon":123.0608},{"name":"Concepcion","country":"PH","lat":10.40528,"lon":124.78306},{"name":"Concepcion","country":"PH","lat":7.75056,"lon":125.71194},{"name":"Concepcion Ibaba","country":"PH","lat":13.92309,"lon":121.46099},{"name":"Concordia","country":"PH","lat":10.50767,"lon":122.5496},{"name":"Conduaga","country":"PH","lat":8.862,"lon":117.4893},{"name":"Conel","country":"PH","lat":6.20222,"lon":125.18722},{"name":"Conner","country":"PH","lat":17.79639,"lon":121.3275},{"name":"Consolacion","country":"PH","lat":11.3284,"lon":122.6332},{"name":"Consolacion","country":"PH","lat":10.3766,"lon":123.9573},{"name":"Constancia","country":"PH","lat":10.59596,"lon":122.6415},{"name":"Consuegra","country":"PH","lat":11.2976,"lon":124.5124},{"name":"Consuelo","country":"PH","lat":10.6348,"lon":124.301},{"name":"Consuelo","country":"PH","lat":9.9996,"lon":122.758},{"name":"Consuelo","country":"PH","lat":8.90167,"lon":125.1875},{"name":"Conversion","country":"PH","lat":15.8984,"lon":121.1277},{"name":"Corcuera","country":"PH","lat":12.78331,"lon":122.04851},{"name":"Cordon","country":"PH","lat":16.6744,"lon":121.4658},{"name":"Cordova","country":"PH","lat":10.73028,"lon":122.40139},{"name":"Cordova","country":"PH","lat":10.24394,"lon":123.94222},{"name":"Corella","country":"PH","lat":9.6875,"lon":123.9218},{"name":"Corocotan","country":"PH","lat":7.3998,"lon":125.7727},{"name":"Coron","country":"PH","lat":11.9986,"lon":120.2043},{"name":"Coronon","country":"PH","lat":6.87917,"lon":125.44889},{"name":"Corrooy","country":"PH","lat":16.7962,"lon":120.4453},{"name":"Cortes","country":"PH","lat":9.722,"lon":123.88},{"name":"Cortes","country":"PH","lat":9.27972,"lon":126.19111},{"name":"Cortez","country":"PH","lat":11.5301,"lon":122.3975},{"name":"Cosina","country":"PH","lat":8.10611,"lon":124.61972},{"name":"Cotabato","country":"PH","lat":7.22361,"lon":124.24639},{"name":"Cotmon","country":"PH","lat":13.1175,"lon":123.6637},{"name":"Cuambog","country":"PH","lat":7.30861,"lon":125.84806},{"name":"Cuartero","country":"PH","lat":11.3407,"lon":122.6694},{"name":"Cuenca","country":"PH","lat":13.902,"lon":121.0521},{"name":"Cuevas","country":"PH","lat":8.01917,"lon":126.09417},{"name":"Culaba","country":"PH","lat":11.65778,"lon":124.5425},{"name":"Culacling","country":"PH","lat":13.7815,"lon":122.8767},{"name":"Culaman","country":"PH","lat":5.96028,"lon":125.65861},{"name":"Culasi","country":"PH","lat":11.42721,"lon":122.05601},{"name":"Culasi","country":"PH","lat":11.07917,"lon":122.98194},{"name":"Culasian","country":"PH","lat":11.30694,"lon":124.61056},{"name":"Culianan","country":"PH","lat":6.98028,"lon":122.14667},{"name":"Culianin","country":"PH","lat":14.91511,"lon":120.89847},{"name":"Culit","country":"PH","lat":8.94722,"lon":125.35694},{"name":"Cullalabo del Sur","country":"PH","lat":17.10267,"lon":121.70394},{"name":"Culubasa","country":"PH","lat":15.14431,"lon":120.65223},{"name":"Cumadcad","country":"PH","lat":12.98056,"lon":123.78917},{"name":"Currimao","country":"PH","lat":18.0182,"lon":120.4876},{"name":"Curry","country":"PH","lat":13.6,"lon":123.3},{"name":"Curuan","country":"PH","lat":7.20528,"lon":122.23306},{"name":"Cut-cut Primero","country":"PH","lat":15.48277,"lon":120.58604},{"name":"Cuyapo","country":"PH","lat":15.78194,"lon":120.66472},{"name":"Cuyo","country":"PH","lat":10.8525,"lon":121.00861},{"name":"Da-an Sur","country":"PH","lat":11.2612,"lon":122.4202},{"name":"Daanbantayan","country":"PH","lat":11.24681,"lon":124.01462},{"name":"Dacudao","country":"PH","lat":7.21528,"lon":125.47139},{"name":"Dado","country":"PH","lat":7.05,"lon":124.45972},{"name":"Dadus","country":"PH","lat":7.0575,"lon":124.32167},{"name":"Daet","country":"PH","lat":14.1122,"lon":122.9553},{"name":"Dagami","country":"PH","lat":11.06083,"lon":124.90278},{"name":"Dagatan","country":"PH","lat":14.0017,"lon":121.3767},{"name":"Dagatan","country":"PH","lat":13.7389,"lon":121.199},{"name":"Dagohoy","country":"PH","lat":9.90016,"lon":124.28322},{"name":"Daguioman","country":"PH","lat":17.45093,"lon":120.91505},{"name":"Daguit","country":"PH","lat":14.1895,"lon":122.7266},{"name":"Daguma","country":"PH","lat":6.60345,"lon":124.5702},{"name":"Dagumba-an","country":"PH","lat":8.15306,"lon":124.59083},{"name":"Dagup","country":"PH","lat":16.63722,"lon":120.44556},{"name":"Dagupan","country":"PH","lat":17.70039,"lon":121.50448},{"name":"Dagupan","country":"PH","lat":16.04313,"lon":120.33325},{"name":"Dahay","country":"PH","lat":6.39067,"lon":124.71464},{"name":"Dalaguete","country":"PH","lat":9.7612,"lon":123.5349},{"name":"Dalangin","country":"PH","lat":7.85056,"lon":122.57833},{"name":"Dalaoig","country":"PH","lat":17.94917,"lon":121.7148},{"name":"Daliao","country":"PH","lat":5.86111,"lon":124.95333},{"name":"Dalican","country":"PH","lat":6.96667,"lon":124.4},{"name":"Daliciasao","country":"PH","lat":9.9859,"lon":122.7618},{"name":"Dalipey","country":"PH","lat":16.8,"lon":120.71667},{"name":"Dalipuga","country":"PH","lat":8.31583,"lon":124.25472},{"name":"Dalirig","country":"PH","lat":8.37722,"lon":124.90139},{"name":"Dalorong","country":"PH","lat":7.58583,"lon":125.13278},{"name":"Dalumangcob","country":"PH","lat":7.21667,"lon":124.3},{"name":"Dalupaon","country":"PH","lat":13.5517,"lon":122.9457},{"name":"Dalupirip","country":"PH","lat":16.32603,"lon":120.72414},{"name":"Dalwangan","country":"PH","lat":8.20056,"lon":125.04056},{"name":"Damabalas","country":"PH","lat":7.01556,"lon":124.51417},{"name":"Damatulan","country":"PH","lat":7.03889,"lon":124.48278},{"name":"Damawato","country":"PH","lat":6.7,"lon":124.78333},{"name":"Damayan","country":"PH","lat":11.4936,"lon":122.5531},{"name":"Damilag","country":"PH","lat":8.35472,"lon":124.81222},{"name":"Damolog","country":"PH","lat":10.77271,"lon":124.00639},{"name":"Damortis","country":"PH","lat":16.24051,"lon":120.40565},{"name":"Dampol","country":"PH","lat":14.90128,"lon":120.82187},{"name":"Damulog","country":"PH","lat":7.48361,"lon":124.94306},{"name":"Danao","country":"PH","lat":10.52083,"lon":124.02722},{"name":"Danao","country":"PH","lat":9.945,"lon":124.2233},{"name":"Danao","country":"PH","lat":9.63333,"lon":124.2},{"name":"Danao","country":"PH","lat":9.55421,"lon":123.75648},{"name":"Dancagan","country":"PH","lat":7.60917,"lon":125.00417},{"name":"Dancalan","country":"PH","lat":9.9821,"lon":122.7386},{"name":"Dangcalan","country":"PH","lat":12.9168,"lon":123.5838},{"name":"Danglas","country":"PH","lat":17.7009,"lon":120.6556},{"name":"Danlugan","country":"PH","lat":7.8922,"lon":123.3712},{"name":"Dansuli","country":"PH","lat":6.64075,"lon":124.58258},{"name":"Dao","country":"PH","lat":12.0998,"lon":125.4372},{"name":"Dao","country":"PH","lat":11.3937,"lon":122.6856},{"name":"Dapa","country":"PH","lat":9.75606,"lon":126.05164},{"name":"Dapawan","country":"PH","lat":12.40694,"lon":122.02778},{"name":"Dapdap","country":"PH","lat":12.2155,"lon":123.7662},{"name":"Dapdap","country":"PH","lat":12.062,"lon":125.4881},{"name":"Dapdapan","country":"PH","lat":11.4943,"lon":122.6314},{"name":"Dapitan","country":"PH","lat":10.26244,"lon":123.9497},{"name":"Dapitan","country":"PH","lat":8.6561,"lon":123.4227},{"name":"Daraga","country":"PH","lat":13.1483,"lon":123.7124},{"name":"Daragutan","country":"PH","lat":17,"lon":122.03333},{"name":"Daraitan","country":"PH","lat":14.6028,"lon":121.4319},{"name":"Daram","country":"PH","lat":11.6341,"lon":124.7947},{"name":"Darapidap","country":"PH","lat":17.20007,"lon":120.41802},{"name":"Dasmariñas","country":"PH","lat":14.32944,"lon":120.93667},{"name":"Dasol","country":"PH","lat":15.9902,"lon":119.8828},{"name":"Dassun","country":"PH","lat":17.74517,"lon":121.71137},{"name":"Datagon","country":"PH","lat":9.4461,"lon":123.0891},{"name":"Datu Paglas","country":"PH","lat":6.76667,"lon":124.85},{"name":"Datu Piang","country":"PH","lat":7.02833,"lon":124.5025},{"name":"Dauin","country":"PH","lat":9.1914,"lon":123.2654},{"name":"Dauis","country":"PH","lat":9.62528,"lon":123.86583},{"name":"Davan","country":"PH","lat":6.91487,"lon":126.15323},{"name":"Davao","country":"PH","lat":7.07306,"lon":125.61278},{"name":"Davila","country":"PH","lat":18.4726,"lon":120.5763},{"name":"Dawa-Dawa","country":"PH","lat":7.46833,"lon":122.83694},{"name":"Dayap","country":"PH","lat":14.18014,"lon":121.33335},{"name":"Dayapan","country":"PH","lat":13.93723,"lon":120.9162},{"name":"Daykitin","country":"PH","lat":13.27073,"lon":121.91086},{"name":"De la Paz","country":"PH","lat":11.06444,"lon":122.77917},{"name":"De la Paz","country":"PH","lat":9.70004,"lon":123.86433},{"name":"Del Carmen","country":"PH","lat":15.00544,"lon":120.53412},{"name":"Del Carmen, Surigao del Norte","country":"PH","lat":9.86944,"lon":125.96972},{"name":"Del Gallego","country":"PH","lat":13.9223,"lon":122.5954},{"name":"Del Monte","country":"PH","lat":14.6418,"lon":121.0177},{"name":"Del Monte","country":"PH","lat":7.72583,"lon":123.00806},{"name":"Del Pilar","country":"PH","lat":15.03601,"lon":120.69935},{"name":"Del Pilar","country":"PH","lat":9.15194,"lon":125.58472},{"name":"Del Pilar","country":"PH","lat":7.56306,"lon":125.82667},{"name":"Del Pilar","country":"PH","lat":15.6956,"lon":121.0863},{"name":"Del Rosario","country":"PH","lat":13.3057,"lon":123.3133},{"name":"Diadi","country":"PH","lat":16.7262,"lon":121.3589},{"name":"Diamantina","country":"PH","lat":16.91795,"lon":121.62674},{"name":"Dian-ay","country":"PH","lat":10.83333,"lon":123.55},{"name":"Diaz","country":"PH","lat":15.8463,"lon":120.8347},{"name":"Dibuluan","country":"PH","lat":16.51907,"lon":121.76472},{"name":"Dicabisagan","country":"PH","lat":17.08184,"lon":122.41574},{"name":"Dicamay","country":"PH","lat":16.75606,"lon":122.00374},{"name":"Dicayong","country":"PH","lat":8.2206,"lon":123.0338},{"name":"Diffun","country":"PH","lat":16.59,"lon":121.5057},{"name":"Digal","country":"PH","lat":6.75306,"lon":124.79639},{"name":"Digdig","country":"PH","lat":15.949,"lon":120.9778},{"name":"Digkilaan","country":"PH","lat":8.25111,"lon":124.31722},{"name":"Digos","country":"PH","lat":6.74972,"lon":125.35722},{"name":"Dilan","country":"PH","lat":16.0879,"lon":120.5207},{"name":"Diliman Primero","country":"PH","lat":15.0247,"lon":120.95208},{"name":"Dimaluna","country":"PH","lat":8.1218,"lon":123.7995},{"name":"Dimasalang","country":"PH","lat":12.1923,"lon":123.8592},{"name":"Dimataling","country":"PH","lat":7.5344,"lon":123.3738},{"name":"Dimayon","country":"PH","lat":8.06667,"lon":124.15},{"name":"Dimiao","country":"PH","lat":9.6064,"lon":124.1633},{"name":"Dinagat","country":"PH","lat":9.95611,"lon":125.59333},{"name":"Dinahican","country":"PH","lat":14.71667,"lon":121.71667},{"name":"Dinaig","country":"PH","lat":7.16985,"lon":124.20836},{"name":"Dinalongan","country":"PH","lat":16.1404,"lon":121.9573},{"name":"Dinalupihan","country":"PH","lat":14.87827,"lon":120.45221},{"name":"Dingalan","country":"PH","lat":15.3897,"lon":121.3929},{"name":"Dinganen","country":"PH","lat":7.32833,"lon":124.37833},{"name":"Dingle","country":"PH","lat":10.9995,"lon":122.6711},{"name":"Dingras","country":"PH","lat":18.1032,"lon":120.6967},{"name":"Diplahan","country":"PH","lat":7.71667,"lon":123.01667},{"name":"Dipolo","country":"PH","lat":7.7828,"lon":123.1158},{"name":"Dipolog","country":"PH","lat":8.56697,"lon":123.33471},{"name":"Disod","country":"PH","lat":8.2611,"lon":123.0169},{"name":"Ditsaan","country":"PH","lat":7.97889,"lon":124.35111},{"name":"Divisoria","country":"PH","lat":17.52268,"lon":121.77421},{"name":"Dobdoban","country":"PH","lat":12.5747,"lon":122.1138},{"name":"Dodan","country":"PH","lat":17.64107,"lon":121.79449},{"name":"Doljo","country":"PH","lat":9.58745,"lon":123.73033},{"name":"Dolo","country":"PH","lat":6.81028,"lon":125.19167},{"name":"Dologon","country":"PH","lat":7.84083,"lon":125.04444},{"name":"Dolores","country":"PH","lat":15.09498,"lon":120.52889},{"name":"Dolores","country":"PH","lat":17.6477,"lon":120.7091},{"name":"Dolores","country":"PH","lat":14.02265,"lon":121.41008},{"name":"Dolores","country":"PH","lat":12.0371,"lon":125.4825},{"name":"Dolores","country":"PH","lat":11.06139,"lon":124.61333},{"name":"Domalanoan","country":"PH","lat":16.00292,"lon":120.21154},{"name":"Domampot","country":"PH","lat":16,"lon":120.65},{"name":"Don Carlos","country":"PH","lat":7.68,"lon":125.005},{"name":"Don Pedro","country":"PH","lat":15.88518,"lon":120.43036},{"name":"Doña Remedios Trinidad","country":"PH","lat":15,"lon":121.08333},{"name":"Donsol","country":"PH","lat":12.9055,"lon":123.5949},{"name":"Doong","country":"PH","lat":11.0786,"lon":123.6395},{"name":"Doos","country":"PH","lat":10.46528,"lon":124.72944},{"name":"Dorongan Punta","country":"PH","lat":15.81476,"lon":120.32266},{"name":"Dorsalanam","country":"PH","lat":8.30667,"lon":124.58556},{"name":"Dos Hermanas","country":"PH","lat":10.7421,"lon":123.0377},{"name":"Doyong","country":"PH","lat":15.97224,"lon":120.35386},{"name":"Dualing","country":"PH","lat":7.15167,"lon":124.56833},{"name":"Dueñas","country":"PH","lat":11.06698,"lon":122.61545},{"name":"Duero","country":"PH","lat":9.709,"lon":124.4055},{"name":"Dugcal","country":"PH","lat":13.6241,"lon":123.1612},{"name":"Dugongan","country":"PH","lat":14.1025,"lon":122.9066},{"name":"Dukay","country":"PH","lat":6.66688,"lon":124.55697},{"name":"Dulag","country":"PH","lat":10.9525,"lon":125.03167},{"name":"Dulangan","country":"PH","lat":13.4685,"lon":120.9803},{"name":"Dulangan","country":"PH","lat":13.3051,"lon":121.1129},{"name":"Dulangan","country":"PH","lat":11.4561,"lon":122.9557},{"name":"Dulao","country":"PH","lat":10.54176,"lon":122.9383},{"name":"Dulian","country":"PH","lat":7.12139,"lon":122.17889},{"name":"Dulig","country":"PH","lat":16.00212,"lon":120.16864},{"name":"Dumabato","country":"PH","lat":16.31667,"lon":121.7},{"name":"Dumaguete","country":"PH","lat":9.30646,"lon":123.30769},{"name":"Dumaguil","country":"PH","lat":6.62,"lon":124.65333},{"name":"Dumalag","country":"PH","lat":11.308,"lon":122.6236},{"name":"Dumalaguing","country":"PH","lat":8.34694,"lon":125.055},{"name":"Dumalinao","country":"PH","lat":7.8191,"lon":123.3694},{"name":"Dumalneg","country":"PH","lat":18.5254,"lon":120.8094},{"name":"Dumangas","country":"PH","lat":10.825,"lon":122.713},{"name":"Dumanjog","country":"PH","lat":10.057,"lon":123.4361},{"name":"Dumarais","country":"PH","lat":15.43455,"lon":120.69213},{"name":"Dumaran","country":"PH","lat":10.525,"lon":119.7671},{"name":"Dumarao","country":"PH","lat":11.2654,"lon":122.6889},{"name":"Dumingag","country":"PH","lat":8.16917,"lon":123.35056},{"name":"Dumlan","country":"PH","lat":7.4275,"lon":125.8819},{"name":"Dumpay","country":"PH","lat":15.88295,"lon":120.38899},{"name":"Dungon","country":"PH","lat":11.7196,"lon":122.316},{"name":"Dunguan","country":"PH","lat":6.94972,"lon":124.86083},{"name":"Dupax Del Norte","country":"PH","lat":16.3079,"lon":121.1062},{"name":"Dupax del Sur","country":"PH","lat":16.2838,"lon":121.0896},{"name":"Duran","country":"PH","lat":11.2618,"lon":122.5917},{"name":"East Migpulao","country":"PH","lat":7.6325,"lon":123.35917},{"name":"East Valencia","country":"PH","lat":10.668,"lon":122.71},{"name":"Ebcor Town","country":"PH","lat":7.44056,"lon":124.39722},{"name":"Echague","country":"PH","lat":16.70509,"lon":121.67633},{"name":"Eden","country":"PH","lat":17.03809,"lon":121.59799},{"name":"Egaña","country":"PH","lat":10.7472,"lon":122.00984},{"name":"Eguia","country":"PH","lat":15.9065,"lon":119.8858},{"name":"El Nido","country":"PH","lat":11.18583,"lon":119.39556},{"name":"El Pardo","country":"PH","lat":9.66,"lon":123.4944},{"name":"El Salvador","country":"PH","lat":8.56306,"lon":124.5225},{"name":"Enrile","country":"PH","lat":17.5596,"lon":121.6974},{"name":"Enrique B. Magalona","country":"PH","lat":10.87879,"lon":122.97707},{"name":"Enrique Villanueva","country":"PH","lat":9.2761,"lon":123.6468},{"name":"Entablado","country":"PH","lat":15.28661,"lon":120.86302},{"name":"Eraan","country":"PH","lat":9.06289,"lon":117.7016},{"name":"Erenas","country":"PH","lat":12.4245,"lon":124.3238},{"name":"Ermita","country":"PH","lat":10.9,"lon":122.71667},{"name":"Escalante","country":"PH","lat":10.84028,"lon":123.49917},{"name":"Esmeralda","country":"PH","lat":15.86722,"lon":120.715},{"name":"España","country":"PH","lat":12.38414,"lon":122.49901},{"name":"Esperanza","country":"PH","lat":11.7365,"lon":124.042},{"name":"Esperanza","country":"PH","lat":10.7027,"lon":124.4143},{"name":"Esperanza","country":"PH","lat":10.6995,"lon":124.3143},{"name":"Esperanza","country":"PH","lat":8.67694,"lon":125.64694},{"name":"Esperanza","country":"PH","lat":8.18083,"lon":124.00722},{"name":"Esperanza","country":"PH","lat":7.49167,"lon":125.72806},{"name":"Esperanza","country":"PH","lat":6.72306,"lon":124.51972},{"name":"Esperanza","country":"PH","lat":6.49804,"lon":124.66741},{"name":"Esperanza East","country":"PH","lat":17.02327,"lon":121.68402},{"name":"Espiritu","country":"PH","lat":17.9809,"lon":120.6569},{"name":"Estaca","country":"PH","lat":9.6933,"lon":124.2722},{"name":"Estacion","country":"PH","lat":15.69944,"lon":120.60833},{"name":"Estancia","country":"PH","lat":13.3589,"lon":123.6796},{"name":"Estancia","country":"PH","lat":11.4551,"lon":123.152},{"name":"Estefania","country":"PH","lat":17.79952,"lon":121.7231},{"name":"Estipona","country":"PH","lat":15.5902,"lon":120.6377},{"name":"Estrella","country":"PH","lat":15.75,"lon":121.03333},{"name":"Estrella","country":"PH","lat":13.32898,"lon":121.31092},{"name":"Eustaquio Lopez","country":"PH","lat":10.8195,"lon":123.0412},{"name":"Evangelista","country":"PH","lat":13.3335,"lon":121.0972},{"name":"Fabrica","country":"PH","lat":13.49,"lon":123.294},{"name":"Famy","country":"PH","lat":14.4376,"lon":121.4482},{"name":"Feliciano","country":"PH","lat":11.5787,"lon":122.3583},{"name":"Ferrol","country":"PH","lat":12.33833,"lon":121.94139},{"name":"Flora","country":"PH","lat":18.2163,"lon":121.4185},{"name":"Floridablanca","country":"PH","lat":14.9775,"lon":120.5285},{"name":"Fuerte","country":"PH","lat":17.53418,"lon":120.3695},{"name":"Furao","country":"PH","lat":17.03466,"lon":121.79689},{"name":"Gabaldon","country":"PH","lat":15.4522,"lon":121.3387},{"name":"Gabao","country":"PH","lat":12.9924,"lon":124.0169},{"name":"Gabao","country":"PH","lat":12.72709,"lon":123.97835},{"name":"Gabas","country":"PH","lat":10.7297,"lon":124.7961},{"name":"Gabawan","country":"PH","lat":12.42714,"lon":122.01332},{"name":"Gabi","country":"PH","lat":10.26306,"lon":123.96139},{"name":"Gabi","country":"PH","lat":11.5956,"lon":123.3376},{"name":"Gabi","country":"PH","lat":7.6215,"lon":126.092},{"name":"Gabuyan","country":"PH","lat":7.60806,"lon":125.66889},{"name":"Gadu","country":"PH","lat":17.6292,"lon":121.6105},{"name":"Gadung","country":"PH","lat":6.8025,"lon":124.02},{"name":"Gainza","country":"PH","lat":13.6165,"lon":123.1419},{"name":"Galimuyod","country":"PH","lat":17.18444,"lon":120.47194},{"name":"Gamay","country":"PH","lat":12.38542,"lon":125.29791},{"name":"Gambalidio","country":"PH","lat":13.6205,"lon":122.8913},{"name":"Gambang","country":"PH","lat":16.75,"lon":120.7833},{"name":"Gammad","country":"PH","lat":17.7104,"lon":121.7437},{"name":"Gamu","country":"PH","lat":17.04975,"lon":121.83604},{"name":"Gamut","country":"PH","lat":9.00444,"lon":126.16972},{"name":"Gamut","country":"PH","lat":8.53153,"lon":126.24117},{"name":"Ganapi","country":"PH","lat":17.20174,"lon":121.86524},{"name":"Ganassi","country":"PH","lat":7.82694,"lon":124.10344},{"name":"Gandara","country":"PH","lat":12.013,"lon":124.8118},{"name":"Gang","country":"PH","lat":7.24583,"lon":124.26639},{"name":"Gansing","country":"PH","lat":6.71851,"lon":124.65338},{"name":"Ganyangan","country":"PH","lat":7.67889,"lon":122.90944},{"name":"Gapan","country":"PH","lat":15.3072,"lon":120.9464},{"name":"Gappal","country":"PH","lat":16.83646,"lon":121.82184},{"name":"Garchitorena","country":"PH","lat":13.8804,"lon":123.6946},{"name":"Garcia Hernandez","country":"PH","lat":9.6144,"lon":124.2946},{"name":"Gasan","country":"PH","lat":13.32372,"lon":121.84675},{"name":"Gatbo","country":"PH","lat":13.58333,"lon":123.38333},{"name":"Gattaran","country":"PH","lat":18.06157,"lon":121.6441},{"name":"Gayaman","country":"PH","lat":16.01402,"lon":120.30757},{"name":"General Emilio Aguinaldo","country":"PH","lat":14.18417,"lon":120.79583},{"name":"General Luna","country":"PH","lat":15.7306,"lon":121.1791},{"name":"General Luna","country":"PH","lat":13.6866,"lon":122.1709},{"name":"General Luna","country":"PH","lat":9.78375,"lon":126.15657},{"name":"General MacArthur","country":"PH","lat":11.24639,"lon":125.53944},{"name":"General Mamerto Natividad","country":"PH","lat":15.6025,"lon":121.0515},{"name":"General Nakar","country":"PH","lat":14.76365,"lon":121.63559},{"name":"General Salipada K. Pendatun","country":"PH","lat":6.82626,"lon":124.72171},{"name":"General Santos","country":"PH","lat":6.11278,"lon":125.17167},{"name":"General Tinio","country":"PH","lat":15.35075,"lon":121.04773},{"name":"General Trias","country":"PH","lat":14.38694,"lon":120.88167},