[{"name":"Ad Dawḩah al Jadīdah","country":"QA","lat":25.27707,"lon":51.53286},{"name":"Al ‘Unayzah","country":"QA","lat":25.33759,"lon":51.50953},{"name":"Al Ghānim","country":"QA","lat":25.27987,"lon":51.54037},{"name":"Al Ghuwayrīyah","country":"QA","lat":25.82882,"lon":51.24567},{"name":"Al Hilāl al Gharbīyah","country":"QA","lat":25.2586,"lon":51.53098},{"name":"Al Hilāl ash Sharqīyah","country":"QA","lat":25.26042,"lon":51.54632},{"name":"Al Hitmī","country":"QA","lat":25.28488,"lon":51.54612},{"name":"Al Jumaylīyah","country":"QA","lat":25.61068,"lon":51.09108},{"name":"Al Khawr","country":"QA","lat":25.68389,"lon":51.50583},{"name":"Al Manşūrah","country":"QA","lat":25.26807,"lon":51.53219},{"name":"Al Markhīyah","country":"QA","lat":25.32488,"lon":51.49836},{"name":"Al Maţār al ‘Atīq","country":"QA","lat":25.25138,"lon":51.55569},{"name":"Al Wakrah","country":"QA","lat":25.17151,"lon":51.60337},{"name":"Al Wukayr","country":"QA","lat":25.15107,"lon":51.53718},{"name":"An Najmah","country":"QA","lat":25.26704,"lon":51.54322},{"name":"Ar Rayyān","country":"QA","lat":25.29194,"lon":51.42444},{"name":"Ar Ruways","country":"QA","lat":26.13978,"lon":51.21493},{"name":"As Sadd","country":"QA","lat":25.28617,"lon":51.50074},{"name":"As Sulţah al Jadīdah","country":"QA","lat":25.2604,"lon":51.51403},{"name":"Ash Shīḩānīyah","country":"QA","lat":25.37088,"lon":51.22264},{"name":"Aţ Ţarfah","country":"QA","lat":25.37335,"lon":51.48992},{"name":"Ath Thumāmah Khamsūn","country":"QA","lat":25.21958,"lon":51.55323},{"name":"Ath Thumāmah Sab‘ah wa Arba‘ūn","country":"QA","lat":25.23903,"lon":51.56333},{"name":"Ath Thumāmah Sittah wa Arba‘ūn","country":"QA","lat":25.23404,"lon":51.54053},{"name":"Az̧ Z̧a‘āyin","country":"QA","lat":25.57744,"lon":51.48306},{"name":"Doha","country":"QA","lat":25.28545,"lon":51.53096},{"name":"Dukhān","country":"QA","lat":25.42485,"lon":50.78227},{"name":"Farīj al Amīr","country":"QA","lat":25.28733,"lon":51.47136},{"name":"Farīj Kulayb","country":"QA","lat":25.31313,"lon":51.4929},{"name":"Farīq al Hitmī","country":"QA","lat":25.28631,"lon":51.53261},{"name":"Fuwayriţ","country":"QA","lat":26.02565,"lon":51.36971},{"name":"Madīnat ash Shamāl","country":"QA","lat":26.12933,"lon":51.2009},{"name":"Madīnat Khalīfah","country":"QA","lat":25.32047,"lon":51.47787},{"name":"Mu‘aydhir Rawḑat Rāshid","country":"QA","lat":25.2617,"lon":51.39684},{"name":"Musay‘īd","country":"QA","lat":24.99226,"lon":51.55067},{"name":"Nu‘ayjah","country":"QA","lat":25.24617,"lon":51.53227},{"name":"Umm Bāb","country":"QA","lat":25.21417,"lon":50.80722},{"name":"Umm Ghuwaylīnah","country":"QA","lat":25.58716,"lon":51.14986},{"name":"Umm Lakhbā","country":"QA","lat":25.34157,"lon":51.4706},{"name":"Umm Şalāl ‘Alī","country":"QA","lat":25.46972,"lon":51.3975},{"name":"Umm Şalāl Muḩammad","country":"QA","lat":25.41524,"lon":51.40647}]