[{"name":"Bras-Panon","country":"RE","lat":-20.99667,"lon":55.67823},{"name":"Cilaos","country":"RE","lat":-21.13641,"lon":55.47187},{"name":"Entre-Deux","country":"RE","lat":-21.23333,"lon":55.46667},{"name":"L'Étang-Salé","country":"RE","lat":-21.25,"lon":55.38333},{"name":"La Plaine-des-Palmistes","country":"RE","lat":-21.13425,"lon":55.62819},{"name":"La Possession","country":"RE","lat":-20.92909,"lon":55.3348},{"name":"Le Port","country":"RE","lat":-20.93752,"lon":55.29415},{"name":"Le Tampon","country":"RE","lat":-21.2766,"lon":55.51766},{"name":"Les Avirons","country":"RE","lat":-21.24063,"lon":55.33685},{"name":"Les Trois-Bassins","country":"RE","lat":-21.1,"lon":55.3},{"name":"Petite-Île","country":"RE","lat":-21.35327,"lon":55.56427},{"name":"Piton Saint-Leu","country":"RE","lat":-21.21962,"lon":55.31513},{"name":"Saint-André","country":"RE","lat":-20.96333,"lon":55.65031},{"name":"Saint-Benoît","country":"RE","lat":-21.03795,"lon":55.71546},{"name":"Saint-Denis","country":"RE","lat":-20.88231,"lon":55.4504},{"name":"Saint-Joseph","country":"RE","lat":-21.3777,"lon":55.61691},{"name":"Saint-Leu","country":"RE","lat":-21.17059,"lon":55.28824},{"name":"Saint-Louis","country":"RE","lat":-21.28585,"lon":55.41124},{"name":"Saint-Paul","country":"RE","lat":-21.00961,"lon":55.27134},{"name":"Saint-Philippe","country":"RE","lat":-21.36086,"lon":55.7679},{"name":"Saint-Pierre","country":"RE","lat":-21.3393,"lon":55.47811},{"name":"Sainte-Marie","country":"RE","lat":-20.89686,"lon":55.55056},{"name":"Sainte-Rose","country":"RE","lat":-21.12858,"lon":55.79616},{"name":"Sainte-Suzanne","country":"RE","lat":-20.90616,"lon":55.60788},{"name":"Salazie","country":"RE","lat":-21.0271,"lon":55.5395}]