[{"name":"Ada","country":"RS","lat":45.8025,"lon":20.12583},{"name":"Adorjan","country":"RS","lat":46.00333,"lon":20.04007},{"name":"Aleksandrovac","country":"RS","lat":43.45861,"lon":21.0525},{"name":"Aleksandrovo","country":"RS","lat":45.63755,"lon":20.59288},{"name":"Aleksinac","country":"RS","lat":43.54167,"lon":21.70778},{"name":"Alibunar","country":"RS","lat":45.08083,"lon":20.96583},{"name":"Apatin","country":"RS","lat":45.6726,"lon":18.978},{"name":"Aradac","country":"RS","lat":45.38346,"lon":20.30137},{"name":"Aranđelovac","country":"RS","lat":44.30694,"lon":20.56},{"name":"Arilje","country":"RS","lat":43.75306,"lon":20.09556},{"name":"Bač","country":"RS","lat":45.39194,"lon":19.23667},{"name":"Bačka Palanka","country":"RS","lat":45.24966,"lon":19.39664},{"name":"Bačka Topola","country":"RS","lat":45.81516,"lon":19.6318},{"name":"Bački Breg","country":"RS","lat":45.92034,"lon":18.92944},{"name":"Bački Petrovac","country":"RS","lat":45.36056,"lon":19.59167},{"name":"Bačko Gradište","country":"RS","lat":45.53271,"lon":20.03082},{"name":"Bačko Petrovo Selo","country":"RS","lat":45.70681,"lon":20.07928},{"name":"Badovinci","country":"RS","lat":44.78534,"lon":19.37146},{"name":"Bajina Bašta","country":"RS","lat":43.97083,"lon":19.5675},{"name":"Banatska Topola","country":"RS","lat":45.67248,"lon":20.4653},{"name":"Banatski Despotovac","country":"RS","lat":45.36606,"lon":20.66407},{"name":"Banatski Dvor","country":"RS","lat":45.51866,"lon":20.51146},{"name":"Banatski Karlovac","country":"RS","lat":45.04987,"lon":21.018},{"name":"Banatsko Karađorđevo","country":"RS","lat":45.58693,"lon":20.56421},{"name":"Banatsko Veliko Selo","country":"RS","lat":45.81961,"lon":20.60772},{"name":"Banovo Polje","country":"RS","lat":44.9104,"lon":19.44916},{"name":"Barajevo","country":"RS","lat":44.57889,"lon":20.41583},{"name":"Baranda","country":"RS","lat":45.08459,"lon":20.44264},{"name":"Barič","country":"RS","lat":44.6507,"lon":20.25941},{"name":"Barice","country":"RS","lat":45.18189,"lon":21.08279},{"name":"Bašaid","country":"RS","lat":45.64102,"lon":20.41434},{"name":"Batočina","country":"RS","lat":44.15361,"lon":21.08167},{"name":"Bavanište","country":"RS","lat":44.81907,"lon":20.87654},{"name":"Bečej","country":"RS","lat":45.61632,"lon":20.03331},{"name":"Bečmen","country":"RS","lat":44.77983,"lon":20.20577},{"name":"Bela Crkva","country":"RS","lat":44.8975,"lon":21.41722},{"name":"Bela Palanka","country":"RS","lat":43.21833,"lon":22.31111},{"name":"Belegiš","country":"RS","lat":45.0192,"lon":20.33323},{"name":"Belgrade","country":"RS","lat":44.80401,"lon":20.46513},{"name":"Belo Blato","country":"RS","lat":45.27278,"lon":20.375},{"name":"Belotić","country":"RS","lat":44.81782,"lon":19.54801},{"name":"Beočin","country":"RS","lat":45.20829,"lon":19.72063},{"name":"Beška","country":"RS","lat":45.13092,"lon":20.06698},{"name":"Biljača","country":"RS","lat":42.3543,"lon":21.7437},{"name":"Blace","country":"RS","lat":43.29528,"lon":21.28583},{"name":"Bočar","country":"RS","lat":45.76994,"lon":20.2839},{"name":"Bogatić","country":"RS","lat":44.8375,"lon":19.48056},{"name":"Bogojevo","country":"RS","lat":45.53015,"lon":19.13022},{"name":"Bogosavac","country":"RS","lat":44.71799,"lon":19.59533},{"name":"Bojnik","country":"RS","lat":43.01224,"lon":21.721},{"name":"Boka","country":"RS","lat":45.3554,"lon":20.82987},{"name":"Boljevac","country":"RS","lat":43.83028,"lon":21.95306},{"name":"Boljevci","country":"RS","lat":44.72355,"lon":20.22348},{"name":"Bor","country":"RS","lat":44.07488,"lon":22.09591},{"name":"Borča","country":"RS","lat":44.86969,"lon":20.45413},{"name":"Bosilegrad","country":"RS","lat":42.5011,"lon":22.47238},{"name":"Bosut","country":"RS","lat":44.92977,"lon":19.36086},{"name":"Botoš","country":"RS","lat":45.30837,"lon":20.63514},{"name":"Brasina","country":"RS","lat":44.4652,"lon":19.15673},{"name":"Brdarica","country":"RS","lat":44.55376,"lon":19.7715},{"name":"Buđanovci","country":"RS","lat":44.89388,"lon":19.86344},{"name":"Bujanovac","country":"RS","lat":42.45917,"lon":21.76667},{"name":"Bukor","country":"RS","lat":44.49523,"lon":19.57116},{"name":"Čačak","country":"RS","lat":43.89139,"lon":20.34972},{"name":"Čajetina","country":"RS","lat":43.74977,"lon":19.71273},{"name":"Čelarevo","country":"RS","lat":45.26999,"lon":19.52484},{"name":"Čenej","country":"RS","lat":45.36826,"lon":19.80423},{"name":"Čenta","country":"RS","lat":45.10814,"lon":20.38947},{"name":"Čestereg","country":"RS","lat":45.56361,"lon":20.53194},{"name":"Ćićevac","country":"RS","lat":43.71882,"lon":21.44085},{"name":"Čoka","country":"RS","lat":45.9425,"lon":20.14333},{"name":"Čokešina","country":"RS","lat":44.65319,"lon":19.39016},{"name":"Čortanovci","country":"RS","lat":45.1546,"lon":20.01851},{"name":"Crepaja","country":"RS","lat":45.00984,"lon":20.63702},{"name":"Crna Bara","country":"RS","lat":44.87374,"lon":19.3948},{"name":"Crna Trava","country":"RS","lat":42.80988,"lon":22.29881},{"name":"Crvenka","country":"RS","lat":45.66098,"lon":19.45435},{"name":"Čukarica","country":"RS","lat":44.7825,"lon":20.42028},{"name":"Ćuprija","country":"RS","lat":43.9275,"lon":21.37},{"name":"Čurug","country":"RS","lat":45.47221,"lon":20.06861},{"name":"Debeljača","country":"RS","lat":45.0707,"lon":20.60153},{"name":"Despotovac","country":"RS","lat":44.0925,"lon":21.44694},{"name":"Despotovo","country":"RS","lat":45.45983,"lon":19.52653},{"name":"Dimitrovgrad","country":"RS","lat":43.01417,"lon":22.77556},{"name":"Dobanovci","country":"RS","lat":44.82631,"lon":20.22487},{"name":"Dobrić","country":"RS","lat":44.70224,"lon":19.57931},{"name":"Dobrica","country":"RS","lat":45.21339,"lon":20.84995},{"name":"Doljevac","country":"RS","lat":43.19817,"lon":21.83258},{"name":"Donji Dobrić","country":"RS","lat":44.61183,"lon":19.33109},{"name":"Donji Milanovac","country":"RS","lat":44.46593,"lon":22.1517},{"name":"Doroslovo","country":"RS","lat":45.60699,"lon":19.18868},{"name":"Draginje","country":"RS","lat":44.53302,"lon":19.7625},{"name":"Drenovac","country":"RS","lat":44.86649,"lon":19.70943},{"name":"Dublje","country":"RS","lat":44.80117,"lon":19.50902},{"name":"Duboka","country":"RS","lat":44.52281,"lon":21.75987},{"name":"Ðurđevo","country":"RS","lat":45.32591,"lon":20.06532},{"name":"Ðurići","country":"RS","lat":43.84678,"lon":19.40935},{"name":"Ečka","country":"RS","lat":45.32328,"lon":20.44294},{"name":"Elemir","country":"RS","lat":45.44263,"lon":20.30003},{"name":"Erdevik","country":"RS","lat":45.11721,"lon":19.40881},{"name":"Farkaždin","country":"RS","lat":45.19172,"lon":20.47239},{"name":"Feketić","country":"RS","lat":45.66431,"lon":19.69974},{"name":"Futog","country":"RS","lat":45.23874,"lon":19.71416},{"name":"Gadžin Han","country":"RS","lat":43.22278,"lon":22.03194},{"name":"Gakovo","country":"RS","lat":45.90078,"lon":19.06138},{"name":"Gardinovci","country":"RS","lat":45.20359,"lon":20.13558},{"name":"Gložan","country":"RS","lat":45.27954,"lon":19.56838},{"name":"Glušci","country":"RS","lat":44.89021,"lon":19.54913},{"name":"Golubac","country":"RS","lat":44.65296,"lon":21.63199},{"name":"Golubinci","country":"RS","lat":44.98533,"lon":20.06339},{"name":"Gornja Bukovica","country":"RS","lat":44.34233,"lon":19.78647},{"name":"Gornji Breg","country":"RS","lat":45.91995,"lon":20.01766},{"name":"Gornji Milanovac","country":"RS","lat":44.02603,"lon":20.46152},{"name":"Grabovac","country":"RS","lat":44.60049,"lon":20.08539},{"name":"Grabovci","country":"RS","lat":44.76496,"lon":19.84489},{"name":"Grocka","country":"RS","lat":44.67152,"lon":20.71648},{"name":"Gudurica","country":"RS","lat":45.16816,"lon":21.44264},{"name":"Hajdučica","country":"RS","lat":45.2501,"lon":20.96016},{"name":"Hetin","country":"RS","lat":45.66202,"lon":20.79138},{"name":"Hrtkovci","country":"RS","lat":44.88155,"lon":19.76374},{"name":"Iđoš","country":"RS","lat":45.82648,"lon":20.31791},{"name":"Idvor","country":"RS","lat":45.18895,"lon":20.51442},{"name":"Ilandža","country":"RS","lat":45.16897,"lon":20.92008},{"name":"Inđija","country":"RS","lat":45.04816,"lon":20.08165},{"name":"Irig","country":"RS","lat":45.10111,"lon":19.85833},{"name":"Irig","country":"RS","lat":45.0523,"lon":19.84448},{"name":"Ivanjica","country":"RS","lat":43.58028,"lon":20.23111},{"name":"Izbište","country":"RS","lat":45.02253,"lon":21.18388},{"name":"Jadranska Lešnica","country":"RS","lat":44.58625,"lon":19.34701},{"name":"Jagodina","country":"RS","lat":43.97713,"lon":21.26121},{"name":"Jajinci","country":"RS","lat":44.74061,"lon":20.48634},{"name":"Jakovo","country":"RS","lat":44.75366,"lon":20.26008},{"name":"Janošik","country":"RS","lat":45.17141,"lon":21.00658},{"name":"Jarak","country":"RS","lat":44.91843,"lon":19.75477},{"name":"Jarebice","country":"RS","lat":44.53995,"lon":19.42418},{"name":"Jarkovac","country":"RS","lat":45.26985,"lon":20.76078},{"name":"Jaša Tomić","country":"RS","lat":45.44725,"lon":20.85546},{"name":"Jazovo","country":"RS","lat":45.89876,"lon":20.2213},{"name":"Jelenča","country":"RS","lat":44.727,"lon":19.735},{"name":"Jermenovci","country":"RS","lat":45.18635,"lon":21.0455},{"name":"Jevremovac","country":"RS","lat":44.72172,"lon":19.66364},{"name":"Joševa","country":"RS","lat":44.58772,"lon":19.40967},{"name":"Kać","country":"RS","lat":45.30407,"lon":19.94299},{"name":"Kamenica","country":"RS","lat":44.343,"lon":19.72333},{"name":"Kanjiža","country":"RS","lat":46.06667,"lon":20.05},{"name":"Kikinda","country":"RS","lat":45.82972,"lon":20.46528},{"name":"Kisač","country":"RS","lat":45.35421,"lon":19.72975},{"name":"Kladovo","country":"RS","lat":44.61147,"lon":22.60955},{"name":"Klek","country":"RS","lat":45.42254,"lon":20.48049},{"name":"Klenak","country":"RS","lat":44.78846,"lon":19.71004},{"name":"Klenje","country":"RS","lat":44.80794,"lon":19.43508},{"name":"Knić","country":"RS","lat":43.92694,"lon":20.71889},{"name":"Knićanin","country":"RS","lat":45.18675,"lon":20.319},{"name":"Knjazevac","country":"RS","lat":43.56634,"lon":22.25701},{"name":"Koceljeva","country":"RS","lat":44.47361,"lon":19.81167},{"name":"Kolut","country":"RS","lat":45.89292,"lon":18.9276},{"name":"Konak","country":"RS","lat":45.31575,"lon":20.91468},{"name":"Kosjerić","country":"RS","lat":43.99611,"lon":19.90694},{"name":"Kovačica","country":"RS","lat":45.11167,"lon":20.62139},{"name":"Kovilj","country":"RS","lat":45.23422,"lon":20.02327},{"name":"Kovin","country":"RS","lat":44.7475,"lon":20.97611},{"name":"Kozjak","country":"RS","lat":45.18264,"lon":20.86381},{"name":"Kozjak","country":"RS","lat":44.58727,"lon":19.28412},{"name":"Kragujevac","country":"RS","lat":44.01667,"lon":20.91667},{"name":"Krajišnik","country":"RS","lat":45.45283,"lon":20.72976},{"name":"Kraljevo","country":"RS","lat":43.72583,"lon":20.68944},{"name":"Krčedin","country":"RS","lat":45.13871,"lon":20.13308},{"name":"Krivaja","country":"RS","lat":44.55021,"lon":19.59153},{"name":"Krupanj","country":"RS","lat":44.36556,"lon":19.36194},{"name":"Kruševac","country":"RS","lat":43.58,"lon":21.33389},{"name":"Kučevo","country":"RS","lat":44.4775,"lon":21.67},{"name":"Kula","country":"RS","lat":45.60889,"lon":19.52639},{"name":"Kulpin","country":"RS","lat":45.4024,"lon":19.58814},{"name":"Kumane","country":"RS","lat":45.53946,"lon":20.22902},{"name":"Kupinovo","country":"RS","lat":44.70708,"lon":20.04959},{"name":"Kupusina","country":"RS","lat":45.73759,"lon":19.01082},{"name":"Kuršumlija","country":"RS","lat":43.13826,"lon":21.27339},{"name":"Kuštilj","country":"RS","lat":45.03487,"lon":21.37989},{"name":"Lagja e Poshtme","country":"RS","lat":42.38853,"lon":21.72971},{"name":"Lajkovac","country":"RS","lat":44.36944,"lon":20.16528},{"name":"Lapovo","country":"RS","lat":44.18424,"lon":21.09727},{"name":"Lazarevac","country":"RS","lat":44.38534,"lon":20.2557},{"name":"Lazarevo","country":"RS","lat":45.38893,"lon":20.53999},{"name":"Lebane","country":"RS","lat":42.92389,"lon":21.7375},{"name":"Ledinci","country":"RS","lat":45.18697,"lon":19.80554},{"name":"Leskovac","country":"RS","lat":42.99806,"lon":21.94611},{"name":"Lešnica","country":"RS","lat":44.6525,"lon":19.31},{"name":"Lipnički Šor","country":"RS","lat":44.58058,"lon":19.26572},{"name":"Lipolist","country":"RS","lat":44.69783,"lon":19.50101},{"name":"Ljig","country":"RS","lat":44.23007,"lon":20.23819},{"name":"Ljubovija","country":"RS","lat":44.18944,"lon":19.37667},{"name":"Ljukovo","country":"RS","lat":45.02604,"lon":20.02737},{"name":"Lok","country":"RS","lat":45.21583,"lon":20.21222},{"name":"Lokve","country":"RS","lat":45.15198,"lon":21.03073},{"name":"Lovćenac","country":"RS","lat":45.6816,"lon":19.69205},{"name":"Loznica","country":"RS","lat":44.53118,"lon":19.24267},{"name":"Lučani","country":"RS","lat":43.86083,"lon":20.13806},{"name":"Lugavčina","country":"RS","lat":44.52314,"lon":21.07083},{"name":"Lukićevo","country":"RS","lat":45.33815,"lon":20.49895},{"name":"Mačvanska Mitrovica","country":"RS","lat":44.96739,"lon":19.59314},{"name":"Maglić","country":"RS","lat":45.36248,"lon":19.53211},{"name":"Majdanpek","country":"RS","lat":44.42771,"lon":21.94596},{"name":"Majur","country":"RS","lat":44.77105,"lon":19.65512},{"name":"Mala Ivanča","country":"RS","lat":44.58961,"lon":20.61634},{"name":"Mala Moštanica","country":"RS","lat":44.63834,"lon":20.306},{"name":"Mali Iđoš","country":"RS","lat":45.70833,"lon":19.66528},{"name":"Mali Požarevac","country":"RS","lat":44.56327,"lon":20.65433},{"name":"Mali Zvornik","country":"RS","lat":44.37344,"lon":19.10651},{"name":"Malo Crniće","country":"RS","lat":44.55611,"lon":21.28556},{"name":"Margita","country":"RS","lat":45.21598,"lon":21.17527},{"name":"Međa","country":"RS","lat":45.53815,"lon":20.80677},{"name":"Medveđa","country":"RS","lat":42.84306,"lon":21.58333},{"name":"Melenci","country":"RS","lat":45.5168,"lon":20.31961},{"name":"Merošina","country":"RS","lat":43.28358,"lon":21.7204},{"name":"Metković","country":"RS","lat":44.85617,"lon":19.54654},{"name":"Mihajlovo","country":"RS","lat":45.47085,"lon":20.41508},{"name":"Mionica","country":"RS","lat":44.25194,"lon":20.08167},{"name":"Miratovac","country":"RS","lat":42.25846,"lon":21.66456},{"name":"Mladenovac","country":"RS","lat":44.43861,"lon":20.69917},{"name":"Mokrin","country":"RS","lat":45.93362,"lon":20.41215},{"name":"Mol","country":"RS","lat":45.76457,"lon":20.13286},{"name":"Mošorin","country":"RS","lat":45.30196,"lon":20.16919},{"name":"Nakovo","country":"RS","lat":45.87503,"lon":20.56709},{"name":"Negotin","country":"RS","lat":44.22639,"lon":22.53083},{"name":"Neuzina","country":"RS","lat":45.3446,"lon":20.71418},{"name":"Nikinci","country":"RS","lat":44.85017,"lon":19.82321},{"name":"Nikolinci","country":"RS","lat":45.05245,"lon":21.06695},{"name":"Niš","country":"RS","lat":43.32472,"lon":21.90333},{"name":"Niška Banja","country":"RS","lat":43.29507,"lon":22.0057},{"name":"Nova Crnja","country":"RS","lat":45.66833,"lon":20.605},{"name":"Nova Pazova","country":"RS","lat":44.94366,"lon":20.21931},{"name":"Nova Varoš","country":"RS","lat":43.46056,"lon":19.81139},{"name":"Novi Banovci","country":"RS","lat":44.95691,"lon":20.28076},{"name":"Novi Bečej","country":"RS","lat":45.59861,"lon":20.13556},{"name":"Novi Beograd","country":"RS","lat":44.80556,"lon":20.42417},{"name":"Novi Itebej","country":"RS","lat":45.55918,"lon":20.7003},{"name":"Novi Karlovci","country":"RS","lat":45.07636,"lon":20.17948},{"name":"Novi Kneževac","country":"RS","lat":46.05,"lon":20.1},{"name":"Novi Kozarci","country":"RS","lat":45.78241,"lon":20.62289},{"name":"Novi Pazar","country":"RS","lat":43.13667,"lon":20.51222},{"name":"Novi Sad","country":"RS","lat":45.25167,"lon":19.83694},{"name":"Novi Slankamen","country":"RS","lat":45.12554,"lon":20.23914},{"name":"Novi Žednik","country":"RS","lat":45.94117,"lon":19.67141},{"name":"Novo Miloševo","country":"RS","lat":45.71916,"lon":20.30364},{"name":"Novo Selo","country":"RS","lat":44.67041,"lon":19.34495},{"name":"Obrenovac","country":"RS","lat":44.65486,"lon":20.20017},{"name":"Obrovac","country":"RS","lat":45.32106,"lon":19.35048},{"name":"Odžaci","country":"RS","lat":45.50667,"lon":19.26111},{"name":"Opovo","country":"RS","lat":45.05222,"lon":20.43028},{"name":"Orlovat","country":"RS","lat":45.24171,"lon":20.58089},{"name":"Osečina","country":"RS","lat":44.37306,"lon":19.60139},{"name":"Osječenik","country":"RS","lat":43.14528,"lon":19.85889},{"name":"Ostojićevo","country":"RS","lat":45.88863,"lon":20.16642},{"name":"Ostružnica","country":"RS","lat":44.72769,"lon":20.31845},{"name":"Ovča","country":"RS","lat":44.88349,"lon":20.53336},{"name":"Padej","country":"RS","lat":45.82756,"lon":20.16279},{"name":"Padina","country":"RS","lat":45.11988,"lon":20.7286},{"name":"Padinska Skela","country":"RS","lat":44.94291,"lon":20.42549},{"name":"Palić","country":"RS","lat":46.10646,"lon":19.75647},{"name":"Palilula","country":"RS","lat":44.81167,"lon":20.51611},{"name":"Pančevo","country":"RS","lat":44.87177,"lon":20.64167},{"name":"Paraćin","country":"RS","lat":43.86083,"lon":21.40778},{"name":"Pavliš","country":"RS","lat":45.10569,"lon":21.23952},{"name":"Pećinci","country":"RS","lat":44.90889,"lon":19.96639},{"name":"Perlez","country":"RS","lat":45.20813,"lon":20.38197},{"name":"Petkovica","country":"RS","lat":44.66627,"lon":19.43923},{"name":"Petrovac","country":"RS","lat":44.37694,"lon":21.41917},{"name":"Petrovaradin","country":"RS","lat":45.24667,"lon":19.87944},{"name":"Pirot","country":"RS","lat":43.15306,"lon":22.58611},{"name":"Pirot Centralni Trg","country":"RS","lat":43.15635,"lon":22.58515},{"name":"Plandište","country":"RS","lat":45.22722,"lon":21.12167},{"name":"Platičevo","country":"RS","lat":44.82213,"lon":19.79487},{"name":"Pocerski Pričinović","country":"RS","lat":44.72222,"lon":19.70722},{"name":"Požarevac","country":"RS","lat":44.62133,"lon":21.18782},{"name":"Požega","country":"RS","lat":43.84889,"lon":20.03632},{"name":"Preljina","country":"RS","lat":43.91454,"lon":20.40677},{"name":"Preševo","country":"RS","lat":42.30917,"lon":21.64917},{"name":"Priboj","country":"RS","lat":43.58306,"lon":19.52519},{"name":"Prigrevica","country":"RS","lat":45.67636,"lon":19.08809},{"name":"Prijepolje","country":"RS","lat":43.38996,"lon":19.6487},{"name":"Prislonica","country":"RS","lat":43.95223,"lon":20.43521},{"name":"Prnjavor","country":"RS","lat":44.70061,"lon":19.38695},{"name":"Progar","country":"RS","lat":44.71744,"lon":20.16047},{"name":"Prokuplje","country":"RS","lat":43.23417,"lon":21.58806},{"name":"Putinci","country":"RS","lat":44.99259,"lon":19.97102},{"name":"Rača","country":"RS","lat":44.22712,"lon":20.97754},{"name":"Radenka","country":"RS","lat":44.58345,"lon":21.76469},{"name":"Radenković","country":"RS","lat":44.92191,"lon":19.49543},{"name":"Radojevo","country":"RS","lat":45.74617,"lon":20.78917},{"name":"Radovnica","country":"RS","lat":42.43364,"lon":22.22861},{"name":"Rajince","country":"RS","lat":42.3787,"lon":21.69591},{"name":"Rakovica","country":"RS","lat":44.74194,"lon":20.44139},{"name":"Ralja","country":"RS","lat":44.57222,"lon":20.56222},{"name":"Raška","country":"RS","lat":43.28722,"lon":20.61528},{"name":"Ratkovo","country":"RS","lat":45.45566,"lon":19.33728},{"name":"Ravni Topolovac","country":"RS","lat":45.46082,"lon":20.56939},{"name":"Ravnje","country":"RS","lat":44.94326,"lon":19.4228},{"name":"Ravno Selo","country":"RS","lat":45.44967,"lon":19.62097},{"name":"Ražanj","country":"RS","lat":43.67222,"lon":21.54944},{"name":"Rekovac","country":"RS","lat":43.863,"lon":21.09345},{"name":"Ribari","country":"RS","lat":44.70961,"lon":19.42472},{"name":"Riđica","country":"RS","lat":45.99088,"lon":19.10635},{"name":"Ripanj","country":"RS","lat":44.63864,"lon":20.52136},{"name":"Ritopek","country":"RS","lat":44.73849,"lon":20.65499},{"name":"Rudnik","country":"RS","lat":44.13982,"lon":20.49398},{"name":"Ruma","country":"RS","lat":45.00806,"lon":19.82222},{"name":"Rumenka","country":"RS","lat":45.294,"lon":19.74306},{"name":"Rumska","country":"RS","lat":44.57261,"lon":19.58988},{"name":"Rušanj","country":"RS","lat":44.68477,"lon":20.44993},{"name":"Ruski Krstur","country":"RS","lat":45.56392,"lon":19.42002},{"name":"Rusko Selo","country":"RS","lat":45.76291,"lon":20.57117},{"name":"Šabac","country":"RS","lat":44.74667,"lon":19.69},{"name":"Sajan","country":"RS","lat":45.84227,"lon":20.27815},{"name":"Šajkaš","country":"RS","lat":45.27315,"lon":20.09051},{"name":"Sakule","country":"RS","lat":45.14667,"lon":20.48619},{"name":"Salaš Crnobarski","country":"RS","lat":44.82843,"lon":19.39437},{"name":"Salaš Noćajski","country":"RS","lat":44.94722,"lon":19.58611},{"name":"Samoljica","country":"RS","lat":42.38445,"lon":21.73708},{"name":"Samoš","country":"RS","lat":45.20255,"lon":20.77392},{"name":"Sanad","country":"RS","lat":45.97596,"lon":20.10816},{"name":"Šašinci","country":"RS","lat":44.96514,"lon":19.74151},{"name":"Savski Venac","country":"RS","lat":44.77917,"lon":20.45389},{"name":"Sečanj","country":"RS","lat":45.36667,"lon":20.77222},{"name":"Sefkerin","country":"RS","lat":45.00501,"lon":20.48256},{"name":"Seleuš","country":"RS","lat":45.1277,"lon":20.91461},{"name":"Senta","country":"RS","lat":45.9275,"lon":20.07722},{"name":"Ševarice","country":"RS","lat":44.86704,"lon":19.66006},{"name":"Ševica","country":"RS","lat":44.50883,"lon":21.72296},{"name":"Šid","country":"RS","lat":45.12833,"lon":19.22639},{"name":"Šimanovci","country":"RS","lat":44.87393,"lon":20.09175},{"name":"Sinošević","country":"RS","lat":44.61503,"lon":19.63601},{"name":"Sjenica","country":"RS","lat":43.27306,"lon":19.99944},{"name":"Smederevo","country":"RS","lat":44.66436,"lon":20.92763},{"name":"Smederevska Palanka","country":"RS","lat":44.36548,"lon":20.95885},{"name":"Soko Banja","country":"RS","lat":43.64333,"lon":21.87111},{"name":"Sokolovica","country":"RS","lat":43.21528,"lon":20.31556},{"name":"Sokolovo Brdo","country":"RS","lat":43.13694,"lon":19.80556},{"name":"Sombor","country":"RS","lat":45.77417,"lon":19.11222},{"name":"Sonta","country":"RS","lat":45.59427,"lon":19.09719},{"name":"Sopot","country":"RS","lat":44.51972,"lon":20.57361},{"name":"Srbobran","country":"RS","lat":45.55389,"lon":19.80278},{"name":"Sremčica","country":"RS","lat":44.67653,"lon":20.39232},{"name":"Sremska Kamenica","country":"RS","lat":45.22334,"lon":19.84263},{"name":"Sremska Mitrovica","country":"RS","lat":44.97639,"lon":19.61222},{"name":"Sremski Karlovci","country":"RS","lat":45.20285,"lon":19.93373},{"name":"Srpska Crnja","country":"RS","lat":45.72538,"lon":20.69008},{"name":"Srpski Itebej","country":"RS","lat":45.56715,"lon":20.7135},{"name":"Stajićevo","country":"RS","lat":45.29489,"lon":20.45845},{"name":"Stanišić","country":"RS","lat":45.93895,"lon":19.16709},{"name":"Stara Pazova","country":"RS","lat":44.985,"lon":20.16083},{"name":"Starčevo","country":"RS","lat":44.80729,"lon":20.70546},{"name":"Stari Banovci","country":"RS","lat":44.9842,"lon":20.28382},{"name":"Stari Grad","country":"RS","lat":44.81789,"lon":20.46186},{"name":"Stari Lec","country":"RS","lat":45.28401,"lon":20.96433},{"name":"Stari Žednik","country":"RS","lat":45.94864,"lon":19.63029},{"name":"Stepanovićevo","country":"RS","lat":45.41369,"lon":19.7},{"name":"Stepojevac","country":"RS","lat":44.51278,"lon":20.295},{"name":"Štitar","country":"RS","lat":44.79415,"lon":19.59529},{"name":"Stubline","country":"RS","lat":44.57476,"lon":20.13477},{"name":"Subotica","country":"RS","lat":46.1,"lon":19.66667},{"name":"Sumulicë","country":"RS","lat":42.38682,"lon":21.734},{"name":"Surčin","country":"RS","lat":44.79306,"lon":20.28028},{"name":"Surduk","country":"RS","lat":45.07118,"lon":20.3251},{"name":"Surdulica","country":"RS","lat":42.69056,"lon":22.17083},{"name":"Sutjeska","country":"RS","lat":45.38312,"lon":20.6962},{"name":"Svilajnac","country":"RS","lat":44.2337,"lon":21.1967},{"name":"Svrljig","country":"RS","lat":43.41333,"lon":22.12111},{"name":"Tabanović","country":"RS","lat":44.82018,"lon":19.64128},{"name":"Taraš","country":"RS","lat":45.46737,"lon":20.19867},{"name":"Temerin","country":"RS","lat":45.40861,"lon":19.88917},{"name":"Titel","country":"RS","lat":45.20611,"lon":20.29444},{"name":"Toba","country":"RS","lat":45.68943,"lon":20.55714},{"name":"Tomaševac","country":"RS","lat":45.26855,"lon":20.62272},{"name":"Topola","country":"RS","lat":44.25417,"lon":20.6825},{"name":"Torak","country":"RS","lat":45.50928,"lon":20.609},{"name":"Torda","country":"RS","lat":45.58423,"lon":20.459},{"name":"Trgovište","country":"RS","lat":42.36417,"lon":22.0825},{"name":"Tršić","country":"RS","lat":44.49502,"lon":19.2649},{"name":"Trstenik","country":"RS","lat":43.61694,"lon":21.0025},{"name":"Turija","country":"RS","lat":44.52273,"lon":21.63945},{"name":"Tutin","country":"RS","lat":42.99028,"lon":20.33139},{"name":"Ub","country":"RS","lat":44.45611,"lon":20.07389},{"name":"Ugrinovci","country":"RS","lat":44.87635,"lon":20.18763},{"name":"Uljma","country":"RS","lat":45.04213,"lon":21.15393},{"name":"Umka","country":"RS","lat":44.67806,"lon":20.30472},{"name":"Uzdin","country":"RS","lat":45.20512,"lon":20.62342},{"name":"Užice","country":"RS","lat":43.85861,"lon":19.84878},{"name":"Uzveće","country":"RS","lat":44.87861,"lon":19.60356},{"name":"Valjevo","country":"RS","lat":44.27513,"lon":19.89821},{"name":"Varna","country":"RS","lat":44.67914,"lon":19.6515},{"name":"Varvarin","country":"RS","lat":43.72397,"lon":21.3624},{"name":"Velika Greda","country":"RS","lat":45.24376,"lon":21.03498},{"name":"Velika Ivanča","country":"RS","lat":44.42639,"lon":20.58028},{"name":"Velika Moštanica","country":"RS","lat":44.66486,"lon":20.35395},{"name":"Velika Plana","country":"RS","lat":44.33389,"lon":21.07676},{"name":"Veliki Gaj","country":"RS","lat":45.28849,"lon":21.17057},{"name":"Veliko Gradište","country":"RS","lat":44.76329,"lon":21.51646},{"name":"Veliko Središte","country":"RS","lat":45.17919,"lon":21.40353},{"name":"Veternik","country":"RS","lat":45.25446,"lon":19.7588},{"name":"Vilovo","country":"RS","lat":45.24859,"lon":20.15521},{"name":"Vinča","country":"RS","lat":44.75907,"lon":20.61747},{"name":"Višnjićevo","country":"RS","lat":44.96731,"lon":19.28993},{"name":"Vladičin Han","country":"RS","lat":42.70778,"lon":22.06333},{"name":"Vladimirci","country":"RS","lat":44.61472,"lon":19.78528},{"name":"Vladimirovac","country":"RS","lat":45.03122,"lon":20.86566},{"name":"Vlajkovac","country":"RS","lat":45.07207,"lon":21.19945},{"name":"Vlasotince","country":"RS","lat":42.96697,"lon":22.13402},{"name":"Vojka","country":"RS","lat":44.93713,"lon":20.15236},{"name":"Vojvoda Stepa","country":"RS","lat":45.68537,"lon":20.65536},{"name":"Voždovac","country":"RS","lat":44.77833,"lon":20.47583},{"name":"Vračar","country":"RS","lat":44.79256,"lon":20.47491},{"name":"Vranić","country":"RS","lat":44.60237,"lon":20.32872},{"name":"Vranje","country":"RS","lat":42.55139,"lon":21.90028},{"name":"Vranjska Banja","country":"RS","lat":42.555,"lon":21.99222},{"name":"Vrbas","country":"RS","lat":45.57139,"lon":19.64083},{"name":"Vrčin","country":"RS","lat":44.66845,"lon":20.59325},{"name":"Vrdnik","country":"RS","lat":45.12174,"lon":19.79227},{"name":"Vrnjačka Banja","country":"RS","lat":43.62725,"lon":20.89634},{"name":"Vršac","country":"RS","lat":45.11667,"lon":21.30361},{"name":"Žabalj","country":"RS","lat":45.37222,"lon":20.06389},{"name":"Žabari","country":"RS","lat":44.35611,"lon":21.215},{"name":"Žagubica","country":"RS","lat":44.19685,"lon":21.78838},{"name":"Zaječar","country":"RS","lat":43.90358,"lon":22.26405},{"name":"Zemun","country":"RS","lat":44.8458,"lon":20.40116},{"name":"Žitište","country":"RS","lat":45.485,"lon":20.54972},{"name":"Žitorađa","country":"RS","lat":43.19,"lon":21.71306},{"name":"Zlatibor","country":"RS","lat":43.729,"lon":19.70029},{"name":"Zmajevo","country":"RS","lat":45.45408,"lon":19.6905},{"name":"Zminjak","country":"RS","lat":44.75711,"lon":19.4707},{"name":"Zrenjanin","country":"RS","lat":45.38361,"lon":20.38194},{"name":"Zuce","country":"RS","lat":44.69806,"lon":20.55524},{"name":"Žujince","country":"RS","lat":42.31568,"lon":21.70212},{"name":"Zvečka","country":"RS","lat":44.64025,"lon":20.16432},{"name":"Zvezdara","country":"RS","lat":44.77465,"lon":20.53207}]