[{"name":"Anse Boileau","country":"SC","lat":-4.71667,"lon":55.48333},{"name":"Anse Royale","country":"SC","lat":-4.73333,"lon":55.51667},{"name":"Beau Vallon","country":"SC","lat":-4.62091,"lon":55.43015},{"name":"Bel Ombre","country":"SC","lat":-4.61667,"lon":55.41667},{"name":"Cascade","country":"SC","lat":-4.66915,"lon":55.49952},{"name":"La Passe","country":"SC","lat":-4.34808,"lon":55.83269},{"name":"Perseverance","country":"SC","lat":-4.60445,"lon":55.46428},{"name":"Port Glaud","country":"SC","lat":-4.66256,"lon":55.41841},{"name":"Takamaka","country":"SC","lat":-4.76667,"lon":55.5},{"name":"Victoria","country":"SC","lat":-4.62001,"lon":55.45501}]