[{"name":"Abborrberget","country":"SE","lat":60.15,"lon":14.8},{"name":"Åby","country":"SE","lat":58.66667,"lon":16.18333},{"name":"Åhus","country":"SE","lat":55.91667,"lon":14.28333},{"name":"Akalla","country":"SE","lat":59.41465,"lon":17.91398},{"name":"Åkarp","country":"SE","lat":58.23333,"lon":13.65},{"name":"Åkarp","country":"SE","lat":55.65396,"lon":13.11107},{"name":"Åkers Styckebruk","country":"SE","lat":59.25,"lon":17.08333},{"name":"Åkersberga","country":"SE","lat":59.47944,"lon":18.29967},{"name":"Alafors","country":"SE","lat":57.92579,"lon":12.07835},{"name":"Alby","country":"SE","lat":59.2335,"lon":17.8538},{"name":"Åled","country":"SE","lat":56.75,"lon":12.93333},{"name":"Alfta","country":"SE","lat":61.34675,"lon":16.07499},{"name":"Alingsås","country":"SE","lat":57.93033,"lon":12.53345},{"name":"Älmhult","country":"SE","lat":56.55146,"lon":14.13827},{"name":"Älmsta","country":"SE","lat":59.96667,"lon":18.8},{"name":"Alsike","country":"SE","lat":59.75324,"lon":17.77331},{"name":"Älta","country":"SE","lat":59.26667,"lon":18.18333},{"name":"Alunda","country":"SE","lat":60.26667,"lon":18.4},{"name":"Alunda","country":"SE","lat":60.06667,"lon":18.08333},{"name":"Älvängen","country":"SE","lat":57.95872,"lon":12.1235},{"name":"Älvdalen","country":"SE","lat":61.22774,"lon":14.03935},{"name":"Alvesta","country":"SE","lat":56.89935,"lon":14.55559},{"name":"Älvkarleby","country":"SE","lat":60.57081,"lon":17.44895},{"name":"Älvsbyn","country":"SE","lat":65.67624,"lon":21.00162},{"name":"Åmål","country":"SE","lat":59.051,"lon":12.70492},{"name":"Åmotfors","country":"SE","lat":59.76191,"lon":12.36211},{"name":"Andalen","country":"SE","lat":57.70039,"lon":11.76136},{"name":"Anderslöv","country":"SE","lat":55.43836,"lon":13.31966},{"name":"Anderstorp","country":"SE","lat":58.88333,"lon":14.28333},{"name":"Anderstorp","country":"SE","lat":57.28333,"lon":13.63333},{"name":"Aneby","country":"SE","lat":57.83895,"lon":14.81016},{"name":"Ånge","country":"SE","lat":62.52495,"lon":15.65904},{"name":"Ängelholm","country":"SE","lat":56.2428,"lon":12.86219},{"name":"Angered","country":"SE","lat":57.78628,"lon":12.09852},{"name":"Ankarsrum","country":"SE","lat":57.69896,"lon":16.33407},{"name":"Anneberg","country":"SE","lat":60.24167,"lon":18.41667},{"name":"Annelund","country":"SE","lat":57.98843,"lon":13.07483},{"name":"Arboga","country":"SE","lat":59.39387,"lon":15.83882},{"name":"Arbrå","country":"SE","lat":61.46667,"lon":16.38333},{"name":"Åre","country":"SE","lat":63.39911,"lon":13.07995},{"name":"Årjäng","country":"SE","lat":59.39217,"lon":12.13336},{"name":"Arjeplog","country":"SE","lat":66.05173,"lon":17.88606},{"name":"Ärla","country":"SE","lat":59.27983,"lon":16.67896},{"name":"Arlöv","country":"SE","lat":55.63248,"lon":13.07141},{"name":"Arnö","country":"SE","lat":60.11667,"lon":18.63333},{"name":"Arnö","country":"SE","lat":58.72675,"lon":17.02322},{"name":"Årsta","country":"SE","lat":59.2978,"lon":18.0514},{"name":"Årsunda","country":"SE","lat":60.51644,"lon":16.73436},{"name":"Arvidsjaur","country":"SE","lat":65.59033,"lon":19.16682},{"name":"Arvika","country":"SE","lat":59.65528,"lon":12.58518},{"name":"Ås","country":"SE","lat":63.36667,"lon":16.58333},{"name":"Ås","country":"SE","lat":63.25,"lon":14.56667},{"name":"Åsa","country":"SE","lat":57.35,"lon":12.11667},{"name":"Åsbro","country":"SE","lat":59,"lon":15.05},{"name":"Åseda","country":"SE","lat":57.1701,"lon":15.3443},{"name":"Åsele","country":"SE","lat":64.16026,"lon":17.34762},{"name":"Askersund","country":"SE","lat":58.87988,"lon":14.9023},{"name":"Asmundtorp","country":"SE","lat":55.88333,"lon":12.93333},{"name":"Åstorp","country":"SE","lat":56.13566,"lon":12.9443},{"name":"Åtvidaberg","country":"SE","lat":58.20152,"lon":15.9977},{"name":"Avesta","country":"SE","lat":60.14274,"lon":16.16295},{"name":"Axvall","country":"SE","lat":58.38333,"lon":13.56667},{"name":"Backa","country":"SE","lat":64.98333,"lon":21.06667},{"name":"Bälinge","country":"SE","lat":59.95,"lon":17.53333},{"name":"Bålsta","country":"SE","lat":59.5671,"lon":17.52781},{"name":"Bankeryd","country":"SE","lat":57.86021,"lon":14.124},{"name":"Bara","country":"SE","lat":58.68333,"lon":17.06667},{"name":"Bara","country":"SE","lat":55.58155,"lon":13.17862},{"name":"Barkarö","country":"SE","lat":59.54935,"lon":16.5074},{"name":"Bårslöv","country":"SE","lat":56.0091,"lon":12.8058},{"name":"Båstad","country":"SE","lat":56.42689,"lon":12.85339},{"name":"Bengtsfors","country":"SE","lat":59.02912,"lon":12.23207},{"name":"Berg","country":"SE","lat":58.48831,"lon":15.52969},{"name":"Bergby","country":"SE","lat":60.92931,"lon":17.04194},{"name":"Bergeforsen","country":"SE","lat":62.53074,"lon":17.38123},{"name":"Bergkvara","country":"SE","lat":56.39063,"lon":16.07274},{"name":"Bergnäset","country":"SE","lat":65.57791,"lon":22.10844},{"name":"Bergshamra","country":"SE","lat":59.38083,"lon":18.03427},{"name":"Bergsjö","country":"SE","lat":61.98253,"lon":17.06368},{"name":"Bergsviken","country":"SE","lat":65.3,"lon":21.38333},{"name":"Billdal","country":"SE","lat":57.56667,"lon":11.93333},{"name":"Billeberga","country":"SE","lat":55.88333,"lon":13},{"name":"Billesholm","country":"SE","lat":56.05,"lon":13},{"name":"Billingsfors","country":"SE","lat":58.98333,"lon":12.25},{"name":"Bjärnum","country":"SE","lat":56.29032,"lon":13.71128},{"name":"Bjärred","country":"SE","lat":55.71667,"lon":13.01667},{"name":"Bjästa","country":"SE","lat":63.2,"lon":18.5},{"name":"Björboholm","country":"SE","lat":57.87096,"lon":12.32546},{"name":"Björklinge","country":"SE","lat":60.03004,"lon":17.55203},{"name":"Björkö","country":"SE","lat":57.73221,"lon":11.67916},{"name":"Björkskatan","country":"SE","lat":65.61373,"lon":22.17702},{"name":"Björlanda","country":"SE","lat":57.76667,"lon":11.83333},{"name":"Björneborg","country":"SE","lat":59.24122,"lon":14.24942},{"name":"Bjurholm","country":"SE","lat":63.93027,"lon":19.21369},{"name":"Bjursås","country":"SE","lat":60.73726,"lon":15.45291},{"name":"Bjuv","country":"SE","lat":56.08372,"lon":12.91914},{"name":"Blentarp","country":"SE","lat":55.58333,"lon":13.6},{"name":"Blomstermåla","country":"SE","lat":56.98333,"lon":16.33333},{"name":"Bodafors","country":"SE","lat":57.5,"lon":14.7},{"name":"Boden","country":"SE","lat":65.82518,"lon":21.68864},{"name":"Boliden","country":"SE","lat":64.86667,"lon":20.38333},{"name":"Bollebygd","country":"SE","lat":57.66866,"lon":12.57272},{"name":"Bollmora","country":"SE","lat":59.24196,"lon":18.22762},{"name":"Bollnäs","country":"SE","lat":61.34817,"lon":16.39464},{"name":"Bollstabruk","country":"SE","lat":62.99777,"lon":17.67348},{"name":"Boo","country":"SE","lat":59.33333,"lon":18.28333},{"name":"Bor","country":"SE","lat":57.11667,"lon":14.16667},{"name":"Borås","country":"SE","lat":57.72101,"lon":12.9401},{"name":"Borensberg","country":"SE","lat":58.56667,"lon":15.28333},{"name":"Borgholm","country":"SE","lat":56.8793,"lon":16.65634},{"name":"Borlänge","country":"SE","lat":60.4858,"lon":15.43714},{"name":"Boxholm","country":"SE","lat":58.19719,"lon":15.05376},{"name":"Braås","country":"SE","lat":57.06667,"lon":15.05},{"name":"Bräcke","country":"SE","lat":62.75067,"lon":15.42193},{"name":"Bräkne-Hoby","country":"SE","lat":56.23333,"lon":15.11667},{"name":"Brålanda","country":"SE","lat":58.56344,"lon":12.34923},{"name":"Brastad","country":"SE","lat":58.38333,"lon":11.48333},{"name":"Bredaryd","country":"SE","lat":57.17343,"lon":13.73789},{"name":"Bredbyn","country":"SE","lat":63.44655,"lon":18.11019},{"name":"Brevik","country":"SE","lat":59.35,"lon":18.2},{"name":"Brevik","country":"SE","lat":59.21667,"lon":18.38333},{"name":"Bro","country":"SE","lat":59.51667,"lon":17.63333},{"name":"Broby","country":"SE","lat":56.25521,"lon":14.07797},{"name":"Bromma","country":"SE","lat":59.34,"lon":17.94},{"name":"Bromölla","country":"SE","lat":56.07551,"lon":14.46958},{"name":"Brunflo","country":"SE","lat":63.07586,"lon":14.83203},{"name":"Brunn","country":"SE","lat":59.28,"lon":18.43},{"name":"Brunna","country":"SE","lat":60.26255,"lon":16.01034},{"name":"Brunna","country":"SE","lat":59.51667,"lon":17.75},{"name":"Bua","country":"SE","lat":57.2378,"lon":12.12187},{"name":"Bunkeflostrand","country":"SE","lat":55.54478,"lon":12.92375},{"name":"Bureå","country":"SE","lat":64.61667,"lon":21.2},{"name":"Burträsk","country":"SE","lat":64.51667,"lon":20.65},{"name":"Byske","country":"SE","lat":64.95258,"lon":21.2058},{"name":"Charlottenberg","country":"SE","lat":59.88422,"lon":12.30398},{"name":"Dalarö","country":"SE","lat":59.13306,"lon":18.40639},{"name":"Dalby","country":"SE","lat":55.66655,"lon":13.34976},{"name":"Dals Långed","country":"SE","lat":58.92555,"lon":12.30865},{"name":"Dalsjöfors","country":"SE","lat":57.71667,"lon":13.08333},{"name":"Degeberga","country":"SE","lat":55.83333,"lon":14.08333},{"name":"Degerfors","country":"SE","lat":59.23797,"lon":14.43077},{"name":"Deje","country":"SE","lat":59.603,"lon":13.472},{"name":"Delsbo","country":"SE","lat":61.80104,"lon":16.55571},{"name":"Dingtuna","country":"SE","lat":59.57279,"lon":16.38722},{"name":"Diseröd","country":"SE","lat":57.92636,"lon":12.02598},{"name":"Djurås","country":"SE","lat":60.56061,"lon":15.13281},{"name":"Djurö","country":"SE","lat":59.32653,"lon":18.71152},{"name":"Djursholm","country":"SE","lat":59.39926,"lon":18.05619},{"name":"Donsö","country":"SE","lat":57.6,"lon":11.79917},{"name":"Dorotea","country":"SE","lat":64.26185,"lon":16.41306},{"name":"Ed","country":"SE","lat":58.91247,"lon":11.93308},{"name":"Edsbyn","country":"SE","lat":61.37692,"lon":15.81747},{"name":"Ekängen","country":"SE","lat":58.46667,"lon":15.63333},{"name":"Ekeby","country":"SE","lat":56,"lon":12.96667},{"name":"Ekeby-Almby","country":"SE","lat":59.26,"lon":15.33},{"name":"Ekenässjön","country":"SE","lat":57.49175,"lon":15.02226},{"name":"Ekerö","country":"SE","lat":59.291,"lon":17.81212},{"name":"Ekshärad","country":"SE","lat":60.17275,"lon":13.49647},{"name":"Eksjö","country":"SE","lat":57.66643,"lon":14.97205},{"name":"Ellös","country":"SE","lat":58.18333,"lon":11.46667},{"name":"Emmaboda","country":"SE","lat":56.63268,"lon":15.53648},{"name":"Enbacka","country":"SE","lat":60.40993,"lon":15.59575},{"name":"Enebyberg","country":"SE","lat":59.43333,"lon":18.05},{"name":"Enhagen-Ekbacken","country":"SE","lat":59.56543,"lon":16.53045},{"name":"Enköping","country":"SE","lat":59.63607,"lon":17.07768},{"name":"Eriksberg","country":"SE","lat":59.24241,"lon":17.81631},{"name":"Eriksbo","country":"SE","lat":57.77141,"lon":12.04183},{"name":"Ersmark","country":"SE","lat":63.88333,"lon":20.31667},{"name":"Eskilstuna","country":"SE","lat":59.36661,"lon":16.5077},{"name":"Eslöv","country":"SE","lat":55.83928,"lon":13.30393},{"name":"Fagersta","country":"SE","lat":60.00418,"lon":15.79316},{"name":"Falkenberg","country":"SE","lat":56.90552,"lon":12.49118},{"name":"Falköping","country":"SE","lat":58.17347,"lon":13.55068},{"name":"Falun","country":"SE","lat":60.60357,"lon":15.62597},{"name":"Färgelanda","country":"SE","lat":58.56816,"lon":11.99235},{"name":"Färila","country":"SE","lat":61.80011,"lon":15.84422},{"name":"Färjestaden","country":"SE","lat":56.6499,"lon":16.46859},{"name":"Färlöv","country":"SE","lat":56.06667,"lon":14.08333},{"name":"Fellingsbro","country":"SE","lat":59.43333,"lon":15.58333},{"name":"Filipstad","country":"SE","lat":59.71236,"lon":14.16831},{"name":"Finspång","country":"SE","lat":58.70578,"lon":15.76739},{"name":"Fisksätra","country":"SE","lat":59.29153,"lon":18.2549},{"name":"Fittja","country":"SE","lat":59.24868,"lon":17.85991},{"name":"Fjälkinge","country":"SE","lat":56.04364,"lon":14.27562},{"name":"Fjärås kyrkby","country":"SE","lat":57.45913,"lon":12.17508},{"name":"Fjugesta","country":"SE","lat":59.17375,"lon":14.87227},{"name":"Flen","country":"SE","lat":59.05834,"lon":16.58781},{"name":"Floby","country":"SE","lat":58.13333,"lon":13.33333},{"name":"Forsbacka","country":"SE","lat":64.76667,"lon":20.5},{"name":"Forsbacka","country":"SE","lat":60.61667,"lon":16.88333},{"name":"Forserum","country":"SE","lat":57.7,"lon":14.46667},{"name":"Forshaga","country":"SE","lat":59.52541,"lon":13.48127},{"name":"Forsheda","country":"SE","lat":57.16415,"lon":13.83016},{"name":"Förslöv","country":"SE","lat":56.35,"lon":12.81667},{"name":"Fränsta","country":"SE","lat":62.49855,"lon":16.17016},{"name":"Frillesås","country":"SE","lat":57.31667,"lon":12.16667},{"name":"Fristad","country":"SE","lat":57.82483,"lon":13.01064},{"name":"Fritsla","country":"SE","lat":57.55655,"lon":12.78457},{"name":"Frösakull","country":"SE","lat":56.68333,"lon":12.73333},{"name":"Frövi","country":"SE","lat":59.46667,"lon":15.36667},{"name":"Furulund","country":"SE","lat":57.71667,"lon":12.13333},{"name":"Furulund","country":"SE","lat":55.7738,"lon":13.09022},{"name":"Fyllinge","country":"SE","lat":56.65,"lon":12.91667},{"name":"Gagnef","country":"SE","lat":60.59856,"lon":15.07745},{"name":"Gällivare","country":"SE","lat":67.13387,"lon":20.65278},{"name":"Gamla Stan","country":"SE","lat":59.32627,"lon":18.07251},{"name":"Gamla Uppsala","country":"SE","lat":59.89817,"lon":17.63386},{"name":"Gamleby","country":"SE","lat":57.89485,"lon":16.40508},{"name":"Gammelstad","country":"SE","lat":65.63931,"lon":22.01145},{"name":"Gånghester","country":"SE","lat":57.7,"lon":13.01667},{"name":"Gantofta","country":"SE","lat":55.98729,"lon":12.80482},{"name":"Gårdsten","country":"SE","lat":57.8048,"lon":12.02883},{"name":"Garphyttan","country":"SE","lat":59.30429,"lon":14.94623},{"name":"Gärsnäs","country":"SE","lat":55.54949,"lon":14.17923},{"name":"Gävle","country":"SE","lat":60.67452,"lon":17.14174},{"name":"Gemla","country":"SE","lat":56.86753,"lon":14.64379},{"name":"Genarp","country":"SE","lat":55.59907,"lon":13.3982},{"name":"Getinge","country":"SE","lat":56.81667,"lon":12.73333},{"name":"Gimo","country":"SE","lat":60.17304,"lon":18.18507},{"name":"Gislaved","country":"SE","lat":57.3044,"lon":13.54078},{"name":"Glimåkra","country":"SE","lat":56.3,"lon":14.13333},{"name":"Glommen","country":"SE","lat":56.93333,"lon":12.35},{"name":"Glumslöv","country":"SE","lat":55.94091,"lon":12.80929},{"name":"Gnarp","country":"SE","lat":62.04874,"lon":17.25858},{"name":"Gnesta","country":"SE","lat":59.04751,"lon":17.31191},{"name":"Gnosjö","country":"SE","lat":57.3585,"lon":13.73686},{"name":"Göta","country":"SE","lat":58.10617,"lon":12.15254},{"name":"Göteborg","country":"SE","lat":57.70716,"lon":11.96679},{"name":"Götene","country":"SE","lat":58.52824,"lon":13.49458},{"name":"Gråbo","country":"SE","lat":57.83625,"lon":12.29954},{"name":"Grängesberg","country":"SE","lat":60.07465,"lon":15.00784},{"name":"Gränna","country":"SE","lat":58.01667,"lon":14.46667},{"name":"Grästorp","country":"SE","lat":58.33219,"lon":12.68122},{"name":"Grebbestad","country":"SE","lat":58.70248,"lon":11.25738},{"name":"Grebo","country":"SE","lat":58.30145,"lon":15.87085},{"name":"Grillby","country":"SE","lat":59.62603,"lon":17.25787},{"name":"Grums","country":"SE","lat":59.35141,"lon":13.11105},{"name":"Grycksbo","country":"SE","lat":60.68751,"lon":15.48507},{"name":"Gullbrandstorp","country":"SE","lat":56.7,"lon":12.73333},{"name":"Gullspång","country":"SE","lat":58.98615,"lon":14.09644},{"name":"Gunnebo","country":"SE","lat":57.71667,"lon":16.53333},{"name":"Gustavsberg","country":"SE","lat":59.32684,"lon":18.38975},{"name":"Gusum","country":"SE","lat":58.2688,"lon":16.49894},{"name":"Habo","country":"SE","lat":57.91185,"lon":14.07444},{"name":"Hagfors","country":"SE","lat":60.02378,"lon":13.67214},{"name":"Häljarp","country":"SE","lat":55.85,"lon":12.91667},{"name":"Hällabrottet","country":"SE","lat":59.11667,"lon":15.2},{"name":"Hällbybrunn","country":"SE","lat":59.39152,"lon":16.42229},{"name":"Hällefors","country":"SE","lat":59.78388,"lon":14.52197},{"name":"Hälleforsnäs","country":"SE","lat":59.15208,"lon":16.497},{"name":"Hällevik","country":"SE","lat":56.01667,"lon":14.7},{"name":"Hallsberg","country":"SE","lat":59.06463,"lon":15.10993},{"name":"Hallstahammar","country":"SE","lat":59.61395,"lon":16.22846},{"name":"Hallstavik","country":"SE","lat":60.05,"lon":18.6},{"name":"Halmstad","country":"SE","lat":56.67446,"lon":12.85676},{"name":"Hammar","country":"SE","lat":56.01667,"lon":14.21667},{"name":"Hammarkullen","country":"SE","lat":57.78049,"lon":12.03604},{"name":"Hammarstrand","country":"SE","lat":63.11041,"lon":16.35377},{"name":"Hammerdal","country":"SE","lat":63.57615,"lon":15.36516},{"name":"Hanaskog","country":"SE","lat":56.16061,"lon":14.09307},{"name":"Handen","country":"SE","lat":59.16809,"lon":18.13796},{"name":"Haninge","country":"SE","lat":59.16775,"lon":18.14478},{"name":"Haparanda","country":"SE","lat":65.83549,"lon":24.13676},{"name":"Härnösand","country":"SE","lat":62.63228,"lon":17.93794},{"name":"Harplinge","country":"SE","lat":56.74491,"lon":12.72758},{"name":"Hässelby Villastad","country":"SE","lat":59.38,"lon":17.80867},{"name":"Hässleholm","country":"SE","lat":56.15905,"lon":13.76638},{"name":"Hasslö","country":"SE","lat":56.11667,"lon":15.48333},{"name":"Hästveda","country":"SE","lat":56.28468,"lon":13.93547},{"name":"Haverdal","country":"SE","lat":56.72222,"lon":12.67194},{"name":"Heby","country":"SE","lat":59.93815,"lon":16.86217},{"name":"Hedemora","country":"SE","lat":60.27973,"lon":15.98855},{"name":"Hedesunda","country":"SE","lat":60.4,"lon":17},{"name":"Helsingborg","country":"SE","lat":56.04673,"lon":12.69437},{"name":"Hemmesta","country":"SE","lat":59.32273,"lon":18.48675},{"name":"Hemse","country":"SE","lat":57.23788,"lon":18.37443},{"name":"Henån","country":"SE","lat":58.23848,"lon":11.67598},{"name":"Herrestad","country":"SE","lat":58.38333,"lon":14.8},{"name":"Herrljunga","country":"SE","lat":58.07739,"lon":13.02662},{"name":"Hestra","country":"SE","lat":57.91667,"lon":14.58333},{"name":"Hestra","country":"SE","lat":57.44232,"lon":13.59575},{"name":"Hillerstorp","country":"SE","lat":57.31293,"lon":13.88437},{"name":"Hindås","country":"SE","lat":57.70338,"lon":12.44657},{"name":"Hittarp","country":"SE","lat":56.28333,"lon":14.11667},{"name":"Hittarp","country":"SE","lat":56.1,"lon":12.63333},{"name":"Hjärnarp","country":"SE","lat":56.31667,"lon":12.91667},{"name":"Hjärup","country":"SE","lat":55.6688,"lon":13.13931},{"name":"Hjo","country":"SE","lat":58.30133,"lon":14.28784},{"name":"Hjuvik","country":"SE","lat":57.70167,"lon":11.71639},{"name":"Hofors","country":"SE","lat":60.54573,"lon":16.28668},{"name":"Hofterup","country":"SE","lat":55.80485,"lon":12.9797},{"name":"Höganäs","country":"SE","lat":56.19971,"lon":12.55795},{"name":"Högsby","country":"SE","lat":57.16597,"lon":16.02562},{"name":"Hökåsen","country":"SE","lat":59.66667,"lon":16.58333},{"name":"Hököpinge","country":"SE","lat":55.49411,"lon":13.00782},{"name":"Höllviken","country":"SE","lat":55.40982,"lon":12.9558},{"name":"Holmsund","country":"SE","lat":63.70602,"lon":20.36409},{"name":"Hölö","country":"SE","lat":59.28333,"lon":18.66667},{"name":"Hölö","country":"SE","lat":59.01667,"lon":17.53333},{"name":"Hönö","country":"SE","lat":57.68972,"lon":11.64972},{"name":"Höör","country":"SE","lat":55.93444,"lon":13.5385},{"name":"Hörby","country":"SE","lat":55.85238,"lon":13.66094},{"name":"Horndal","country":"SE","lat":60.3,"lon":16.41667},{"name":"Hörnefors","country":"SE","lat":63.62312,"lon":19.90856},{"name":"Horred","country":"SE","lat":57.35475,"lon":12.47777},{"name":"Hortlax","country":"SE","lat":65.28188,"lon":21.40544},{"name":"Hova","country":"SE","lat":58.85363,"lon":14.21914},{"name":"Hoverberg","country":"SE","lat":62.81381,"lon":14.44735},{"name":"Höviksnäs","country":"SE","lat":58.03333,"lon":11.76667},{"name":"Hovmantorp","country":"SE","lat":56.78685,"lon":15.14023},{"name":"Hovsta","country":"SE","lat":59.35,"lon":15.21667},{"name":"Huddinge","country":"SE","lat":59.23705,"lon":17.98192},{"name":"Hudiksvall","country":"SE","lat":61.72744,"lon":17.10558},{"name":"Hultsfred","country":"SE","lat":57.48815,"lon":15.84357},{"name":"Hunnebostrand","country":"SE","lat":58.44127,"lon":11.3032},{"name":"Huskvarna","country":"SE","lat":57.78596,"lon":14.30214},{"name":"Husum","country":"SE","lat":63.33333,"lon":19.16667},{"name":"Hyllinge","country":"SE","lat":56.1,"lon":12.85},{"name":"Hyltebruk","country":"SE","lat":56.99892,"lon":13.23958},{"name":"Iggesund","country":"SE","lat":61.64219,"lon":17.07477},{"name":"Ingared","country":"SE","lat":57.85989,"lon":12.45161},{"name":"Ingelstad","country":"SE","lat":56.75,"lon":14.91667},{"name":"Insjön","country":"SE","lat":64.4,"lon":17.48333},{"name":"Insjön","country":"SE","lat":60.67688,"lon":15.09487},{"name":"Irsta","country":"SE","lat":59.7,"lon":16.93333},{"name":"Irsta","country":"SE","lat":59.6,"lon":16.7},{"name":"Jakobsberg","country":"SE","lat":59.42268,"lon":17.83508},{"name":"Jämjö","country":"SE","lat":56.19187,"lon":15.84115},{"name":"Jämshög","country":"SE","lat":56.23333,"lon":14.51667},{"name":"Järbo","country":"SE","lat":60.71667,"lon":16.6},{"name":"Järna","country":"SE","lat":60.53333,"lon":14.36667},{"name":"Järna","country":"SE","lat":59.09165,"lon":17.56615},{"name":"Järpen","country":"SE","lat":63.3462,"lon":13.46572},{"name":"Järvsö","country":"SE","lat":61.71667,"lon":16.16667},{"name":"Johannedal","country":"SE","lat":62.43424,"lon":17.37273},{"name":"Jokkmokk","country":"SE","lat":66.60665,"lon":19.82324},{"name":"Jönköping","country":"SE","lat":57.78145,"lon":14.15618},{"name":"Jonstorp","country":"SE","lat":58,"lon":12.71667},{"name":"Jonstorp","country":"SE","lat":56.2338,"lon":12.67184},{"name":"Jordbro","country":"SE","lat":59.14972,"lon":18.11667},{"name":"Jörlanda","country":"SE","lat":57.9863,"lon":11.82943},{"name":"Jursla","country":"SE","lat":58.66667,"lon":16.18333},{"name":"Kåge","country":"SE","lat":64.83571,"lon":20.98453},{"name":"Kågeröd","country":"SE","lat":55.99976,"lon":13.08795},{"name":"Kalix","country":"SE","lat":65.85298,"lon":23.15645},{"name":"Källby","country":"SE","lat":58.50999,"lon":13.30582},{"name":"Kållered","country":"SE","lat":57.60992,"lon":12.05106},{"name":"Kallinge","country":"SE","lat":56.24841,"lon":15.28721},{"name":"Kalmar","country":"SE","lat":56.66157,"lon":16.36163},{"name":"Karlholmsbruk","country":"SE","lat":60.52091,"lon":17.63152},{"name":"Karlsborg","country":"SE","lat":58.53724,"lon":14.5047},{"name":"Karlshamn","country":"SE","lat":56.1706,"lon":14.86188},{"name":"Karlskoga","country":"SE","lat":59.32667,"lon":14.52386},{"name":"Karlskrona","country":"SE","lat":56.16156,"lon":15.58661},{"name":"Karlstad","country":"SE","lat":59.3793,"lon":13.50357},{"name":"Katrineholm","country":"SE","lat":58.99587,"lon":16.20721},{"name":"Kävlinge","country":"SE","lat":55.79188,"lon":13.11021},{"name":"Kaxholmen","country":"SE","lat":57.85345,"lon":14.30457},{"name":"Kil","country":"SE","lat":59.50234,"lon":13.31277},{"name":"Kilafors","country":"SE","lat":61.23333,"lon":16.56667},{"name":"Kimstad","country":"SE","lat":58.54967,"lon":15.96296},{"name":"Kinna","country":"SE","lat":57.50728,"lon":12.69463},{"name":"Kiruna","country":"SE","lat":67.85572,"lon":20.22513},{"name":"Kisa","country":"SE","lat":57.98781,"lon":15.63303},{"name":"Kista","country":"SE","lat":59.40316,"lon":17.94479},{"name":"Klågerup","country":"SE","lat":55.59416,"lon":13.24574},{"name":"Klintehamn","country":"SE","lat":57.38667,"lon":18.20371},{"name":"Klippan","country":"SE","lat":56.13559,"lon":13.13086},{"name":"Knäred","country":"SE","lat":56.51861,"lon":13.32423},{"name":"Knislinge","country":"SE","lat":56.18333,"lon":14.08333},{"name":"Knivsta","country":"SE","lat":59.72564,"lon":17.78753},{"name":"Kode","country":"SE","lat":57.94263,"lon":11.85051},{"name":"Kolbäck","country":"SE","lat":59.56516,"lon":16.23037},{"name":"Kolsva","country":"SE","lat":59.6,"lon":15.83333},{"name":"Köping","country":"SE","lat":59.51404,"lon":15.99255},{"name":"Köpingebro","country":"SE","lat":55.45526,"lon":13.93453},{"name":"Köpmanholmen","country":"SE","lat":63.16667,"lon":18.56667},{"name":"Kopparberg","country":"SE","lat":59.87597,"lon":14.99436},{"name":"Kopparmora","country":"SE","lat":59.33306,"lon":18.58306},{"name":"Kramfors","country":"SE","lat":62.93161,"lon":17.77646},{"name":"Kristdala","country":"SE","lat":57.4007,"lon":16.20496},{"name":"Kristianstad","country":"SE","lat":56.03129,"lon":14.15242},{"name":"Kristinehamn","country":"SE","lat":59.30978,"lon":14.10808},{"name":"Krokek","country":"SE","lat":58.67231,"lon":16.36741},{"name":"Krokom","country":"SE","lat":63.32589,"lon":14.44883},{"name":"Krylbo","country":"SE","lat":60.13333,"lon":16.21667},{"name":"Kumla","country":"SE","lat":59.1277,"lon":15.14341},{"name":"Kummelnäs","country":"SE","lat":59.35,"lon":18.28333},{"name":"Kungälv","country":"SE","lat":57.87096,"lon":11.98054},{"name":"Kungsängen","country":"SE","lat":59.47857,"lon":17.74834},{"name":"Kungsbacka","country":"SE","lat":57.48719,"lon":12.07612},{"name":"Kungshamn","country":"SE","lat":58.36305,"lon":11.25938},{"name":"Kungsholmen","country":"SE","lat":59.33183,"lon":18.04118},{"name":"Kungsör","country":"SE","lat":59.42245,"lon":16.09656},{"name":"Kvänum","country":"SE","lat":58.3,"lon":13.18333},{"name":"Kvicksund","country":"SE","lat":59.45099,"lon":16.32131},{"name":"Kvidinge","country":"SE","lat":56.13386,"lon":13.04678},{"name":"Kvissleby","country":"SE","lat":62.29361,"lon":17.375},{"name":"Lagan","country":"SE","lat":56.91667,"lon":13.98333},{"name":"Laholm","country":"SE","lat":56.51207,"lon":13.04371},{"name":"Lammhult","country":"SE","lat":57.16667,"lon":14.58333},{"name":"Landsbro","country":"SE","lat":57.36667,"lon":14.9},{"name":"Landskrona","country":"SE","lat":55.8708,"lon":12.83016},{"name":"Landvetter","country":"SE","lat":57.68665,"lon":12.21169},{"name":"Länghem","country":"SE","lat":57.6,"lon":13.23333},{"name":"Långsele","country":"SE","lat":64.81667,"lon":20.25},{"name":"Långsele","country":"SE","lat":63.18333,"lon":17.06667},{"name":"Långshyttan","country":"SE","lat":60.45238,"lon":16.03831},{"name":"Långvik","country":"SE","lat":59.24583,"lon":18.51667},{"name":"Laxå","country":"SE","lat":58.9863,"lon":14.61904},{"name":"Leksand","country":"SE","lat":60.7303,"lon":14.99994},{"name":"Lenhovda","country":"SE","lat":57,"lon":15.28333},{"name":"Lerum","country":"SE","lat":57.77051,"lon":12.26904},{"name":"Lessebo","country":"SE","lat":56.75185,"lon":15.26969},{"name":"Lidingö","country":"SE","lat":59.36667,"lon":18.13333},{"name":"Lidköping","country":"SE","lat":58.50517,"lon":13.15765},{"name":"Lilla Edet","country":"SE","lat":58.13333,"lon":12.13333},{"name":"Limmared","country":"SE","lat":57.53592,"lon":13.35566},{"name":"Lindesberg","country":"SE","lat":59.59202,"lon":15.2304},{"name":"Lindholmen","country":"SE","lat":59.58333,"lon":18.1},{"name":"Lindö","country":"SE","lat":58.61667,"lon":16.25},{"name":"Lindome","country":"SE","lat":57.56667,"lon":12.08333},{"name":"Lindsdal","country":"SE","lat":56.73333,"lon":16.3},{"name":"Linghem","country":"SE","lat":58.43333,"lon":15.78333},{"name":"Linköping","country":"SE","lat":58.41086,"lon":15.62157},{"name":"Lit","country":"SE","lat":63.32029,"lon":14.84594},{"name":"Ljungby","country":"SE","lat":56.83324,"lon":13.94082},{"name":"Ljungbyhed","country":"SE","lat":56.07437,"lon":13.2401},{"name":"Ljungbyholm","country":"SE","lat":56.63333,"lon":16.16667},{"name":"Ljunghusen","country":"SE","lat":55.39793,"lon":12.92486},{"name":"Ljungsbro","country":"SE","lat":58.51667,"lon":15.5},{"name":"Ljungskile","country":"SE","lat":58.22452,"lon":11.92014},{"name":"Ljusdal","country":"SE","lat":61.82883,"lon":16.09126},{"name":"Ljusne","country":"SE","lat":61.2117,"lon":17.1279},{"name":"Löberöd","country":"SE","lat":55.7761,"lon":13.52414},{"name":"Löddeköpinge","country":"SE","lat":55.76667,"lon":13.01667},{"name":"Lödöse","country":"SE","lat":58.02994,"lon":12.15934},{"name":"Lomma","country":"SE","lat":55.67244,"lon":13.06849},{"name":"Lönsboda","country":"SE","lat":56.4,"lon":14.31667},{"name":"Lövgärdet","country":"SE","lat":57.81555,"lon":12.03861},{"name":"Lövstalöt","country":"SE","lat":59.9574,"lon":17.57826},{"name":"Ludvika","country":"SE","lat":60.14959,"lon":15.18776},{"name":"Luleå","country":"SE","lat":65.58415,"lon":22.15465},{"name":"Lund","country":"SE","lat":55.70584,"lon":13.19321},{"name":"Lycksele","country":"SE","lat":64.59537,"lon":18.67351},{"name":"Lysekil","country":"SE","lat":58.27429,"lon":11.43576},{"name":"Majorna","country":"SE","lat":57.69195,"lon":11.91605},{"name":"Malå","country":"SE","lat":65.18501,"lon":18.74243},{"name":"Målilla","country":"SE","lat":57.38773,"lon":15.80675},{"name":"Malmbäck","country":"SE","lat":57.57667,"lon":14.4617},{"name":"Malmberget","country":"SE","lat":67.17529,"lon":20.65495},{"name":"Malmköping","country":"SE","lat":59.13333,"lon":16.73333},{"name":"Malmö","country":"SE","lat":55.60587,"lon":13.00073},{"name":"Malmslätt","country":"SE","lat":58.41102,"lon":15.51647},{"name":"Malung","country":"SE","lat":60.68329,"lon":13.71542},{"name":"Mantorp","country":"SE","lat":58.35,"lon":15.28333},{"name":"Mariannelund","country":"SE","lat":57.61667,"lon":15.56667},{"name":"Mariastaden","country":"SE","lat":56.08492,"lon":12.69445},{"name":"Marieberg","country":"SE","lat":60.23333,"lon":18.5},{"name":"Mariefred","country":"SE","lat":59.25963,"lon":17.223},{"name":"Marieholm","country":"SE","lat":57.38333,"lon":13.85},{"name":"Marieholm","country":"SE","lat":55.86667,"lon":13.15},{"name":"Marielund","country":"SE","lat":65.85307,"lon":24.10486},{"name":"Mariestad","country":"SE","lat":58.70971,"lon":13.82367},{"name":"Markaryd","country":"SE","lat":56.46135,"lon":13.59644},{"name":"Märsta","country":"SE","lat":59.62157,"lon":17.85476},{"name":"Matfors","country":"SE","lat":62.34864,"lon":17.03173},{"name":"Mellbystrand","country":"SE","lat":56.48561,"lon":12.93958},{"name":"Mellerud","country":"SE","lat":58.69979,"lon":12.45312},{"name":"Mjällby","country":"SE","lat":56.68333,"lon":12.76667},{"name":"Mjällby","country":"SE","lat":56.05,"lon":14.68333},{"name":"Mjölby","country":"SE","lat":58.32595,"lon":15.12365},{"name":"Mockfjärd","country":"SE","lat":60.5,"lon":14.96667},{"name":"Moheda","country":"SE","lat":57,"lon":14.56667},{"name":"Molkom","country":"SE","lat":59.60057,"lon":13.72115},{"name":"Mölltorp","country":"SE","lat":58.5,"lon":14.4},{"name":"Mölnbo","country":"SE","lat":59.05,"lon":17.41667},{"name":"Mölndal","country":"SE","lat":57.6554,"lon":12.01378},{"name":"Mölnlycke","country":"SE","lat":57.65893,"lon":12.11792},{"name":"Mönsterås","country":"SE","lat":57.04134,"lon":16.44463},{"name":"Mora","country":"SE","lat":61.00704,"lon":14.54316},{"name":"Mörarp","country":"SE","lat":56.05749,"lon":12.88018},{"name":"Mörbylånga","country":"SE","lat":56.5248,"lon":16.37877},{"name":"Morgongåva","country":"SE","lat":59.93395,"lon":16.96353},{"name":"Mörrum","country":"SE","lat":56.19281,"lon":14.74739},{"name":"Mörtnäs","country":"SE","lat":59.31862,"lon":18.44312},{"name":"Motala","country":"SE","lat":58.53706,"lon":15.03649},{"name":"Mullsjö","country":"SE","lat":57.9171,"lon":13.87831},{"name":"Munka-Ljungby","country":"SE","lat":56.25,"lon":12.96667},{"name":"Munkedal","country":"SE","lat":58.46634,"lon":11.67345},{"name":"Munkfors","country":"SE","lat":59.83856,"lon":13.54361},{"name":"Myggenäs","country":"SE","lat":58.06176,"lon":11.74936},{"name":"Nacka","country":"SE","lat":59.31053,"lon":18.16372},{"name":"Nässjö","country":"SE","lat":57.65307,"lon":14.69676},{"name":"Näsum","country":"SE","lat":56.17693,"lon":14.49706},{"name":"Nättraby","country":"SE","lat":56.2,"lon":15.51667},{"name":"Njurundabommen","country":"SE","lat":62.26339,"lon":17.38354},{"name":"Nolby","country":"SE","lat":62.2875,"lon":17.36917},{"name":"Nolvik","country":"SE","lat":57.775,"lon":11.83333},{"name":"Nora","country":"SE","lat":59.51926,"lon":15.03979},{"name":"Norberg","country":"SE","lat":60.06505,"lon":15.92366},{"name":"Nordmaling","country":"SE","lat":63.56852,"lon":19.50244},{"name":"Norra Åsum","country":"SE","lat":55.98333,"lon":14.15},{"name":"Norrfjärden","country":"SE","lat":65.41805,"lon":21.50151},{"name":"Norrköping","country":"SE","lat":58.59419,"lon":16.1826},{"name":"Norrtälje","country":"SE","lat":59.75799,"lon":18.70496},{"name":"Norsjö","country":"SE","lat":64.91206,"lon":19.48153},{"name":"Nossebro","country":"SE","lat":58.18808,"lon":12.71599},{"name":"Nybro","country":"SE","lat":56.74461,"lon":15.90714},{"name":"Nyhammar","country":"SE","lat":60.28333,"lon":14.96667},{"name":"Nyköping","country":"SE","lat":58.753,"lon":17.00788},{"name":"Nykvarn","country":"SE","lat":59.8,"lon":18.3},{"name":"Nykvarn","country":"SE","lat":59.17718,"lon":17.4323},{"name":"Nynäshamn","country":"SE","lat":58.90337,"lon":17.94793},{"name":"Obbola","country":"SE","lat":63.7,"lon":20.31667},{"name":"Ockelbo","country":"SE","lat":60.8912,"lon":16.71846},{"name":"Öckerö","country":"SE","lat":57.70814,"lon":11.65585},{"name":"Ödåkra","country":"SE","lat":56.10412,"lon":12.7477},{"name":"Odensbacken","country":"SE","lat":59.16667,"lon":15.53333},{"name":"Odensjö","country":"SE","lat":57.71667,"lon":14.16667},{"name":"Ödeshög","country":"SE","lat":58.22949,"lon":14.65294},{"name":"Ödsmål","country":"SE","lat":58.1,"lon":11.85},{"name":"Öjersjö","country":"SE","lat":57.69882,"lon":12.13448},{"name":"Olofstorp","country":"SE","lat":58.25,"lon":14},{"name":"Olofstorp","country":"SE","lat":57.80444,"lon":12.17131},{"name":"Olofström","country":"SE","lat":56.2773,"lon":14.53402},{"name":"Olstorp","country":"SE","lat":58.81667,"lon":16.63333},{"name":"Olstorp","country":"SE","lat":57.82277,"lon":12.27696},{"name":"Önnestad","country":"SE","lat":56.05747,"lon":14.02233},{"name":"Onsala","country":"SE","lat":57.42531,"lon":12.02903},{"name":"Örbyhus","country":"SE","lat":60.22407,"lon":17.70138},{"name":"Örebro","country":"SE","lat":59.27412,"lon":15.2066},{"name":"Öregrund","country":"SE","lat":60.33333,"lon":18.43333},{"name":"Örkelljunga","country":"SE","lat":56.28338,"lon":13.27773},{"name":"Ornäs","country":"SE","lat":60.50944,"lon":15.54128},{"name":"Örnsköldsvik","country":"SE","lat":63.29091,"lon":18.71525},{"name":"Orsa","country":"SE","lat":61.12034,"lon":14.6155},{"name":"Örsundsbro","country":"SE","lat":59.73333,"lon":17.3},{"name":"Osby","country":"SE","lat":56.38165,"lon":13.99364},{"name":"Oskarshamn","country":"SE","lat":57.26455,"lon":16.44837},{"name":"Oskarström","country":"SE","lat":56.8,"lon":12.96667},{"name":"Ösmo","country":"SE","lat":58.98333,"lon":17.9},{"name":"Österbybruk","country":"SE","lat":60.2,"lon":17.9},{"name":"Österbymo","country":"SE","lat":57.82465,"lon":15.27357},{"name":"Östermalm","country":"SE","lat":59.33879,"lon":18.08487},{"name":"Östersund","country":"SE","lat":63.1792,"lon":14.63566},{"name":"Östervåla","country":"SE","lat":60.18333,"lon":17.18333},{"name":"Östhammar","country":"SE","lat":60.25909,"lon":18.37408},{"name":"Östra Ljungby","country":"SE","lat":56.19601,"lon":13.09199},{"name":"Överkalix","country":"SE","lat":66.32754,"lon":22.84414},{"name":"Övertorneå","country":"SE","lat":66.38778,"lon":23.65425},{"name":"Överum","country":"SE","lat":57.98856,"lon":16.3139},{"name":"Oxelösund","country":"SE","lat":58.67057,"lon":17.10152},{"name":"Oxie","country":"SE","lat":55.54014,"lon":13.09605},{"name":"Påarp","country":"SE","lat":56.03333,"lon":12.81667},{"name":"Pajala","country":"SE","lat":67.21284,"lon":23.36607},{"name":"Pålsboda","country":"SE","lat":59.06565,"lon":15.33747},{"name":"Partille","country":"SE","lat":57.7395,"lon":12.10642},{"name":"Påskallavik","country":"SE","lat":57.16667,"lon":16.45},{"name":"Pershagen","country":"SE","lat":59.15494,"lon":17.6534},{"name":"Perstorp","country":"SE","lat":56.13829,"lon":13.39476},{"name":"Piteå","country":"SE","lat":65.31717,"lon":21.47944},{"name":"Ramnäs","country":"SE","lat":59.76667,"lon":16.2},{"name":"Råneå","country":"SE","lat":65.85482,"lon":22.29126},{"name":"Rannebergen","country":"SE","lat":57.80236,"lon":12.07131},{"name":"Råsunda","country":"SE","lat":59.36588,"lon":17.99569},{"name":"Råtorp","country":"SE","lat":59.40197,"lon":13.49144},{"name":"Rättvik","country":"SE","lat":60.88632,"lon":15.11787},{"name":"Rävlanda","country":"SE","lat":57.65338,"lon":12.49791},{"name":"Reftele","country":"SE","lat":57.17467,"lon":13.59498},{"name":"Resarö","country":"SE","lat":59.4291,"lon":18.33386},{"name":"Rimbo","country":"SE","lat":59.75,"lon":18.36667},{"name":"Rimforsa","country":"SE","lat":58.13624,"lon":15.6865},{"name":"Rindö","country":"SE","lat":59.39688,"lon":18.39434},{"name":"Rinkabyholm","country":"SE","lat":56.64972,"lon":16.26667},{"name":"Röbäck","country":"SE","lat":63.80879,"lon":20.18901},{"name":"Robertsfors","country":"SE","lat":64.19324,"lon":20.84806},{"name":"Rödeby","country":"SE","lat":56.26078,"lon":15.62143},{"name":"Roknäs","country":"SE","lat":65.35,"lon":21.2},{"name":"Rolfs","country":"SE","lat":65.85,"lon":23.11667},{"name":"Romme","country":"SE","lat":60.43333,"lon":15.5},{"name":"Rönnäng","country":"SE","lat":57.93333,"lon":11.58333},{"name":"Ronneby","country":"SE","lat":56.20999,"lon":15.27602},{"name":"Rönninge","country":"SE","lat":59.2,"lon":17.73333},{"name":"Rosersberg","country":"SE","lat":59.58333,"lon":17.88333},{"name":"Rosvik","country":"SE","lat":65.43333,"lon":21.7},{"name":"Rottne","country":"SE","lat":57.01667,"lon":14.9},{"name":"Ryd","country":"SE","lat":58.66667,"lon":15.08333},{"name":"Ryd","country":"SE","lat":56.46667,"lon":14.68333},{"name":"Rydaholm","country":"SE","lat":56.98388,"lon":14.30849},{"name":"Rydebäck","country":"SE","lat":55.96667,"lon":12.76667},{"name":"Rydsgård","country":"SE","lat":55.47285,"lon":13.58829},{"name":"Säffle","country":"SE","lat":59.13229,"lon":12.92888},{"name":"Sala","country":"SE","lat":59.91993,"lon":16.60655},{"name":"Sålanda","country":"SE","lat":57.98333,"lon":12.21667},{"name":"Saltsjöbaden","country":"SE","lat":59.28333,"lon":18.3},{"name":"Sandared","country":"SE","lat":57.70992,"lon":12.79238},{"name":"Sandarne","country":"SE","lat":61.25893,"lon":17.15284},{"name":"Sandviken","country":"SE","lat":60.61667,"lon":16.76667},{"name":"Särö","country":"SE","lat":57.50577,"lon":11.9321},{"name":"Säter","country":"SE","lat":60.34778,"lon":15.75051},{"name":"Sätila","country":"SE","lat":57.54172,"lon":12.43429},{"name":"Sätofta","country":"SE","lat":55.91667,"lon":13.55},{"name":"Sävar","country":"SE","lat":63.90383,"lon":20.55014},{"name":"Sävast","country":"SE","lat":65.77002,"lon":21.73113},{"name":"Sävja","country":"SE","lat":59.81872,"lon":17.69958},{"name":"Sävsjö","country":"SE","lat":57.40327,"lon":14.66244},{"name":"Saxtorpsskogen","country":"SE","lat":55.83208,"lon":12.94429},{"name":"Segeltorp","country":"SE","lat":59.27597,"lon":17.93072},{"name":"Sibbhult","country":"SE","lat":56.26667,"lon":14.2},{"name":"Sigtuna","country":"SE","lat":59.61731,"lon":17.72361},{"name":"Siljansnäs","country":"SE","lat":60.78333,"lon":14.85},{"name":"Simrishamn","country":"SE","lat":55.55653,"lon":14.35037},{"name":"Sjöbo","country":"SE","lat":55.63135,"lon":13.70622},{"name":"Sjömarken","country":"SE","lat":57.71533,"lon":12.83495},{"name":"Sjuntorp","country":"SE","lat":58.2,"lon":12.21667},{"name":"Skänninge","country":"SE","lat":59.93333,"lon":18.48333},{"name":"Skänninge","country":"SE","lat":58.39427,"lon":15.08659},{"name":"Skanör med Falsterbo","country":"SE","lat":55.4,"lon":12.85},{"name":"Skara","country":"SE","lat":58.38659,"lon":13.43836},{"name":"Skärblacka","country":"SE","lat":58.56667,"lon":15.9},{"name":"Skåre","country":"SE","lat":55.38333,"lon":13.05},{"name":"Skåre","country":"SE","lat":59.43333,"lon":13.43333},{"name":"Skärhamn","country":"SE","lat":57.98665,"lon":11.55742},{"name":"Skattkärr","country":"SE","lat":59.41208,"lon":13.67078},{"name":"Skegrie","country":"SE","lat":55.40633,"lon":13.07693},{"name":"Skellefteå","country":"SE","lat":64.75067,"lon":20.95279},{"name":"Skelleftehamn","country":"SE","lat":64.68333,"lon":21.23333},{"name":"Skepplanda","country":"SE","lat":57.98333,"lon":12.2},{"name":"Skillingaryd","country":"SE","lat":57.43044,"lon":14.09383},{"name":"Skinnskatteberg","country":"SE","lat":59.83028,"lon":15.69337},{"name":"Skivarp","country":"SE","lat":55.41667,"lon":13.56667},{"name":"Skoghall","country":"SE","lat":59.32324,"lon":13.46552},{"name":"Skogstorp","country":"SE","lat":59.32472,"lon":16.48284},{"name":"Sköllersta","country":"SE","lat":59.13738,"lon":15.3394},{"name":"Skottsund","country":"SE","lat":62.29056,"lon":17.38694},{"name":"Skövde","country":"SE","lat":58.39118,"lon":13.84506},{"name":"Skrea","country":"SE","lat":56.88333,"lon":12.56667},{"name":"Skultorp","country":"SE","lat":58.35,"lon":13.83333},{"name":"Skultuna","country":"SE","lat":59.71667,"lon":16.41667},{"name":"Skurup","country":"SE","lat":55.47839,"lon":13.50186},{"name":"Skutskär","country":"SE","lat":60.62507,"lon":17.41552},{"name":"Slottsbron","country":"SE","lat":59.3227,"lon":13.10268},{"name":"Smålandsstenar","country":"SE","lat":57.16241,"lon":13.41212},{"name":"Smedby","country":"SE","lat":60.7,"lon":15.05},{"name":"Smedby","country":"SE","lat":56.67413,"lon":16.2432},{"name":"Smedjebacken","country":"SE","lat":60.14181,"lon":15.41416},{"name":"Smögen","country":"SE","lat":58.35593,"lon":11.22411},{"name":"Smygehamn","country":"SE","lat":55.34337,"lon":13.36989},{"name":"Söderfors","country":"SE","lat":64.81667,"lon":18.05},{"name":"Söderfors","country":"SE","lat":60.38333,"lon":17.23333},{"name":"Söderhamn","country":"SE","lat":61.30373,"lon":17.05921},{"name":"Söderköping","country":"SE","lat":58.48057,"lon":16.32221},{"name":"Södermalm","country":"SE","lat":59.31278,"lon":18.07577},{"name":"Södertälje","country":"SE","lat":59.19554,"lon":17.62525},{"name":"Södra Sandby","country":"SE","lat":56.56667,"lon":16.61667},{"name":"Södra Sandby","country":"SE","lat":55.71677,"lon":13.34659},{"name":"Södra Sunderbyn","country":"SE","lat":65.65983,"lon":21.94004},{"name":"Södra Vi","country":"SE","lat":57.73993,"lon":15.79391},{"name":"Sollebrunn","country":"SE","lat":58.11667,"lon":12.53333},{"name":"Sollefteå","country":"SE","lat":63.16667,"lon":17.26667},{"name":"Sollentuna","country":"SE","lat":59.42804,"lon":17.95093},{"name":"Solna","country":"SE","lat":59.36004,"lon":18.00086},{"name":"Sölvesborg","country":"SE","lat":56.05205,"lon":14.57525},{"name":"Söråker","country":"SE","lat":62.50561,"lon":17.51032},{"name":"Sörforsa","country":"SE","lat":61.73333,"lon":16.98333},{"name":"Sorsele","country":"SE","lat":65.53484,"lon":17.53702},{"name":"Sösdala","country":"SE","lat":56.03992,"lon":13.67811},{"name":"Staffanstorp","country":"SE","lat":55.64277,"lon":13.20638},{"name":"Stallarholmen","country":"SE","lat":59.36667,"lon":17.2},{"name":"Stångby","country":"SE","lat":55.7503,"lon":13.19797},{"name":"Stavsnäs","country":"SE","lat":59.28333,"lon":18.68333},{"name":"Stehag","country":"SE","lat":55.90188,"lon":13.39577},{"name":"Stenhamra","country":"SE","lat":59.3344,"lon":17.68842},{"name":"Steninge","country":"SE","lat":56.769,"lon":12.63034},{"name":"Stenkullen","country":"SE","lat":57.79476,"lon":12.31688},{"name":"Stenstorp","country":"SE","lat":58.48333,"lon":15.06667},{"name":"Stenstorp","country":"SE","lat":58.27254,"lon":13.71454},{"name":"Stenungsund","country":"SE","lat":58.07046,"lon":11.8181},{"name":"Stigtomta","country":"SE","lat":58.8,"lon":16.78333},{"name":"Stockaryd","country":"SE","lat":57.31737,"lon":14.59341},{"name":"Stockholm","country":"SE","lat":59.32938,"lon":18.06871},{"name":"Stockvik","country":"SE","lat":62.33667,"lon":17.36583},{"name":"Stöpen","country":"SE","lat":58.47802,"lon":13.86611},{"name":"Storå","country":"SE","lat":59.71409,"lon":15.13169},{"name":"Stora Höga","country":"SE","lat":58.01667,"lon":11.83333},{"name":"Storebro","country":"SE","lat":57.58333,"lon":15.85},{"name":"Storfors","country":"SE","lat":59.53183,"lon":14.27201},{"name":"Storuman","country":"SE","lat":65.0959,"lon":17.11731},{"name":"Storvik","country":"SE","lat":65.15,"lon":20.73333},{"name":"Storvik","country":"SE","lat":60.58333,"lon":16.53333},{"name":"Storvreta","country":"SE","lat":59.95933,"lon":17.70588},{"name":"Strängnäs","country":"SE","lat":59.37741,"lon":17.03119},{"name":"Strömma","country":"SE","lat":59.28333,"lon":18.53333},{"name":"Strömsnäsbruk","country":"SE","lat":56.55,"lon":13.71667},{"name":"Strömstad","country":"SE","lat":58.93945,"lon":11.1712},{"name":"Strömsund","country":"SE","lat":63.85206,"lon":15.55583},{"name":"Strövelstorp","country":"SE","lat":56.16979,"lon":12.83925},{"name":"Sturefors","country":"SE","lat":58.33333,"lon":15.73333},{"name":"Sturkö","country":"SE","lat":56.08333,"lon":15.7},{"name":"Styrsö","country":"SE","lat":57.61639,"lon":11.78556},{"name":"Sundbyberg","country":"SE","lat":59.36128,"lon":17.97114},{"name":"Sundsbruk","country":"SE","lat":62.45806,"lon":17.34889},{"name":"Sundsvall","country":"SE","lat":62.39129,"lon":17.3063},{"name":"Sunne","country":"SE","lat":59.83764,"lon":13.14302},{"name":"Surahammar","country":"SE","lat":59.70725,"lon":16.22188},{"name":"Surte","country":"SE","lat":57.82533,"lon":12.01604},{"name":"Svalöv","country":"SE","lat":55.9134,"lon":13.10762},{"name":"Svalsta","country":"SE","lat":58.74273,"lon":16.86978},{"name":"Svanesund","country":"SE","lat":58.14292,"lon":11.81821},{"name":"Svängsta","country":"SE","lat":56.26667,"lon":14.76667},{"name":"Svärdsjö","country":"SE","lat":60.74022,"lon":15.90173},{"name":"Svärtinge","country":"SE","lat":58.65507,"lon":16.02823},{"name":"Svedala","country":"SE","lat":55.50788,"lon":13.23515},{"name":"Sveg","country":"SE","lat":62.03407,"lon":14.36577},{"name":"Svenljunga","country":"SE","lat":57.49551,"lon":13.11078},{"name":"Taberg","country":"SE","lat":57.67722,"lon":14.08876},{"name":"Täby","country":"SE","lat":59.4439,"lon":18.06872},{"name":"Täfteå","country":"SE","lat":63.8397,"lon":20.47857},{"name":"Tallboda","country":"SE","lat":58.42521,"lon":15.68154},{"name":"Tanumshede","country":"SE","lat":58.72385,"lon":11.32587},{"name":"Tärnsjö","country":"SE","lat":60.15,"lon":16.93333},{"name":"Teckomatorp","country":"SE","lat":55.86667,"lon":13.08333},{"name":"Tenhult","country":"SE","lat":57.70761,"lon":14.32205},{"name":"Tensta","country":"SE","lat":59.3939,"lon":17.90111},{"name":"Tibro","country":"SE","lat":58.42453,"lon":14.16162},{"name":"Tidaholm","country":"SE","lat":58.18035,"lon":13.95824},{"name":"Tierp","country":"SE","lat":60.34269,"lon":17.51812},{"name":"Tillberga","country":"SE","lat":59.68333,"lon":16.61667},{"name":"Timmernabben","country":"SE","lat":56.96667,"lon":16.43333},{"name":"Timrå","country":"SE","lat":62.48654,"lon":17.32613},{"name":"Tingsryd","country":"SE","lat":56.5247,"lon":14.97902},{"name":"Tjuvkil","country":"SE","lat":57.9,"lon":11.73333},{"name":"Töcksfors","country":"SE","lat":59.50816,"lon":11.84431},{"name":"Tollarp","country":"SE","lat":55.93333,"lon":13.98333},{"name":"Tollarp1","country":"SE","lat":56.16667,"lon":14.28333},{"name":"Tomelilla","country":"SE","lat":55.54293,"lon":13.9546},{"name":"Töre","country":"SE","lat":65.91243,"lon":22.65128},{"name":"Töreboda","country":"SE","lat":58.70739,"lon":14.12597},{"name":"Torekov","country":"SE","lat":56.425,"lon":12.63333},{"name":"Tormestorp","country":"SE","lat":56.1135,"lon":13.74516},{"name":"Torsås","country":"SE","lat":56.41251,"lon":15.99844},{"name":"Torsby","country":"SE","lat":60.13527,"lon":13.0082},{"name":"Torshälla","country":"SE","lat":59.41667,"lon":16.46667},{"name":"Torslanda","country":"SE","lat":57.72432,"lon":11.77013},{"name":"Torup","country":"SE","lat":56.95663,"lon":13.07725},{"name":"Tranås","country":"SE","lat":58.03717,"lon":14.9782},{"name":"Tranemo","country":"SE","lat":57.48333,"lon":13.35},{"name":"Träslövsläge","country":"SE","lat":57.05417,"lon":12.27899},{"name":"Trekanten","country":"SE","lat":56.7,"lon":16.11667},{"name":"Trelleborg","country":"SE","lat":55.37514,"lon":13.15691},{"name":"Trollhättan","country":"SE","lat":58.28365,"lon":12.28864},{"name":"Trönninge","country":"SE","lat":56.61667,"lon":12.93333},{"name":"Trosa","country":"SE","lat":58.89621,"lon":17.54812},{"name":"Tullinge","country":"SE","lat":59.2,"lon":17.9},{"name":"Tumba","country":"SE","lat":59.19858,"lon":17.83317},{"name":"Tvååker","country":"SE","lat":57.04147,"lon":12.3995},{"name":"Tygelsjö","country":"SE","lat":55.51667,"lon":13},{"name":"Tyringe","country":"SE","lat":56.16037,"lon":13.59811},{"name":"Uddevalla","country":"SE","lat":58.34784,"lon":11.9424},{"name":"Ulricehamn","country":"SE","lat":57.79159,"lon":13.41422},{"name":"Umeå","country":"SE","lat":63.82842,"lon":20.25972},{"name":"Upplands Väsby","country":"SE","lat":59.51839,"lon":17.91128},{"name":"Uppsala","country":"SE","lat":59.85882,"lon":17.63889},{"name":"Ursviken","country":"SE","lat":64.71261,"lon":21.1658},{"name":"Vadstena","country":"SE","lat":58.44863,"lon":14.88969},{"name":"Vaggeryd","country":"SE","lat":57.49807,"lon":14.14842},{"name":"Vagnhärad","country":"SE","lat":58.94587,"lon":17.48757},{"name":"Vålberg","country":"SE","lat":59.39145,"lon":13.18633},{"name":"Valbo","country":"SE","lat":60.65,"lon":17.03333},{"name":"Valdemarsvik","country":"SE","lat":58.2031,"lon":16.60225},{"name":"Valje","country":"SE","lat":56.06279,"lon":14.54388},{"name":"Valla","country":"SE","lat":63.55,"lon":13.8},{"name":"Valla","country":"SE","lat":59.01667,"lon":16.38333},{"name":"Vallda","country":"SE","lat":57.4775,"lon":12.00139},{"name":"Vallentuna","country":"SE","lat":59.53436,"lon":18.07758},{"name":"Vänersborg","country":"SE","lat":58.38075,"lon":12.3234},{"name":"Vännäs","country":"SE","lat":63.90676,"lon":19.75712},{"name":"Vännäsby","country":"SE","lat":63.91564,"lon":19.82438},{"name":"Vansbro","country":"SE","lat":60.50893,"lon":14.22458},{"name":"Vara","country":"SE","lat":58.26234,"lon":12.95413},{"name":"Varberg","country":"SE","lat":57.10557,"lon":12.25078},{"name":"Vårby","country":"SE","lat":59.26671,"lon":17.88407},{"name":"Vårgårda","country":"SE","lat":58.03706,"lon":12.80907},{"name":"Vargön","country":"SE","lat":58.35599,"lon":12.3906},{"name":"Värnamo","country":"SE","lat":57.18604,"lon":14.04001},{"name":"Vårsta","country":"SE","lat":59.16528,"lon":17.79722},{"name":"Vasastaden","country":"SE","lat":59.35,"lon":18.03333},{"name":"Västerås","country":"SE","lat":59.61617,"lon":16.55276},{"name":"Västervik","country":"SE","lat":57.7584,"lon":16.63733},{"name":"Västra Frölunda","country":"SE","lat":57.64667,"lon":11.92944},{"name":"Västra Hagen","country":"SE","lat":57.42444,"lon":11.93583},{"name":"Vattholma","country":"SE","lat":60.01667,"lon":17.73333},{"name":"Vaxholm","country":"SE","lat":59.40225,"lon":18.35317},{"name":"Växjö","country":"SE","lat":56.87767,"lon":14.80906},{"name":"Veberöd","country":"SE","lat":55.63333,"lon":13.48333},{"name":"Veddige","country":"SE","lat":57.26591,"lon":12.3322},{"name":"Veinge","country":"SE","lat":56.55,"lon":13.06667},{"name":"Vejbystrand","country":"SE","lat":56.31778,"lon":12.76722},{"name":"Vellinge","country":"SE","lat":55.47124,"lon":13.01971},{"name":"Vetlanda","country":"SE","lat":57.42887,"lon":15.07762},{"name":"Vi","country":"SE","lat":62.3,"lon":17.16667},{"name":"Vi","country":"SE","lat":62.43333,"lon":17.41667},{"name":"Vibble","country":"SE","lat":57.60452,"lon":18.25601},{"name":"Vikarbyn","country":"SE","lat":60.91667,"lon":15.01667},{"name":"Viken","country":"SE","lat":64.72587,"lon":20.91548},{"name":"Viken","country":"SE","lat":56.15063,"lon":12.57429},{"name":"Vikingstad","country":"SE","lat":58.38304,"lon":15.43201},{"name":"Vilhelmina","country":"SE","lat":64.62417,"lon":16.65596},{"name":"Vimmerby","country":"SE","lat":57.66588,"lon":15.85515},{"name":"Vindeln","country":"SE","lat":64.20175,"lon":19.71945},{"name":"Vingåker","country":"SE","lat":59.0433,"lon":15.87374},{"name":"Vinninga","country":"SE","lat":58.45,"lon":13.26667},{"name":"Vinslöv","country":"SE","lat":56.1,"lon":13.91667},{"name":"Vintrosa","country":"SE","lat":59.25,"lon":14.95},{"name":"Virserum","country":"SE","lat":57.31667,"lon":15.58333},{"name":"Visby","country":"SE","lat":57.64089,"lon":18.29602},{"name":"Viskafors","country":"SE","lat":57.62941,"lon":12.8489},{"name":"Vislanda","country":"SE","lat":56.78333,"lon":14.45},{"name":"Vittsjö","country":"SE","lat":56.34366,"lon":13.66081},{"name":"Vrigstad","country":"SE","lat":57.35,"lon":14.46667},{"name":"Ystad","country":"SE","lat":55.42966,"lon":13.82041}]