[{"name":"Acajutla","country":"SV","lat":13.59278,"lon":-89.8275},{"name":"Aguilares","country":"SV","lat":13.95722,"lon":-89.18972},{"name":"Ahuachapán","country":"SV","lat":13.92139,"lon":-89.845},{"name":"Anamorós","country":"SV","lat":13.74056,"lon":-87.87361},{"name":"Antiguo Cuscatlán","country":"SV","lat":13.66492,"lon":-89.25319},{"name":"Apastepeque","country":"SV","lat":13.66667,"lon":-88.78333},{"name":"Apopa","country":"SV","lat":13.80722,"lon":-89.17917},{"name":"Armenia","country":"SV","lat":13.74361,"lon":-89.49889},{"name":"Atiquizaya","country":"SV","lat":13.97694,"lon":-89.7525},{"name":"Ayutuxtepeque","country":"SV","lat":13.73538,"lon":-89.20221},{"name":"Berlín","country":"SV","lat":13.5,"lon":-88.53333},{"name":"Cacaopera","country":"SV","lat":13.76667,"lon":-88.08333},{"name":"Candelaria de La Frontera","country":"SV","lat":14.11667,"lon":-89.65},{"name":"Chalatenango","country":"SV","lat":14.03333,"lon":-88.93333},{"name":"Chalchuapa","country":"SV","lat":13.98667,"lon":-89.68111},{"name":"Chapeltique","country":"SV","lat":13.63333,"lon":-88.26667},{"name":"Chinameca","country":"SV","lat":13.5,"lon":-88.35},{"name":"Chirilagua","country":"SV","lat":13.22028,"lon":-88.13861},{"name":"Ciudad Arce","country":"SV","lat":13.84028,"lon":-89.44722},{"name":"Ciudad Barrios","country":"SV","lat":13.76667,"lon":-88.26667},{"name":"Coatepeque","country":"SV","lat":13.92861,"lon":-89.50417},{"name":"Cojutepeque","country":"SV","lat":13.71667,"lon":-88.93333},{"name":"Concepción Batres","country":"SV","lat":13.35,"lon":-88.36667},{"name":"Concepción de Ataco","country":"SV","lat":13.87028,"lon":-89.84861},{"name":"Conchagua","country":"SV","lat":13.30778,"lon":-87.86472},{"name":"Corinto","country":"SV","lat":13.81083,"lon":-87.97139},{"name":"Cuscatancingo","country":"SV","lat":13.72702,"lon":-89.18161},{"name":"Delgado","country":"SV","lat":13.72171,"lon":-89.16874},{"name":"El Congo","country":"SV","lat":13.90889,"lon":-89.49583},{"name":"El Paisnal","country":"SV","lat":13.97361,"lon":-89.21861},{"name":"El Rosario","country":"SV","lat":13.49778,"lon":-89.02972},{"name":"El Tránsito","country":"SV","lat":13.35,"lon":-88.35},{"name":"Guatajiagua","country":"SV","lat":13.66667,"lon":-88.2},{"name":"Guaymango","country":"SV","lat":13.75028,"lon":-89.84222},{"name":"Guazapa","country":"SV","lat":13.87694,"lon":-89.17306},{"name":"Ilopango","country":"SV","lat":13.70167,"lon":-89.10944},{"name":"Intipucá","country":"SV","lat":13.19694,"lon":-88.05444},{"name":"Izalco","country":"SV","lat":13.74472,"lon":-89.67306},{"name":"Jiquilisco","country":"SV","lat":13.31667,"lon":-88.58333},{"name":"Jocoro","country":"SV","lat":13.61667,"lon":-88.01667},{"name":"Juayúa","country":"SV","lat":13.84139,"lon":-89.74556},{"name":"Jucuapa","country":"SV","lat":13.51667,"lon":-88.38333},{"name":"Jucuarán","country":"SV","lat":13.25389,"lon":-88.24778},{"name":"Jujutla","country":"SV","lat":13.78694,"lon":-89.85722},{"name":"La Libertad","country":"SV","lat":13.48833,"lon":-89.32222},{"name":"La Unión","country":"SV","lat":13.33915,"lon":-87.84328},{"name":"Lolotique","country":"SV","lat":13.55,"lon":-88.35},{"name":"Mejicanos","country":"SV","lat":13.72397,"lon":-89.188},{"name":"Metapán","country":"SV","lat":14.33333,"lon":-89.45},{"name":"Moncagua","country":"SV","lat":13.53333,"lon":-88.25},{"name":"Nahuizalco","country":"SV","lat":13.7775,"lon":-89.73667},{"name":"Nueva Concepción","country":"SV","lat":14.13333,"lon":-89.3},{"name":"Nueva Esparta","country":"SV","lat":13.78361,"lon":-87.83861},{"name":"Nueva Guadalupe","country":"SV","lat":13.53333,"lon":-88.35},{"name":"Nuevo Cuscatlán","country":"SV","lat":13.64861,"lon":-89.26528},{"name":"Olocuilta","country":"SV","lat":13.56972,"lon":-89.11722},{"name":"Ozatlán","country":"SV","lat":13.38333,"lon":-88.5},{"name":"Panchimalco","country":"SV","lat":13.61278,"lon":-89.18},{"name":"Pasaquina","country":"SV","lat":13.58444,"lon":-87.84111},{"name":"Puerto El Triunfo","country":"SV","lat":13.28333,"lon":-88.55},{"name":"Quezaltepeque","country":"SV","lat":13.83124,"lon":-89.27221},{"name":"Rosario de Mora","country":"SV","lat":13.57528,"lon":-89.20889},{"name":"San Agustín","country":"SV","lat":13.43333,"lon":-88.6},{"name":"San Alejo","country":"SV","lat":13.43139,"lon":-87.96306},{"name":"San Antonio del Monte","country":"SV","lat":13.71639,"lon":-89.73833},{"name":"San Francisco","country":"SV","lat":13.7,"lon":-88.1},{"name":"San Francisco Menéndez","country":"SV","lat":13.84306,"lon":-90.01583},{"name":"San Juan Opico","country":"SV","lat":13.87611,"lon":-89.35972},{"name":"San Marcos","country":"SV","lat":13.66108,"lon":-89.18252},{"name":"San Martín","country":"SV","lat":13.78333,"lon":-88.91667},{"name":"San Miguel","country":"SV","lat":13.48333,"lon":-88.18333},{"name":"San Pablo Tacachico","country":"SV","lat":13.97556,"lon":-89.34},{"name":"San Pedro Masahuat","country":"SV","lat":13.54361,"lon":-89.03861},{"name":"San Rafael Oriente","country":"SV","lat":13.38333,"lon":-88.35},{"name":"San Salvador","country":"SV","lat":13.68935,"lon":-89.18718},{"name":"San Sebastián","country":"SV","lat":13.73333,"lon":-88.83333},{"name":"San Vicente","country":"SV","lat":13.63333,"lon":-88.8},{"name":"Santa Ana","country":"SV","lat":13.99417,"lon":-89.55972},{"name":"Santa Elena","country":"SV","lat":13.38333,"lon":-88.41667},{"name":"Santa Rosa de Lima","country":"SV","lat":13.62472,"lon":-87.89361},{"name":"Santa Tecla","country":"SV","lat":13.67694,"lon":-89.27972},{"name":"Santiago de María","country":"SV","lat":13.48333,"lon":-88.46667},{"name":"Santiago Nonualco","country":"SV","lat":13.51667,"lon":-88.95},{"name":"Santo Tomás","country":"SV","lat":13.64083,"lon":-89.13333},{"name":"Sensuntepeque","country":"SV","lat":13.86667,"lon":-88.63333},{"name":"Sesori","country":"SV","lat":13.71667,"lon":-88.36667},{"name":"Sociedad","country":"SV","lat":13.7,"lon":-88.01667},{"name":"Sonsonate","country":"SV","lat":13.71889,"lon":-89.72417},{"name":"Sonzacate","country":"SV","lat":13.73417,"lon":-89.71472},{"name":"Soyapango","country":"SV","lat":13.71024,"lon":-89.13989},{"name":"Suchitoto","country":"SV","lat":13.93806,"lon":-89.02778},{"name":"Tacuba","country":"SV","lat":13.90111,"lon":-89.92972},{"name":"Tecoluca","country":"SV","lat":13.78917,"lon":-89.00528},{"name":"Tenancingo","country":"SV","lat":13.83333,"lon":-88.98333},{"name":"Texistepeque","country":"SV","lat":14.13333,"lon":-89.5},{"name":"Tonacatepeque","country":"SV","lat":13.78111,"lon":-89.11861},{"name":"Usulután","country":"SV","lat":13.35,"lon":-88.45},{"name":"Victoria","country":"SV","lat":13.95,"lon":-88.63333},{"name":"Zacatecoluca","country":"SV","lat":13.5,"lon":-88.86667},{"name":"Zaragoza","country":"SV","lat":13.58944,"lon":-89.28889}]