[{"name":"Agareb","country":"TN","lat":34.74059,"lon":10.52527},{"name":"Ailet Jridani","country":"TN","lat":35.10051,"lon":10.03425},{"name":"Ain Jaloulah","country":"TN","lat":35.79972,"lon":9.80477},{"name":"Aïne Draham","country":"TN","lat":36.77873,"lon":8.68735},{"name":"Ajim","country":"TN","lat":33.72638,"lon":10.75664},{"name":"Akouda","country":"TN","lat":35.8691,"lon":10.5653},{"name":"Al Matlīn","country":"TN","lat":37.24516,"lon":10.05},{"name":"Amiret El Fhoul","country":"TN","lat":35.44446,"lon":10.82765},{"name":"Amiret Hajjaj","country":"TN","lat":35.50128,"lon":10.82032},{"name":"Amiret Touazra","country":"TN","lat":35.48639,"lon":10.76283},{"name":"Aousja","country":"TN","lat":37.1413,"lon":10.10174},{"name":"Ar Rudayyif","country":"TN","lat":34.3827,"lon":8.15549},{"name":"Aryanah","country":"TN","lat":36.86012,"lon":10.19337},{"name":"As Sanad","country":"TN","lat":34.4628,"lon":9.26404},{"name":"As Sars","country":"TN","lat":36.0764,"lon":9.02117},{"name":"Banbalah","country":"TN","lat":35.7,"lon":10.8},{"name":"Béja","country":"TN","lat":36.72564,"lon":9.18169},{"name":"Bekalta","country":"TN","lat":35.61739,"lon":10.99466},{"name":"Bembla et Mnara","country":"TN","lat":35.6991,"lon":10.7952},{"name":"Ben Aoun","country":"TN","lat":34.85261,"lon":9.14391},{"name":"Ben Arous","country":"TN","lat":36.75452,"lon":10.22167},{"name":"Ben Gardane","country":"TN","lat":33.13783,"lon":11.21965},{"name":"Ben Metir","country":"TN","lat":36.75444,"lon":8.75139},{"name":"Beni Hassane","country":"TN","lat":35.5672,"lon":10.80869},{"name":"Beni Khalled","country":"TN","lat":36.65038,"lon":10.59004},{"name":"Beni Kheddache","country":"TN","lat":33.25279,"lon":10.19883},{"name":"Beni Khiar","country":"TN","lat":36.46917,"lon":10.78222},{"name":"Bennane Bodheur","country":"TN","lat":35.67534,"lon":10.83579},{"name":"Bir Ali Ben Khalifa","country":"TN","lat":34.73592,"lon":10.0924},{"name":"Bir el Hafey","country":"TN","lat":34.93212,"lon":9.19321},{"name":"Bir M’cherga","country":"TN","lat":36.51815,"lon":9.95792},{"name":"Bizerte","country":"TN","lat":37.27442,"lon":9.87391},{"name":"Borj Cedria","country":"TN","lat":36.69705,"lon":10.38654},{"name":"Borj el Amri","country":"TN","lat":36.71309,"lon":9.88246},{"name":"Borj Mejen Bel Abbès","country":"TN","lat":34.7501,"lon":8.51976},{"name":"Bou Arada","country":"TN","lat":36.35251,"lon":9.62175},{"name":"Bou Arkoub","country":"TN","lat":36.53853,"lon":10.55093},{"name":"Bou Attouche","country":"TN","lat":33.89927,"lon":9.78496},{"name":"Bou Chemma","country":"TN","lat":33.90248,"lon":10.05976},{"name":"Bou Hadjar","country":"TN","lat":35.68333,"lon":10.86667},{"name":"Bou Merdès","country":"TN","lat":35.45716,"lon":10.72809},{"name":"Bou Salem","country":"TN","lat":36.60732,"lon":8.96981},{"name":"Bouficha","country":"TN","lat":36.29694,"lon":10.45589},{"name":"Boumhel El Bassatine","country":"TN","lat":36.72506,"lon":10.23499},{"name":"Carthage","country":"TN","lat":36.86108,"lon":10.33161},{"name":"Chebba","country":"TN","lat":35.23722,"lon":11.115},{"name":"Chebika","country":"TN","lat":34.31909,"lon":7.93519},{"name":"Chehimet Nord","country":"TN","lat":35.43405,"lon":10.39448},{"name":"Chenini Nahal","country":"TN","lat":33.87223,"lon":10.05521},{"name":"Cheylus","country":"TN","lat":36.55722,"lon":10.06},{"name":"Chorbane","country":"TN","lat":35.28581,"lon":10.3858},{"name":"Dahmani","country":"TN","lat":35.94388,"lon":8.82778},{"name":"Dar Ali Ben Hassene","country":"TN","lat":35.5,"lon":10.7},{"name":"Dar Chabanne","country":"TN","lat":36.46798,"lon":10.75167},{"name":"Dar el Haj Taïeb","country":"TN","lat":34.78444,"lon":10.74389},{"name":"Dar Haj Ahmed Ben Ameur","country":"TN","lat":35.66564,"lon":9.96665},{"name":"Dar Ouled Khalifa","country":"TN","lat":35.35,"lon":8.61667},{"name":"Degache","country":"TN","lat":33.97606,"lon":8.2081},{"name":"Dehiba","country":"TN","lat":32.00799,"lon":10.70135},{"name":"Den Den","country":"TN","lat":36.80753,"lon":10.11061},{"name":"Djebel Abiod","country":"TN","lat":36.97616,"lon":9.07845},{"name":"Djebeniana","country":"TN","lat":35.035,"lon":10.90809},{"name":"Djebibina","country":"TN","lat":36.11667,"lon":10.1},{"name":"Djemmal","country":"TN","lat":35.62231,"lon":10.75696},{"name":"Douane","country":"TN","lat":36.44766,"lon":10.7557},{"name":"Douar Hicher","country":"TN","lat":36.82657,"lon":10.08974},{"name":"Douar Tindja","country":"TN","lat":37.16667,"lon":9.75},{"name":"Douz","country":"TN","lat":33.46632,"lon":9.0203},{"name":"El Abadlia","country":"TN","lat":35.1399,"lon":9.85316},{"name":"El Ain","country":"TN","lat":34.8,"lon":10.78333},{"name":"El Ala","country":"TN","lat":35.61384,"lon":9.56256},{"name":"El Alia","country":"TN","lat":37.16911,"lon":10.03478},{"name":"El Amra","country":"TN","lat":35.14795,"lon":9.28111},{"name":"El Aroussa","country":"TN","lat":36.38333,"lon":9.45},{"name":"El Bahira","country":"TN","lat":35.33333,"lon":11},{"name":"El Battan","country":"TN","lat":36.80368,"lon":9.84424},{"name":"El Borma","country":"TN","lat":31.69172,"lon":9.2062},{"name":"El Fahs","country":"TN","lat":36.37419,"lon":9.90651},{"name":"El Golaa","country":"TN","lat":33.48485,"lon":9.00678},{"name":"El Guetar","country":"TN","lat":34.33628,"lon":8.94964},{"name":"El Hamma","country":"TN","lat":33.89152,"lon":9.79629},{"name":"El Haouaria","country":"TN","lat":37.05002,"lon":11.01442},{"name":"El Jem","country":"TN","lat":35.3,"lon":10.71667},{"name":"El Kef","country":"TN","lat":36.17424,"lon":8.70486},{"name":"El Ksar","country":"TN","lat":34.3992,"lon":8.80399},{"name":"El Ksour","country":"TN","lat":35.89607,"lon":8.88493},{"name":"El Maamoura","country":"TN","lat":36.46499,"lon":10.80612},{"name":"El Maknassi","country":"TN","lat":34.60433,"lon":9.60815},{"name":"El Masdour","country":"TN","lat":35.68206,"lon":10.72746},{"name":"El Mgarsa","country":"TN","lat":33.81682,"lon":10.9923},{"name":"El Mida","country":"TN","lat":36.72556,"lon":10.85528},{"name":"El Mourouj","country":"TN","lat":36.71364,"lon":10.2096},{"name":"El-Hamma-Djerid","country":"TN","lat":34.01152,"lon":8.15308},{"name":"Enfidha","country":"TN","lat":36.13528,"lon":10.38083},{"name":"Er Regueb","country":"TN","lat":34.85932,"lon":9.78654},{"name":"Erriadh","country":"TN","lat":33.82063,"lon":10.85394},{"name":"Es Somaa","country":"TN","lat":36.54364,"lon":10.78065},{"name":"Ettadhamen","country":"TN","lat":36.83246,"lon":10.10995},{"name":"Ez Zahra","country":"TN","lat":36.74611,"lon":10.30833},{"name":"Ezzouhour","country":"TN","lat":35.79014,"lon":10.58264},{"name":"Feriana","country":"TN","lat":34.94529,"lon":8.56789},{"name":"Fernana","country":"TN","lat":36.65547,"lon":8.69602},{"name":"Fouchana","country":"TN","lat":36.70048,"lon":10.1685},{"name":"Gabès","country":"TN","lat":33.88146,"lon":10.0982},{"name":"Gafour","country":"TN","lat":36.32045,"lon":9.32424},{"name":"Gafsa","country":"TN","lat":34.425,"lon":8.78417},{"name":"Galaat el Andeless","country":"TN","lat":37.0629,"lon":10.11829},{"name":"Ghardimaou","country":"TN","lat":36.44788,"lon":8.4413},{"name":"Ghomrassen","country":"TN","lat":33.05936,"lon":10.33712},{"name":"Ghraiba","country":"TN","lat":34.49555,"lon":10.21113},{"name":"Goubellat","country":"TN","lat":36.54178,"lon":9.66334},{"name":"Gremda","country":"TN","lat":34.79075,"lon":10.72059},{"name":"Grombalia","country":"TN","lat":36.59894,"lon":10.50032},{"name":"Haffouz","country":"TN","lat":35.63235,"lon":9.67624},{"name":"Haïdra","country":"TN","lat":35.56626,"lon":8.44412},{"name":"Hajeb el Aïoun","country":"TN","lat":35.39564,"lon":9.5438},{"name":"Hamadet el Kebalou","country":"TN","lat":35.5,"lon":10.86667},{"name":"Hammam el Rhezez","country":"TN","lat":36.87483,"lon":11.10837},{"name":"Hammam Sousse","country":"TN","lat":35.8609,"lon":10.60313},{"name":"Hammam-Lif","country":"TN","lat":36.72866,"lon":10.34163},{"name":"Hammamet","country":"TN","lat":36.4,"lon":10.61667},{"name":"Harqalah","country":"TN","lat":36.03027,"lon":10.50904},{"name":"Hebira","country":"TN","lat":35.16815,"lon":10.22933},{"name":"Hencha","country":"TN","lat":35.12226,"lon":10.74219},{"name":"Hennchir Ksar Rhaleb","country":"TN","lat":36.98333,"lon":11.05},{"name":"Houmt Souk","country":"TN","lat":33.87576,"lon":10.85745},{"name":"Jedeïda","country":"TN","lat":36.83111,"lon":9.92417},{"name":"Jedelienne","country":"TN","lat":35.59316,"lon":9.05987},{"name":"Jemna","country":"TN","lat":33.57778,"lon":9.01472},{"name":"Jendouba","country":"TN","lat":36.50114,"lon":8.78024},{"name":"Jerissa","country":"TN","lat":35.84509,"lon":8.63028},{"name":"Jilma","country":"TN","lat":35.27311,"lon":9.42385},{"name":"Kairouan","country":"TN","lat":35.6781,"lon":10.09633},{"name":"Kalaa Srira","country":"TN","lat":35.82244,"lon":10.55739},{"name":"Kalaat es Senam","country":"TN","lat":35.76819,"lon":8.34234},{"name":"Kalaat Khasba","country":"TN","lat":35.66259,"lon":8.58577},{"name":"Kasserine","country":"TN","lat":35.16758,"lon":8.83651},{"name":"Kebili","country":"TN","lat":33.70439,"lon":8.96903},{"name":"Kelaa Kebira","country":"TN","lat":35.87278,"lon":10.53722},{"name":"Kélibia","country":"TN","lat":36.84757,"lon":11.09386},{"name":"Kellabine","country":"TN","lat":34.70882,"lon":11.2147},{"name":"Kerker","country":"TN","lat":35.4816,"lon":10.64215},{"name":"Kesra","country":"TN","lat":35.81363,"lon":9.36434},{"name":"Khledia","country":"TN","lat":36.64609,"lon":10.19343},{"name":"Khunays","country":"TN","lat":35.71667,"lon":10.81667},{"name":"Kondhar","country":"TN","lat":35.93265,"lon":10.30234},{"name":"Korba","country":"TN","lat":36.57861,"lon":10.85861},{"name":"Korbous","country":"TN","lat":36.81668,"lon":10.56865},{"name":"Ksar el Ababsa","country":"TN","lat":33.15,"lon":10.36667},{"name":"Ksar Hellal","country":"TN","lat":35.64773,"lon":10.89046},{"name":"Ksiba","country":"TN","lat":35.76972,"lon":10.62806},{"name":"Ksibet el Mediouni","country":"TN","lat":35.68561,"lon":10.84256},{"name":"Ksour Essaf","country":"TN","lat":35.41808,"lon":10.99475},{"name":"La Gazelle","country":"TN","lat":36.89479,"lon":10.18604},{"name":"La Goulette","country":"TN","lat":36.81919,"lon":10.30646},{"name":"La Marsa","country":"TN","lat":36.87818,"lon":10.32466},{"name":"La Mohammedia","country":"TN","lat":36.67446,"lon":10.15633},{"name":"La Mornaghia","country":"TN","lat":36.75898,"lon":10.01704},{"name":"La Sebala du Mornag","country":"TN","lat":36.67931,"lon":10.29195},{"name":"Le Bardo","country":"TN","lat":36.81058,"lon":10.13481},{"name":"Le Kram","country":"TN","lat":36.83578,"lon":10.31641},{"name":"Le Krib","country":"TN","lat":36.32802,"lon":9.13613},{"name":"Lemta","country":"TN","lat":35.66667,"lon":10.88333},{"name":"M’dhilla","country":"TN","lat":34.25101,"lon":8.74704},{"name":"Maagoula","country":"TN","lat":36.70903,"lon":9.21195},{"name":"Maatmeur","country":"TN","lat":35.75167,"lon":10.69083},{"name":"Mahdia","country":"TN","lat":35.50472,"lon":11.06222},{"name":"Mahires","country":"TN","lat":34.5275,"lon":10.50083},{"name":"Maktar","country":"TN","lat":35.85798,"lon":9.20072},{"name":"Manouba","country":"TN","lat":36.81006,"lon":10.09557},{"name":"Mareth","country":"TN","lat":33.61794,"lon":10.28536},{"name":"Mateur","country":"TN","lat":37.04045,"lon":9.66557},{"name":"Matmata","country":"TN","lat":33.54445,"lon":9.97157},{"name":"Medenine","country":"TN","lat":33.35495,"lon":10.50548},{"name":"Medjez el Bab","country":"TN","lat":36.64964,"lon":9.61231},{"name":"Mégrine","country":"TN","lat":36.76917,"lon":10.23639},{"name":"Melloulèche","country":"TN","lat":35.16617,"lon":11.03504},{"name":"Mennzel Bou Zelfa","country":"TN","lat":36.68312,"lon":10.58431},{"name":"Menzel Abderhaman","country":"TN","lat":37.23737,"lon":9.86313},{"name":"Menzel Bourguiba","country":"TN","lat":37.15368,"lon":9.78594},{"name":"Menzel Bouzaiane","country":"TN","lat":34.5732,"lon":9.42567},{"name":"Menzel Chaker","country":"TN","lat":34.96472,"lon":10.36944},{"name":"Menzel Ennour","country":"TN","lat":35.66872,"lon":10.78085},{"name":"Menzel Fersi","country":"TN","lat":35.5515,"lon":10.86952},{"name":"Menzel Hayet","country":"TN","lat":35.54206,"lon":10.57436},{"name":"Menzel Heurr","country":"TN","lat":36.72818,"lon":10.95757},{"name":"Menzel Jemil","country":"TN","lat":37.23618,"lon":9.91448},{"name":"Menzel Kamel","country":"TN","lat":35.62477,"lon":10.66727},{"name":"Menzel M’heri","country":"TN","lat":35.42031,"lon":9.84899},{"name":"Menzel Salem","country":"TN","lat":35.85673,"lon":8.47654},{"name":"Menzel Temime","country":"TN","lat":36.78222,"lon":10.9875},{"name":"Messadine","country":"TN","lat":35.76444,"lon":10.59694},{"name":"Metlaoui","country":"TN","lat":34.32081,"lon":8.40157},{"name":"Métouia","country":"TN","lat":33.95918,"lon":9.99619},{"name":"Mezzouna","country":"TN","lat":34.57758,"lon":9.84193},{"name":"Midoun","country":"TN","lat":33.80813,"lon":10.99228},{"name":"Mnihla","country":"TN","lat":36.84774,"lon":10.11083},{"name":"Moknine","country":"TN","lat":35.63333,"lon":10.9},{"name":"Monastir","country":"TN","lat":35.77799,"lon":10.82617},{"name":"Moularès","country":"TN","lat":34.4888,"lon":8.26874},{"name":"Msaken","country":"TN","lat":35.72917,"lon":10.58082},{"name":"Nabeul","country":"TN","lat":36.45606,"lon":10.73763},{"name":"Nasrallah","country":"TN","lat":35.35609,"lon":9.83071},{"name":"Nefta","country":"TN","lat":33.87309,"lon":7.87765},{"name":"Nibbar","country":"TN","lat":36.29411,"lon":8.76657},{"name":"Nouvelle Matmata","country":"TN","lat":33.63,"lon":10.06},{"name":"Ouardenine","country":"TN","lat":35.70915,"lon":10.67397},{"name":"Oued Lill","country":"TN","lat":36.83408,"lon":10.04057},{"name":"Ouerdanine","country":"TN","lat":35.69006,"lon":10.67598},{"name":"Ousseltia","country":"TN","lat":35.84778,"lon":9.58944},{"name":"Port el Kantaoui","country":"TN","lat":35.89239,"lon":10.59434},{"name":"Radès","country":"TN","lat":36.76946,"lon":10.27468},{"name":"Rafrāf","country":"TN","lat":37.19043,"lon":10.18365},{"name":"Rass el Djebel","country":"TN","lat":37.21572,"lon":10.1253},{"name":"Rejiche","country":"TN","lat":35.46665,"lon":11.03848},{"name":"Remada","country":"TN","lat":32.31662,"lon":10.39551},{"name":"Rhar el Melah","country":"TN","lat":37.16939,"lon":10.19064},{"name":"Rhennouch","country":"TN","lat":33.94055,"lon":10.06439},{"name":"Robâa Ouled Yahia","country":"TN","lat":36.09399,"lon":9.56736},{"name":"Rohia","country":"TN","lat":35.65129,"lon":9.05306},{"name":"Rouhia","country":"TN","lat":35.69778,"lon":9.14561},{"name":"Sahline","country":"TN","lat":35.75166,"lon":10.71109},{"name":"Sakiet ed Daier","country":"TN","lat":34.79435,"lon":10.80617},{"name":"Sakiet ez Zit","country":"TN","lat":34.80194,"lon":10.76361},{"name":"Sakiet Sidi Youssef","country":"TN","lat":36.22292,"lon":8.35547},{"name":"Salakta","country":"TN","lat":35.39444,"lon":11.04361},{"name":"Sbeitla","country":"TN","lat":35.23151,"lon":9.12321},{"name":"Sbiba","country":"TN","lat":35.54332,"lon":9.0737},{"name":"Sbikha","country":"TN","lat":35.93325,"lon":10.02081},{"name":"Seïada","country":"TN","lat":35.66887,"lon":10.89246},{"name":"Sejenane","country":"TN","lat":37.05722,"lon":9.23806},{"name":"Sejoumi","country":"TN","lat":36.75583,"lon":10.11833},{"name":"Sfax","country":"TN","lat":34.74056,"lon":10.76028},{"name":"Sidi Abid","country":"TN","lat":34.69999,"lon":10.69501},{"name":"Sidi Alouane","country":"TN","lat":35.37505,"lon":10.93899},{"name":"Sidi Ameur","country":"TN","lat":35.75,"lon":10.7},{"name":"Sidi Amor Bou Hajela","country":"TN","lat":35.39742,"lon":10.0477},{"name":"Sidi Ben Nour","country":"TN","lat":35.53333,"lon":10.91667},{"name":"Sidi Bou Ali","country":"TN","lat":35.95667,"lon":10.47306},{"name":"Sidi Bou Rouis","country":"TN","lat":36.17665,"lon":9.1235},{"name":"Sidi Bou Said","country":"TN","lat":36.8687,"lon":10.34174},{"name":"Sidi Bouzid","country":"TN","lat":35.03823,"lon":9.48494},{"name":"Sidi el Hani","country":"TN","lat":35.67139,"lon":10.31583},{"name":"Sidi Tabet","country":"TN","lat":36.9099,"lon":10.04222},{"name":"Siliana","country":"TN","lat":36.08497,"lon":9.37082},{"name":"Skanes","country":"TN","lat":35.7749,"lon":10.79464},{"name":"Skhira","country":"TN","lat":34.2992,"lon":10.06999},{"name":"Soliman","country":"TN","lat":36.69639,"lon":10.49167},{"name":"Souassi","country":"TN","lat":35.34325,"lon":10.54745},{"name":"Souk Lahad","country":"TN","lat":33.77579,"lon":8.85992},{"name":"Sousse","country":"TN","lat":35.82539,"lon":10.63699},{"name":"Sukrah","country":"TN","lat":36.87744,"lon":10.2468},{"name":"Tabarka","country":"TN","lat":36.95442,"lon":8.75801},{"name":"Tabursuq","country":"TN","lat":36.45692,"lon":9.24751},{"name":"Tajerouine","country":"TN","lat":35.89174,"lon":8.55276},{"name":"Takelsa","country":"TN","lat":36.78333,"lon":10.63333},{"name":"Tamaghzah","country":"TN","lat":34.38849,"lon":7.94313},{"name":"Tataouine","country":"TN","lat":32.92967,"lon":10.45177},{"name":"Tazarka","country":"TN","lat":36.55367,"lon":10.83868},{"name":"Teboulba","country":"TN","lat":35.64018,"lon":10.96731},{"name":"Teboulbou","country":"TN","lat":33.8455,"lon":10.11423},{"name":"Tebourba","country":"TN","lat":36.82933,"lon":9.83935},{"name":"Testour","country":"TN","lat":36.5513,"lon":9.44307},{"name":"Thala","country":"TN","lat":35.57244,"lon":8.67031},{"name":"Thelepte","country":"TN","lat":34.97776,"lon":8.59264},{"name":"Tinja","country":"TN","lat":37.15964,"lon":9.7606},{"name":"Touiref","country":"TN","lat":36.34058,"lon":8.58696},{"name":"Touza","country":"TN","lat":35.63544,"lon":10.82732},{"name":"Tozeur","country":"TN","lat":33.91968,"lon":8.13352},{"name":"Tunis","country":"TN","lat":36.81897,"lon":10.16579},{"name":"Wadhraf","country":"TN","lat":33.98332,"lon":9.97044},{"name":"Wadi Maliz","country":"TN","lat":36.46813,"lon":8.54951},{"name":"Zaafrane","country":"TN","lat":33.44269,"lon":8.92065},{"name":"Zaghouan","country":"TN","lat":36.40291,"lon":10.14292},{"name":"Zahānah","country":"TN","lat":37.03959,"lon":10.03876},{"name":"Zaouiat Djedidi","country":"TN","lat":36.64375,"lon":10.57428},{"name":"Zaouiet Azmour","country":"TN","lat":36.92441,"lon":11.0078},{"name":"Zaouiet Kountech","country":"TN","lat":35.63333,"lon":10.76667},{"name":"Zaouiet Medien","country":"TN","lat":36.76767,"lon":9.08894},{"name":"Zaouiet Sousse","country":"TN","lat":35.78553,"lon":10.62725},{"name":"Zarat","country":"TN","lat":33.66655,"lon":10.34896},{"name":"Zarzis","country":"TN","lat":33.50398,"lon":11.11215},{"name":"Zeramedine","country":"TN","lat":35.57525,"lon":10.73456},{"name":"Zouila","country":"TN","lat":35.50056,"lon":11.06056},{"name":"Zriba-Village","country":"TN","lat":36.34265,"lon":10.24905}]