[{"name":"‘Ohonua","country":"TO","lat":-21.34135,"lon":-174.95656},{"name":"Fangale’ounga","country":"TO","lat":-19.75285,"lon":-174.32257},{"name":"Haveluloto","country":"TO","lat":-21.15216,"lon":-175.21333},{"name":"Hihifo","country":"TO","lat":-15.9544,"lon":-173.79616},{"name":"Houma","country":"TO","lat":-21.17005,"lon":-175.30213},{"name":"Kolonga","country":"TO","lat":-21.13333,"lon":-175.06667},{"name":"Lapaha","country":"TO","lat":-21.17735,"lon":-175.1172},{"name":"Neiafu","country":"TO","lat":-18.65144,"lon":-173.98354},{"name":"Nuku‘alofa","country":"TO","lat":-21.13683,"lon":-175.20114},{"name":"Pangai","country":"TO","lat":-19.81468,"lon":-174.35423},{"name":"Tatakamotonga","country":"TO","lat":-21.18627,"lon":-175.12453},{"name":"Vaini","country":"TO","lat":-21.19292,"lon":-175.17678}]