[{"name":"Abana","country":"TR","lat":41.97858,"lon":34.011},{"name":"Abdioğlu","country":"TR","lat":36.90856,"lon":35.56888},{"name":"Acarlar","country":"TR","lat":37.82444,"lon":27.74667},{"name":"Acıgöl","country":"TR","lat":38.55028,"lon":34.50917},{"name":"Açıkdere","country":"TR","lat":36.21909,"lon":36.25992},{"name":"Acıpayam","country":"TR","lat":37.42385,"lon":29.34941},{"name":"Acıpınar","country":"TR","lat":38.52671,"lon":33.85225},{"name":"Acırlı","country":"TR","lat":37.45619,"lon":41.29509},{"name":"Adaklı","country":"TR","lat":39.2262,"lon":40.48283},{"name":"Adala","country":"TR","lat":38.57757,"lon":28.26847},{"name":"Adalan","country":"TR","lat":40.8759,"lon":29.0894},{"name":"Adalar","country":"TR","lat":40.86778,"lon":29.13306},{"name":"Adana","country":"TR","lat":36.98615,"lon":35.32531},{"name":"Adapazarı","country":"TR","lat":40.78056,"lon":30.40333},{"name":"Adatepe","country":"TR","lat":41.17862,"lon":35.45489},{"name":"Adilcevaz","country":"TR","lat":38.79911,"lon":42.73159},{"name":"Adıyaman","country":"TR","lat":37.76441,"lon":38.27629},{"name":"Afşin","country":"TR","lat":38.24769,"lon":36.91399},{"name":"Afyonkarahisar","country":"TR","lat":38.75667,"lon":30.54333},{"name":"Ağabeyli","country":"TR","lat":37.73362,"lon":37.11625},{"name":"Ağaçeli","country":"TR","lat":38.98333,"lon":40.7},{"name":"Ağaçlı","country":"TR","lat":38.51728,"lon":40.90401},{"name":"Ağaçören","country":"TR","lat":38.87484,"lon":33.91674},{"name":"Ağaköy","country":"TR","lat":40.26861,"lon":27.15028},{"name":"Ağılboğazı","country":"TR","lat":37.48287,"lon":35.82508},{"name":"Ağın","country":"TR","lat":38.93792,"lon":38.71155},{"name":"Ağlasun","country":"TR","lat":37.64944,"lon":30.53417},{"name":"Ağlı","country":"TR","lat":41.68602,"lon":33.55383},{"name":"Ağrı","country":"TR","lat":39.71467,"lon":43.04015},{"name":"Ağva","country":"TR","lat":41.13806,"lon":29.85667},{"name":"Ahırlı","country":"TR","lat":37.23874,"lon":32.11881},{"name":"Ahlat","country":"TR","lat":38.7489,"lon":42.48007},{"name":"Ahmetli","country":"TR","lat":38.5196,"lon":27.93865},{"name":"Ahmetli","country":"TR","lat":38.17817,"lon":39.85627},{"name":"Ahmetli","country":"TR","lat":37.75223,"lon":40.9476},{"name":"Akalan","country":"TR","lat":37.37222,"lon":29.35386},{"name":"Akarsu","country":"TR","lat":39.92878,"lon":38.61382},{"name":"Akarsu","country":"TR","lat":37.22616,"lon":41.05138},{"name":"Akbez","country":"TR","lat":36.85551,"lon":36.51788},{"name":"Akçaabat","country":"TR","lat":41.02121,"lon":39.57146},{"name":"Akçadağ","country":"TR","lat":38.33899,"lon":37.97021},{"name":"Akçagöze","country":"TR","lat":37.26035,"lon":37.30236},{"name":"Akçakale","country":"TR","lat":36.71111,"lon":38.9475},{"name":"Akçakale","country":"TR","lat":38.08971,"lon":39.69974},{"name":"Akçakaya","country":"TR","lat":39.57583,"lon":27.8675},{"name":"Akçakent","country":"TR","lat":39.62278,"lon":34.09583},{"name":"Akcakışla","country":"TR","lat":39.53818,"lon":36.33626},{"name":"Akçakoca","country":"TR","lat":41.08935,"lon":31.12362},{"name":"Akçakonak","country":"TR","lat":37.7,"lon":27.36667},{"name":"Akçaköy","country":"TR","lat":37.96428,"lon":28.02178},{"name":"Akçaova","country":"TR","lat":37.50278,"lon":28.02667},{"name":"Akçaova","country":"TR","lat":41.038,"lon":29.951},{"name":"Akçapınar","country":"TR","lat":38.94728,"lon":38.9423},{"name":"Akçasır","country":"TR","lat":38.44722,"lon":41.26513},{"name":"Akçatekir","country":"TR","lat":37.38046,"lon":34.80814},{"name":"Akçay","country":"TR","lat":36.60217,"lon":29.74626},{"name":"Akçıra","country":"TR","lat":38.85088,"lon":43.09766},{"name":"Akdağ","country":"TR","lat":40.71235,"lon":35.97605},{"name":"Akdağmadeni","country":"TR","lat":39.66028,"lon":35.88361},{"name":"Akdam","country":"TR","lat":37.55135,"lon":35.61901},{"name":"Akdam","country":"TR","lat":36.64194,"lon":31.80598},{"name":"Akdere","country":"TR","lat":36.24083,"lon":33.75041},{"name":"Akdiken","country":"TR","lat":36.725,"lon":39.30861},{"name":"Akgedik","country":"TR","lat":36.69096,"lon":33.25731},{"name":"Akhisar","country":"TR","lat":38.91852,"lon":27.84006},{"name":"Akhisar","country":"TR","lat":40.11825,"lon":29.46623},{"name":"Akıncı","country":"TR","lat":37.16643,"lon":40.84706},{"name":"Akıncılar","country":"TR","lat":37.76444,"lon":38.82308},{"name":"Akıncılar","country":"TR","lat":40.07172,"lon":38.3433},{"name":"Akkaya","country":"TR","lat":41.21913,"lon":33.48487},{"name":"Akkent","country":"TR","lat":38.15268,"lon":29.3789},{"name":"Akkışla","country":"TR","lat":39.00222,"lon":36.17381},{"name":"Akkonak","country":"TR","lat":38.52386,"lon":30.89446},{"name":"Akköy","country":"TR","lat":37.95694,"lon":29.07813},{"name":"Akköy","country":"TR","lat":37.49139,"lon":27.26944},{"name":"Akkuş","country":"TR","lat":40.79306,"lon":37.01639},{"name":"Akkuzulu","country":"TR","lat":40.20949,"lon":33.13669},{"name":"Akmeşe","country":"TR","lat":40.84929,"lon":30.19822},{"name":"Akören","country":"TR","lat":37.45345,"lon":32.3707},{"name":"Akpazar","country":"TR","lat":38.84625,"lon":39.66833},{"name":"Akpınar","country":"TR","lat":39.45005,"lon":33.96484},{"name":"Akpınar","country":"TR","lat":37.57389,"lon":38.22077},{"name":"Aksakal","country":"TR","lat":40.14725,"lon":28.1068},{"name":"Akşar","country":"TR","lat":38.1,"lon":42.53333},{"name":"Akşar","country":"TR","lat":40.64651,"lon":42.3391},{"name":"Aksaray","country":"TR","lat":38.37255,"lon":34.02537},{"name":"Aksaray","country":"TR","lat":41.00866,"lon":28.95018},{"name":"Akşehir","country":"TR","lat":38.3575,"lon":31.41639},{"name":"Akseki","country":"TR","lat":37.04861,"lon":31.79},{"name":"Aksu","country":"TR","lat":37.79889,"lon":31.07111},{"name":"Aksu","country":"TR","lat":36.95389,"lon":30.84778},{"name":"Aksu","country":"TR","lat":40.08964,"lon":38.03467},{"name":"Aktepe","country":"TR","lat":36.70161,"lon":36.48535},{"name":"Aktoprak","country":"TR","lat":37.18624,"lon":37.28575},{"name":"Aktuzla","country":"TR","lat":39.33012,"lon":42.28533},{"name":"Akyaka","country":"TR","lat":40.74093,"lon":43.61432},{"name":"Akyar","country":"TR","lat":39.4642,"lon":27.99902},{"name":"Akyazı","country":"TR","lat":40.685,"lon":30.62222},{"name":"Akyeniköy","country":"TR","lat":37.49472,"lon":27.30317},{"name":"Akyurt","country":"TR","lat":40.13512,"lon":33.08614},{"name":"Akziyaret","country":"TR","lat":37.35328,"lon":38.79609},{"name":"Alabaş","country":"TR","lat":37.7689,"lon":40.0896},{"name":"Alaca","country":"TR","lat":40.16833,"lon":34.8425},{"name":"Alacahan","country":"TR","lat":39.10667,"lon":37.57556},{"name":"Alacakaya","country":"TR","lat":38.46201,"lon":39.86234},{"name":"Alaçam","country":"TR","lat":41.60556,"lon":35.59806},{"name":"Alaçatı","country":"TR","lat":38.28246,"lon":26.37459},{"name":"Aladağ","country":"TR","lat":37.5485,"lon":35.39603},{"name":"Alahacı","country":"TR","lat":37.21561,"lon":37.77234},{"name":"Alakamış","country":"TR","lat":37.15914,"lon":41.78919},{"name":"Alamut","country":"TR","lat":37.8085,"lon":28.29227},{"name":"Alanya","country":"TR","lat":36.54375,"lon":31.99982},{"name":"Alanyurt","country":"TR","lat":40.10881,"lon":29.51871},{"name":"Alaplı","country":"TR","lat":41.1814,"lon":31.38514},{"name":"Alaşehir","country":"TR","lat":38.35083,"lon":28.51718},{"name":"Alaylı","country":"TR","lat":37.05611,"lon":30.88401},{"name":"Albayrak","country":"TR","lat":38.14252,"lon":44.2012},{"name":"Alcı","country":"TR","lat":37.14585,"lon":29.19083},{"name":"Aliağa","country":"TR","lat":38.79975,"lon":26.97203},{"name":"Alifakı","country":"TR","lat":36.88309,"lon":34.995},{"name":"Alitaşı","country":"TR","lat":37.81292,"lon":39.66513},{"name":"Alıcık","country":"TR","lat":40.80275,"lon":35.32256},{"name":"Almus","country":"TR","lat":40.37583,"lon":36.90444},{"name":"Alparslan","country":"TR","lat":40.80722,"lon":36.34222},{"name":"Alpköy","country":"TR","lat":39.61393,"lon":39.18639},{"name":"Alpu","country":"TR","lat":39.76903,"lon":30.9606},{"name":"Altınekin","country":"TR","lat":38.30778,"lon":32.86861},{"name":"Altınkaya","country":"TR","lat":38.61742,"lon":33.78114},{"name":"Altınkum","country":"TR","lat":38.26374,"lon":41.0625},{"name":"Altınkum","country":"TR","lat":37.35765,"lon":27.28786},{"name":"Altınoluk","country":"TR","lat":39.57944,"lon":26.73722},{"name":"Altınordu","country":"TR","lat":40.98404,"lon":37.87348},{"name":"Altınova","country":"TR","lat":39.2173,"lon":26.79008},{"name":"Altınova","country":"TR","lat":40.69495,"lon":29.50986},{"name":"Altınözü","country":"TR","lat":36.11554,"lon":36.24827},{"name":"Altıntaş","country":"TR","lat":37.61931,"lon":28.30916},{"name":"Altıntaş","country":"TR","lat":39.05972,"lon":30.10917},{"name":"Altınüzüm","country":"TR","lat":36.9345,"lon":36.5695},{"name":"Altınyaka","country":"TR","lat":36.55861,"lon":30.34833},{"name":"Altınyayla","country":"TR","lat":39.27249,"lon":36.75098},{"name":"Altınyayla","country":"TR","lat":36.99722,"lon":29.54579},{"name":"Altpınar","country":"TR","lat":39.20417,"lon":32.74778},{"name":"Altunhisar","country":"TR","lat":37.99159,"lon":34.37334},{"name":"Altunizade","country":"TR","lat":41.01779,"lon":29.04794},{"name":"Alucra","country":"TR","lat":40.32021,"lon":38.7641},{"name":"Amasra","country":"TR","lat":41.74633,"lon":32.38633},{"name":"Amasya","country":"TR","lat":40.65333,"lon":35.83306},{"name":"Ambar","country":"TR","lat":37.85305,"lon":40.52798},{"name":"Anadoluhisarı","country":"TR","lat":41.08737,"lon":29.07094},{"name":"Anadolukavağı","country":"TR","lat":41.17418,"lon":29.08908},{"name":"Anamas","country":"TR","lat":37.76667,"lon":30.8},{"name":"Anamur","country":"TR","lat":36.07508,"lon":32.83691},{"name":"Anayazı","country":"TR","lat":36.32107,"lon":36.19061},{"name":"Andaç","country":"TR","lat":37.35537,"lon":43.26243},{"name":"Andırın","country":"TR","lat":37.57757,"lon":36.35492},{"name":"Anıl","country":"TR","lat":38.39785,"lon":40.33852},{"name":"Ankara","country":"TR","lat":39.91987,"lon":32.85427},{"name":"Antakya","country":"TR","lat":36.20655,"lon":36.15722},{"name":"Antalya","country":"TR","lat":36.90812,"lon":30.69556},{"name":"Araban","country":"TR","lat":37.42667,"lon":37.689},{"name":"Araç","country":"TR","lat":41.24222,"lon":33.32767},{"name":"Araklı","country":"TR","lat":40.93854,"lon":40.05842},{"name":"Aralık","country":"TR","lat":39.87278,"lon":44.51917},{"name":"Aralık","country":"TR","lat":37.82945,"lon":40.68025},{"name":"Aran","country":"TR","lat":37.44797,"lon":40.74804},{"name":"Arapgir","country":"TR","lat":39.04117,"lon":38.49516},{"name":"Aras","country":"TR","lat":39.98821,"lon":42.30628},{"name":"Ardahan","country":"TR","lat":41.10871,"lon":42.70222},{"name":"Ardanuç","country":"TR","lat":41.11955,"lon":42.06882},{"name":"Ardeşen","country":"TR","lat":41.19064,"lon":40.97935},{"name":"Ardıçlı","country":"TR","lat":36.72962,"lon":36.51808},{"name":"Argıthanı","country":"TR","lat":38.29259,"lon":31.71452},{"name":"Arguvan","country":"TR","lat":38.77375,"lon":38.26328},{"name":"Arhavi","country":"TR","lat":41.35121,"lon":41.30456},{"name":"Arifiye","country":"TR","lat":40.70036,"lon":30.35076},{"name":"Arıcak","country":"TR","lat":38.5634,"lon":40.1248},{"name":"Arıklı","country":"TR","lat":37.03919,"lon":40.19026},{"name":"Arıköy","country":"TR","lat":41.23044,"lon":29.00425},{"name":"Arıt","country":"TR","lat":41.68706,"lon":32.62396},{"name":"Arkum","country":"TR","lat":36.35191,"lon":34.05673},{"name":"Armutlu","country":"TR","lat":39.5755,"lon":38.42722},{"name":"Armutlu","country":"TR","lat":38.19417,"lon":33.8951},{"name":"Armutlu","country":"TR","lat":40.51944,"lon":28.82806},{"name":"Arnavutköy","country":"TR","lat":41.18355,"lon":28.7402},{"name":"Arnavutköy","country":"TR","lat":41.06826,"lon":29.04335},{"name":"Arpaçay","country":"TR","lat":40.84522,"lon":43.32747},{"name":"Arpaçbahşiş","country":"TR","lat":36.64552,"lon":34.35077},{"name":"Arsin","country":"TR","lat":40.95271,"lon":39.92674},{"name":"Arslanbey","country":"TR","lat":40.69047,"lon":30.03063},{"name":"Arslanköy","country":"TR","lat":37.01884,"lon":34.28741},{"name":"Arsuz","country":"TR","lat":36.41305,"lon":35.89033},{"name":"Artova","country":"TR","lat":40.11578,"lon":36.3001},{"name":"Artvin","country":"TR","lat":41.18161,"lon":41.82172},{"name":"Aşağı Beğdeş","country":"TR","lat":36.81472,"lon":38.91917},{"name":"Aşağı Hisar","country":"TR","lat":36.78238,"lon":31.44805},{"name":"Aşağı Irmaklar","country":"TR","lat":41.18027,"lon":42.18146},{"name":"Aşağı Karafakılı","country":"TR","lat":36.77885,"lon":36.55776},{"name":"Aşağıçiğil","country":"TR","lat":38.0515,"lon":31.86379},{"name":"Aşağıkaraman","country":"TR","lat":36.91176,"lon":30.57351},{"name":"Aşağıkocayatak","country":"TR","lat":36.90986,"lon":30.95798},{"name":"Aşağıokçular","country":"TR","lat":36.17802,"lon":36.14033},{"name":"Aşağıpınarbaşı","country":"TR","lat":38.03833,"lon":32.60083},{"name":"Aşağıyakacık","country":"TR","lat":38.08636,"lon":28.49143},{"name":"Asarcık","country":"TR","lat":41.03556,"lon":36.23556},{"name":"Aşkale","country":"TR","lat":39.92083,"lon":40.695},{"name":"Askeriye","country":"TR","lat":37.75097,"lon":30.35731},{"name":"Aslanapa","country":"TR","lat":39.21581,"lon":29.8699},{"name":"Asmalı","country":"TR","lat":36.75665,"lon":35.53346},{"name":"Atabey","country":"TR","lat":37.95083,"lon":30.63861},{"name":"Ataeymir","country":"TR","lat":37.70461,"lon":28.77158},{"name":"Atakent","country":"TR","lat":36.40067,"lon":34.0579},{"name":"Ataköy","country":"TR","lat":37.73987,"lon":28.69814},{"name":"Atalar","country":"TR","lat":36.85,"lon":34.85},{"name":"Atalar","country":"TR","lat":37.17499,"lon":37.02169},{"name":"Ataşehir","country":"TR","lat":40.9833,"lon":29.1167},{"name":"Atayurt","country":"TR","lat":36.38364,"lon":34.02232},{"name":"Atburgazı","country":"TR","lat":37.63639,"lon":27.24611},{"name":"Atça","country":"TR","lat":37.88859,"lon":28.21528},{"name":"Atkaracalar","country":"TR","lat":40.81593,"lon":33.07556},{"name":"Atlı","country":"TR","lat":37.19147,"lon":40.14358},{"name":"Atlıhisar","country":"TR","lat":38.44944,"lon":30.58389},{"name":"Atmalı","country":"TR","lat":37.70773,"lon":37.98207},{"name":"Avanos","country":"TR","lat":38.715,"lon":34.84667},{"name":"Avine","country":"TR","lat":37.57373,"lon":40.73252},{"name":"Avsallar","country":"TR","lat":36.62448,"lon":31.76941},{"name":"Avsuyu","country":"TR","lat":36.19355,"lon":36.31347},{"name":"Ayancık","country":"TR","lat":41.94472,"lon":34.58611},{"name":"Ayaş","country":"TR","lat":36.48484,"lon":34.17595},{"name":"Ayaş","country":"TR","lat":40.01933,"lon":32.33221},{"name":"Aybastı","country":"TR","lat":40.68667,"lon":37.39917},{"name":"Aydın","country":"TR","lat":37.84501,"lon":27.83963},{"name":"Aydınca","country":"TR","lat":40.56972,"lon":36.13917},{"name":"Aydıncık","country":"TR","lat":36.1437,"lon":33.32016},{"name":"Aydıncık","country":"TR","lat":40.12727,"lon":35.28765},{"name":"Aydınkonak","country":"TR","lat":37.89461,"lon":41.16405},{"name":"Aydınlar","country":"TR","lat":38.62198,"lon":38.54052},{"name":"Aydınpınar","country":"TR","lat":40.75962,"lon":31.11131},{"name":"Aydıntepe","country":"TR","lat":40.38325,"lon":40.14272},{"name":"Aygün","country":"TR","lat":38.43013,"lon":41.24536},{"name":"Aynalı","country":"TR","lat":38.10157,"lon":39.45611},{"name":"Ayrancı","country":"TR","lat":37.36127,"lon":33.6883},{"name":"Ayvacık","country":"TR","lat":39.60111,"lon":26.40472},{"name":"Ayvacık","country":"TR","lat":40.99111,"lon":36.63139},{"name":"Ayvalık","country":"TR","lat":39.31927,"lon":26.69341},{"name":"Ayveri","country":"TR","lat":37.73771,"lon":40.09061},{"name":"Azdavay","country":"TR","lat":41.64267,"lon":33.3},{"name":"Babadağ","country":"TR","lat":37.80764,"lon":28.85665},{"name":"Babaeski","country":"TR","lat":41.42809,"lon":27.0966},{"name":"Babatorun","country":"TR","lat":36.07743,"lon":36.29051},{"name":"Babayağmur","country":"TR","lat":39.36311,"lon":35.47904},{"name":"Bademağacı","country":"TR","lat":36.61648,"lon":32.09226},{"name":"Bademli","country":"TR","lat":39.02763,"lon":26.82455},{"name":"Bademli","country":"TR","lat":38.08167,"lon":28.05778},{"name":"Bafra","country":"TR","lat":41.56787,"lon":35.90311},{"name":"Bağarası","country":"TR","lat":37.7071,"lon":27.54875},{"name":"Bağbaşı","country":"TR","lat":37.27817,"lon":37.27244},{"name":"Bağcılar","country":"TR","lat":41.03903,"lon":28.85671},{"name":"Bağdere","country":"TR","lat":38.11442,"lon":40.73382},{"name":"Bağgöze","country":"TR","lat":37.71261,"lon":41.9154},{"name":"Bağışlı","country":"TR","lat":37.71769,"lon":44.0356},{"name":"Bağkonak","country":"TR","lat":38.2175,"lon":31.27222},{"name":"Bağlar","country":"TR","lat":37.91375,"lon":40.20584},{"name":"Bağlıca","country":"TR","lat":37.86978,"lon":41.75095},{"name":"Bağlıca","country":"TR","lat":37.52705,"lon":40.68618},{"name":"Bağpınar","country":"TR","lat":37.59139,"lon":38.3191},{"name":"Bağrıbütün","country":"TR","lat":37.12925,"lon":40.28599},{"name":"Bahçe","country":"TR","lat":37.19724,"lon":36.57658},{"name":"Bahçecik","country":"TR","lat":40.6681,"lon":29.91478},{"name":"Bahçedere","country":"TR","lat":38.80052,"lon":42.6381},{"name":"Bahçeköy","country":"TR","lat":41.17876,"lon":28.99207},{"name":"Bahçelievler","country":"TR","lat":39.92479,"lon":32.825},{"name":"Bahçelievler","country":"TR","lat":41.00231,"lon":28.8598},{"name":"Bahçesaray","country":"TR","lat":38.1246,"lon":42.79825},{"name":"Bahşiş","country":"TR","lat":36.8233,"lon":34.88775},{"name":"Bahşılar","country":"TR","lat":38.2418,"lon":40.02364},{"name":"Bahşılı","country":"TR","lat":39.80017,"lon":33.43701},{"name":"Bahtılı","country":"TR","lat":36.88682,"lon":30.57323},{"name":"Bakacak","country":"TR","lat":40.20499,"lon":27.08317},{"name":"Bakırdağı","country":"TR","lat":38.21597,"lon":35.79021},{"name":"Baklan","country":"TR","lat":37.97694,"lon":29.60861},{"name":"Bala","country":"TR","lat":39.55422,"lon":33.12344},{"name":"Balaban","country":"TR","lat":38.46106,"lon":37.57881},{"name":"Balaban","country":"TR","lat":38.17292,"lon":40.20902},{"name":"Balaban","country":"TR","lat":40.68679,"lon":30.08404},{"name":"Balat","country":"TR","lat":37.51278,"lon":27.27917},{"name":"Balcı","country":"TR","lat":38.72532,"lon":34.10123},{"name":"Balçık","country":"TR","lat":40.8725,"lon":29.42833},{"name":"Balçıkhisar","country":"TR","lat":38.43971,"lon":30.51917},{"name":"Balıkesir","country":"TR","lat":39.64917,"lon":27.88611},{"name":"Balıklı","country":"TR","lat":40.46289,"lon":27.62585},{"name":"Balıklıçeşme","country":"TR","lat":40.31029,"lon":27.08171},{"name":"Balıklıdere","country":"TR","lat":36.12096,"lon":36.10481},{"name":"Balışeyh","country":"TR","lat":39.91411,"lon":33.72333},{"name":"Ballı","country":"TR","lat":37.41095,"lon":42.84025},{"name":"Ballı","country":"TR","lat":40.83028,"lon":27.05548},{"name":"Ballıkpınar","country":"TR","lat":39.7344,"lon":32.71479},{"name":"Balpayam","country":"TR","lat":39.42006,"lon":40.05713},{"name":"Balpınar","country":"TR","lat":37.86804,"lon":41.05536},{"name":"Baltaköy","country":"TR","lat":37.77998,"lon":27.883},{"name":"Balveren","country":"TR","lat":37.48441,"lon":42.54883},{"name":"Balya","country":"TR","lat":39.74861,"lon":27.57889},{"name":"Banarlı","country":"TR","lat":41.06702,"lon":27.33575},{"name":"Banaz","country":"TR","lat":38.73707,"lon":29.75194},{"name":"Bandırma","country":"TR","lat":40.35222,"lon":27.97667},{"name":"Barıştepe","country":"TR","lat":37.48273,"lon":41.40201},{"name":"Barla","country":"TR","lat":38.01778,"lon":30.78278},{"name":"Bartın","country":"TR","lat":41.63583,"lon":32.3375},{"name":"Başaklı","country":"TR","lat":37.8257,"lon":40.45787},{"name":"Başakşehir","country":"TR","lat":41.09307,"lon":28.80203},{"name":"Basaran","country":"TR","lat":37.47696,"lon":43.12987},{"name":"Başaran","country":"TR","lat":37.86167,"lon":28.54361},{"name":"Başçayır","country":"TR","lat":37.95583,"lon":28.07333},{"name":"Başçiftlik","country":"TR","lat":40.54694,"lon":37.16917},{"name":"Başgedikler","country":"TR","lat":40.64069,"lon":43.52179},{"name":"Başkale","country":"TR","lat":38.04526,"lon":44.01718},{"name":"Başkavak","country":"TR","lat":37.56406,"lon":40.8876},{"name":"Baskil","country":"TR","lat":38.56866,"lon":38.81634},{"name":"Başköy","country":"TR","lat":39.87231,"lon":39.84188},{"name":"Başmakçı","country":"TR","lat":37.89722,"lon":30.01167},{"name":"Başpınar","country":"TR","lat":39.19017,"lon":38.68737},{"name":"Basri","country":"TR","lat":39.60245,"lon":32.1059},{"name":"Başyayla","country":"TR","lat":36.75337,"lon":32.68018},{"name":"Başyurt","country":"TR","lat":38.83505,"lon":39.97929},{"name":"Batikent","country":"TR","lat":39.96833,"lon":32.73083},{"name":"Batman","country":"TR","lat":37.88738,"lon":41.13221},{"name":"Battalgazi","country":"TR","lat":38.42286,"lon":38.3585},{"name":"Bayat","country":"TR","lat":38.98306,"lon":30.92472},{"name":"Bayat","country":"TR","lat":40.64583,"lon":34.26139},{"name":"Bayburt","country":"TR","lat":40.25631,"lon":40.22289},{"name":"Bayındır","country":"TR","lat":38.21741,"lon":27.64744},{"name":"Bayır","country":"TR","lat":37.26774,"lon":28.21677},{"name":"Baykan","country":"TR","lat":38.15754,"lon":41.7733},{"name":"Bayraklı","country":"TR","lat":38.46717,"lon":27.16384},{"name":"Bayramiç","country":"TR","lat":39.80862,"lon":26.60983},{"name":"Bayramören","country":"TR","lat":40.94329,"lon":33.203},{"name":"Bebek","country":"TR","lat":41.07815,"lon":29.04309},{"name":"Bedirli","country":"TR","lat":39.58276,"lon":36.62049},{"name":"Beğendik","country":"TR","lat":37.97516,"lon":42.64647},{"name":"Behram","country":"TR","lat":39.49344,"lon":26.33316},{"name":"Bekilli","country":"TR","lat":38.23105,"lon":29.4197},{"name":"Bekirhan","country":"TR","lat":38.14086,"lon":41.29351},{"name":"Beldibi","country":"TR","lat":36.71921,"lon":30.56379},{"name":"Belek","country":"TR","lat":36.86278,"lon":31.05556},{"name":"Belen","country":"TR","lat":38.42013,"lon":40.35389},{"name":"Belen","country":"TR","lat":36.48866,"lon":36.19489},{"name":"Belevi","country":"TR","lat":38.015,"lon":27.45028},{"name":"Belkis","country":"TR","lat":36.92495,"lon":31.14646},{"name":"Belören","country":"TR","lat":37.63723,"lon":37.5803},{"name":"Belören","country":"TR","lat":37.2148,"lon":32.55363},{"name":"Belören","country":"TR","lat":40.86156,"lon":33.49557},{"name":"Bereketli","country":"TR","lat":40.51273,"lon":37.28862},{"name":"Bergama","country":"TR","lat":39.12074,"lon":27.18052},{"name":"Beşeylül","country":"TR","lat":37.92522,"lon":28.42579},{"name":"Beşikdüzü","country":"TR","lat":41.05202,"lon":39.23294},{"name":"Beşiri","country":"TR","lat":37.91573,"lon":41.2865},{"name":"Beşkonak","country":"TR","lat":37.14444,"lon":31.19917},{"name":"Besni","country":"TR","lat":37.69278,"lon":37.86111},{"name":"Beşpınar","country":"TR","lat":37.83709,"lon":41.60219},{"name":"Beşpınar","country":"TR","lat":37.78231,"lon":40.36387},{"name":"Beşpınar","country":"TR","lat":41.13822,"lon":35.21724},{"name":"Beyağaç","country":"TR","lat":37.23526,"lon":28.89612},{"name":"Beyazköy","country":"TR","lat":41.34833,"lon":27.70389},{"name":"Beyçayırı","country":"TR","lat":38.01412,"lon":41.32372},{"name":"Beyçayırı","country":"TR","lat":40.25515,"lon":26.92442},{"name":"Beycuma","country":"TR","lat":41.32812,"lon":31.96811},{"name":"Beykonak","country":"TR","lat":36.32573,"lon":30.30302},{"name":"Beylerbeyi","country":"TR","lat":41.04392,"lon":29.04635},{"name":"Beylikdüzü","country":"TR","lat":40.982,"lon":28.6399},{"name":"Beylikova","country":"TR","lat":39.68694,"lon":31.20556},{"name":"Beymelek","country":"TR","lat":36.24779,"lon":30.01585},{"name":"Beypazarı","country":"TR","lat":40.1675,"lon":31.92111},{"name":"Beypınarı","country":"TR","lat":39.5064,"lon":37.7069},{"name":"Beyşehir","country":"TR","lat":37.67735,"lon":31.72458},{"name":"Beytüşşebap","country":"TR","lat":37.56318,"lon":43.16583},{"name":"Bezirgân","country":"TR","lat":36.275,"lon":29.45972},{"name":"Biga","country":"TR","lat":40.22806,"lon":27.24222},{"name":"Bigadiç","country":"TR","lat":39.3925,"lon":28.13111},{"name":"Bilecik","country":"TR","lat":40.14192,"lon":29.97932},{"name":"Bilek","country":"TR","lat":37.12978,"lon":37.54328},{"name":"Binatlı","country":"TR","lat":37.84708,"lon":41.21608},{"name":"Bingöl","country":"TR","lat":38.88472,"lon":40.49389},{"name":"Binpınar","country":"TR","lat":39.36217,"lon":42.04861},{"name":"Birecik","country":"TR","lat":37.02577,"lon":37.97841},{"name":"Birgi","country":"TR","lat":38.25028,"lon":28.05917},{"name":"Bisbin","country":"TR","lat":37.33929,"lon":42.56945},{"name":"Bismil","country":"TR","lat":37.84514,"lon":40.65931},{"name":"Bitez","country":"TR","lat":37.04436,"lon":27.39333},{"name":"Bitlis","country":"TR","lat":38.40115,"lon":42.10784},{"name":"Bıyıklı","country":"TR","lat":37.75908,"lon":27.58451},{"name":"Bodrum","country":"TR","lat":37.03833,"lon":27.42917},{"name":"Boğaziçi","country":"TR","lat":38.03472,"lon":27.55944},{"name":"Boğazkale","country":"TR","lat":40.02191,"lon":34.60947},{"name":"Boğazkaya","country":"TR","lat":41.45,"lon":35.86667},{"name":"Boğazkent","country":"TR","lat":36.85319,"lon":31.16388},{"name":"Boğazlıyan","country":"TR","lat":39.18877,"lon":35.24537},{"name":"Boğazören","country":"TR","lat":37.52749,"lon":43.00892},{"name":"Böğürtlen","country":"TR","lat":37.16632,"lon":38.0811},{"name":"Bolaman","country":"TR","lat":41.03435,"lon":37.59409},{"name":"Bolatlı","country":"TR","lat":36.94819,"lon":34.89922},{"name":"Bolayır","country":"TR","lat":40.51498,"lon":26.75725},{"name":"Bölcek","country":"TR","lat":39.18277,"lon":27.42517},{"name":"Bölme","country":"TR","lat":38.62076,"lon":29.37373},{"name":"Bolu","country":"TR","lat":40.73583,"lon":31.60611},{"name":"Bölükyazı","country":"TR","lat":38.32748,"lon":42.17448},{"name":"Bolvadin","country":"TR","lat":38.71111,"lon":31.04861},{"name":"Bor","country":"TR","lat":37.89056,"lon":34.55889},{"name":"Borçka","country":"TR","lat":41.35792,"lon":41.66579},{"name":"Börezli","country":"TR","lat":39.49804,"lon":27.0274},{"name":"Borlu","country":"TR","lat":38.75291,"lon":28.46744},{"name":"Bornova","country":"TR","lat":38.47921,"lon":27.2399},{"name":"Bostancı","country":"TR","lat":37.17659,"lon":42.32928},{"name":"Boyabat","country":"TR","lat":41.46889,"lon":34.76667},{"name":"Boyaklı","country":"TR","lat":37.22609,"lon":40.30586},{"name":"Boyalı","country":"TR","lat":41.0271,"lon":33.3041},{"name":"Boyalıca","country":"TR","lat":40.48194,"lon":29.56083},{"name":"Boyalık","country":"TR","lat":41.26337,"lon":28.63142},{"name":"Boynuyoğun","country":"TR","lat":37.06797,"lon":35.4113},{"name":"Boynuyoğun","country":"TR","lat":36.16935,"lon":36.34249},{"name":"Boyunlu","country":"TR","lat":38.22779,"lon":40.98488},{"name":"Bozalan","country":"TR","lat":37.32814,"lon":42.26379},{"name":"Bozan","country":"TR","lat":39.78806,"lon":31.10167},{"name":"Bozarmut","country":"TR","lat":37.30917,"lon":28.16972},{"name":"Bozburun","country":"TR","lat":36.69495,"lon":28.04336},{"name":"Bozcaada","country":"TR","lat":39.835,"lon":26.06972},{"name":"Bozdoğan","country":"TR","lat":37.67134,"lon":28.31395},{"name":"Bozdoğan","country":"TR","lat":36.69461,"lon":33.22333},{"name":"Bozhüyük","country":"TR","lat":38.95667,"lon":30.58028},{"name":"Bozhüyük","country":"TR","lat":37.981,"lon":41.41328},{"name":"Bozkır","country":"TR","lat":37.18963,"lon":32.24736},{"name":"Bozköy","country":"TR","lat":37.9418,"lon":27.6317},{"name":"Bozkurt","country":"TR","lat":37.82417,"lon":29.60972},{"name":"Bozkurt","country":"TR","lat":41.95769,"lon":34.01087},{"name":"Bozoğlak","country":"TR","lat":39.62292,"lon":38.80194},{"name":"Bozön","country":"TR","lat":36.80262,"lon":34.49641},{"name":"Bozova","country":"TR","lat":37.3625,"lon":38.52667},{"name":"Bozova","country":"TR","lat":37.21611,"lon":30.28583},{"name":"Boztepe","country":"TR","lat":39.26972,"lon":34.26111},{"name":"Boztepe","country":"TR","lat":40.18778,"lon":35.8875},{"name":"Bozüyük","country":"TR","lat":39.90778,"lon":30.03667},{"name":"Bozyazı","country":"TR","lat":36.1082,"lon":32.96113},{"name":"Bozyurt","country":"TR","lat":37.93984,"lon":28.34456},{"name":"Buca","country":"TR","lat":38.3983,"lon":27.16662},{"name":"Bucak","country":"TR","lat":37.45917,"lon":30.595},{"name":"Bucak","country":"TR","lat":37.8693,"lon":39.06199},{"name":"Bucakkışla","country":"TR","lat":36.95443,"lon":33.02196},{"name":"Buğdaylı","country":"TR","lat":40.21889,"lon":27.77056},{"name":"Buharkent","country":"TR","lat":37.96397,"lon":28.7427},{"name":"Bulancak","country":"TR","lat":40.93805,"lon":38.23148},{"name":"Bulanık","country":"TR","lat":39.08656,"lon":42.27158},{"name":"Buldan","country":"TR","lat":38.045,"lon":28.83056},{"name":"Bulucan","country":"TR","lat":39.7025,"lon":37.75972},{"name":"Bulutlu","country":"TR","lat":36.73583,"lon":39.39389},{"name":"Bünyan","country":"TR","lat":38.8463,"lon":35.86033},{"name":"Burç","country":"TR","lat":37.01362,"lon":37.17913},{"name":"Burdur","country":"TR","lat":37.72028,"lon":30.29083},{"name":"Burgaz","country":"TR","lat":40.88265,"lon":29.06498},{"name":"Burhaniye","country":"TR","lat":39.50041,"lon":26.97269},{"name":"Bursa","country":"TR","lat":40.19559,"lon":29.06013},{"name":"Buruk","country":"TR","lat":37.04042,"lon":35.45504},{"name":"Büyük Dalyan","country":"TR","lat":36.28824,"lon":36.20903},{"name":"Büyük Kardeş","country":"TR","lat":37.27183,"lon":41.03436},{"name":"Büyükçat","country":"TR","lat":36.115,"lon":36.0774},{"name":"Büyükçavuşlu","country":"TR","lat":41.24002,"lon":28.06331},{"name":"Büyükçekmece","country":"TR","lat":41.02072,"lon":28.58502},{"name":"Büyükderbent","country":"TR","lat":40.70753,"lon":30.11434},{"name":"Büyükdere","country":"TR","lat":41.16048,"lon":29.04154},{"name":"Büyükkarabağ","country":"TR","lat":38.77722,"lon":31.24722},{"name":"Büyükkarıştıran","country":"TR","lat":41.30034,"lon":27.54295},{"name":"Büyükköy","country":"TR","lat":37.15722,"lon":30.30611},{"name":"Büyükköy","country":"TR","lat":41.01489,"lon":40.67302},{"name":"Büyükorhan","country":"TR","lat":39.77102,"lon":28.88614},{"name":"Büyüksofulu","country":"TR","lat":37.55394,"lon":35.1585},{"name":"Büyükyurt","country":"TR","lat":39.25042,"lon":39.86916},{"name":"Çağış","country":"TR","lat":39.51881,"lon":28.01224},{"name":"Çağlarca","country":"TR","lat":39.03732,"lon":39.13865},{"name":"Çağlayan","country":"TR","lat":39.58502,"lon":39.68702},{"name":"Çağlayan","country":"TR","lat":40.90019,"lon":39.71231},{"name":"Çağlayancerit","country":"TR","lat":37.74523,"lon":37.28618},{"name":"Çakıralan","country":"TR","lat":41.16824,"lon":35.76017},{"name":"Çakırbeyli","country":"TR","lat":37.73501,"lon":27.82388},{"name":"Çakırca","country":"TR","lat":40.47056,"lon":29.66333},{"name":"Çakırhüyük","country":"TR","lat":37.56075,"lon":37.85583},{"name":"Çakırkaya","country":"TR","lat":37.65178,"lon":40.16817},{"name":"Çakırlar","country":"TR","lat":36.87145,"lon":30.56208},{"name":"Çakırlı","country":"TR","lat":40.51806,"lon":29.45222},{"name":"Çakış","country":"TR","lat":36.92198,"lon":31.1852},{"name":"Çakmak","country":"TR","lat":38.15397,"lon":39.95657},{"name":"Çal","country":"TR","lat":38.08361,"lon":29.39889},{"name":"Çaldıran","country":"TR","lat":39.14317,"lon":43.91068},{"name":"Çalı","country":"TR","lat":40.16861,"lon":28.92083},{"name":"Çalışkan","country":"TR","lat":37.29656,"lon":42.64117},{"name":"Çalpınar","country":"TR","lat":37.3654,"lon":41.1857},{"name":"Çaltı","country":"TR","lat":40.04344,"lon":30.248},{"name":"Çaltılıbük","country":"TR","lat":39.9559,"lon":28.5991},{"name":"Çamardı","country":"TR","lat":37.83222,"lon":34.98139},{"name":"Çamaş","country":"TR","lat":40.902,"lon":37.52786},{"name":"Çamdere","country":"TR","lat":37.93854,"lon":38.51479},{"name":"Çameli","country":"TR","lat":37.07611,"lon":29.34472},{"name":"Çamiçi","country":"TR","lat":40.6181,"lon":37.00169},{"name":"Camili","country":"TR","lat":36.92961,"lon":35.43171},{"name":"Camili","country":"TR","lat":41.47838,"lon":41.89825},{"name":"Çamköy","country":"TR","lat":37.95667,"lon":27.59},{"name":"Çamlıbel","country":"TR","lat":40.08639,"lon":36.47722},{"name":"Çamlıca","country":"TR","lat":36.39337,"lon":32.42776},{"name":"Çamlıdere","country":"TR","lat":37.1544,"lon":39.06697},{"name":"Çamlıdere","country":"TR","lat":40.48958,"lon":32.47499},{"name":"Çamlıhemşin","country":"TR","lat":41.04765,"lon":40.99996},{"name":"Çamlık","country":"TR","lat":37.49306,"lon":30.7025},{"name":"Çamlıkaya","country":"TR","lat":40.6391,"lon":41.15218},{"name":"Çamlıyayla","country":"TR","lat":37.16652,"lon":34.59296},{"name":"Çamoluk","country":"TR","lat":40.12732,"lon":38.73006},{"name":"Çamyuva","country":"TR","lat":36.55361,"lon":30.55957},{"name":"Çan","country":"TR","lat":39.14833,"lon":40.20348},{"name":"Çan","country":"TR","lat":40.03328,"lon":27.05236},{"name":"Çanakçı","country":"TR","lat":40.91139,"lon":38.98813},{"name":"Çanakkale","country":"TR","lat":40.15552,"lon":26.41271},{"name":"Çandarlı","country":"TR","lat":38.93503,"lon":26.934},{"name":"Çandır","country":"TR","lat":39.24446,"lon":35.51396},{"name":"Çandır","country":"TR","lat":40.25717,"lon":33.46868},{"name":"Çankaya","country":"TR","lat":39.9179,"lon":32.86268},{"name":"Çankırı","country":"TR","lat":40.59995,"lon":33.6153},{"name":"Çanta","country":"TR","lat":41.07897,"lon":28.08323},{"name":"Çardak","country":"TR","lat":38.09171,"lon":36.82356},{"name":"Çardak","country":"TR","lat":37.82694,"lon":29.66833},{"name":"Çardaklı","country":"TR","lat":38.33769,"lon":40.37019},{"name":"Çardaklı","country":"TR","lat":37.23207,"lon":42.58427},{"name":"Çarıklar","country":"TR","lat":36.11273,"lon":32.87909},{"name":"Çarşamba","country":"TR","lat":41.19889,"lon":36.72194},{"name":"Çarşıbaşı","country":"TR","lat":41.08278,"lon":39.38278},{"name":"Çat","country":"TR","lat":39.60641,"lon":40.96844},{"name":"Çatağıl","country":"TR","lat":37.688,"lon":30.38648},{"name":"Çatak","country":"TR","lat":38.00293,"lon":43.05243},{"name":"Çatakköprü","country":"TR","lat":38.15162,"lon":41.20256},{"name":"Çatalan","country":"TR","lat":37.24857,"lon":35.2911},{"name":"Çatalarmut","country":"TR","lat":39.80286,"lon":39.31539},{"name":"Çatalca","country":"TR","lat":41.14073,"lon":28.45967},{"name":"Çatalçam","country":"TR","lat":39.97438,"lon":38.84777},{"name":"Çatalçam","country":"TR","lat":38.19389,"lon":36.07861},{"name":"Çatalpınar","country":"TR","lat":40.87899,"lon":37.45351},{"name":"Çatalzeytin","country":"TR","lat":41.95314,"lon":34.21627},{"name":"Çavdarhisar","country":"TR","lat":39.19344,"lon":29.61915},{"name":"Çavdır","country":"TR","lat":37.155,"lon":29.69389},{"name":"Çavdır","country":"TR","lat":36.36606,"lon":29.35187},{"name":"Çavuş","country":"TR","lat":37.60963,"lon":31.93135},{"name":"Çavuşköy","country":"TR","lat":36.33194,"lon":30.43139},{"name":"Çavuşlu","country":"TR","lat":37.50018,"lon":41.25108},{"name":"Çay","country":"TR","lat":38.59167,"lon":31.02861},{"name":"Çayağzı","country":"TR","lat":41.22436,"lon":29.21824},{"name":"Çaybağı","country":"TR","lat":38.69401,"lon":39.62022},{"name":"Çaybağı","country":"TR","lat":38.82855,"lon":39.61057},{"name":"Çaybaşı","country":"TR","lat":41.01711,"lon":37.09796},{"name":"Çaycuma","country":"TR","lat":41.42639,"lon":32.07556},{"name":"Çayeli","country":"TR","lat":41.08609,"lon":40.72213},{"name":"Çayıralan","country":"TR","lat":39.30278,"lon":35.64389},{"name":"Çayırdere","country":"TR","lat":38.21949,"lon":39.57436},{"name":"Çayırhan","country":"TR","lat":40.09806,"lon":31.67319},{"name":"Çayırkent","country":"TR","lat":41.17128,"lon":36.32883},{"name":"Çayırlı","country":"TR","lat":39.80775,"lon":40.028},{"name":"Çayırova","country":"TR","lat":40.83444,"lon":29.4},{"name":"Çaykara","country":"TR","lat":40.74267,"lon":40.23175},{"name":"Çayköy","country":"TR","lat":36.34172,"lon":29.38745},{"name":"Çaylar","country":"TR","lat":39.26731,"lon":41.28344},{"name":"Çaylarbaşı","country":"TR","lat":37.7001,"lon":39.00965},{"name":"Çaylı","country":"TR","lat":38.1533,"lon":28.14406},{"name":"Cayönü","country":"TR","lat":38.13552,"lon":41.50315},{"name":"Çayyazı","country":"TR","lat":36.80593,"lon":31.45928},{"name":"Çayyolu","country":"TR","lat":39.8808,"lon":32.70954},{"name":"Çekerek","country":"TR","lat":40.07306,"lon":35.49472},{"name":"Çekmeköy","country":"TR","lat":41.04118,"lon":29.17838},{"name":"Celâliye","country":"TR","lat":41.05151,"lon":28.41956},{"name":"Celâlli","country":"TR","lat":39.6925,"lon":37.42389},{"name":"Çelebi","country":"TR","lat":39.46418,"lon":33.5241},{"name":"Çelemli","country":"TR","lat":36.84799,"lon":35.64867},{"name":"Çelikhan","country":"TR","lat":38.0256,"lon":38.23665},{"name":"Çeltik","country":"TR","lat":39.02444,"lon":31.79056},{"name":"Çeltikçi","country":"TR","lat":37.52947,"lon":30.48028},{"name":"Çeltikçi","country":"TR","lat":36.79528,"lon":31.48167},{"name":"Çeltikçi","country":"TR","lat":40.32194,"lon":32.45569},{"name":"Çeltiksuyu","country":"TR","lat":38.85681,"lon":40.57758},{"name":"Cemilbey","country":"TR","lat":40.34529,"lon":35.05136},{"name":"Çemişgezek","country":"TR","lat":39.05539,"lon":38.90754},{"name":"Çengelköy","country":"TR","lat":41.05062,"lon":29.0551},{"name":"Cengerli","country":"TR","lat":39.79426,"lon":38.84814},{"name":"Çerçiler","country":"TR","lat":41.3945,"lon":35.23665},{"name":"Ceritler","country":"TR","lat":37.46917,"lon":35.3875},{"name":"Çerkeş","country":"TR","lat":40.81164,"lon":32.89358},{"name":"Çerkezköy","country":"TR","lat":41.28629,"lon":27.99939},{"name":"Çermik","country":"TR","lat":38.13538,"lon":39.445},{"name":"Cerrah","country":"TR","lat":40.07124,"lon":29.44661},{"name":"Çeşme","country":"TR","lat":38.32614,"lon":26.30574},{"name":"Çeşmeli","country":"TR","lat":36.68599,"lon":34.42189},{"name":"Çeştepe","country":"TR","lat":37.82522,"lon":27.85166},{"name":"Çetinkaya","country":"TR","lat":39.26178,"lon":37.62603},{"name":"Cevizli","country":"TR","lat":37.01722,"lon":29.29861},{"name":"Cevizli","country":"TR","lat":37.19694,"lon":31.76333},{"name":"Cevizlik","country":"TR","lat":38.17554,"lon":42.22602},{"name":"Çevrimova","country":"TR","lat":37.84003,"lon":41.27288},{"name":"Ceyhan","country":"TR","lat":37.02472,"lon":35.8175},{"name":"Ceylanpınar","country":"TR","lat":36.84722,"lon":40.05},{"name":"Çiçekdağı","country":"TR","lat":39.60694,"lon":34.40861},{"name":"Çiçekli","country":"TR","lat":39.05468,"lon":39.41604},{"name":"Çiçektepe","country":"TR","lat":38.28639,"lon":30.54222},{"name":"Cide","country":"TR","lat":41.89211,"lon":33.00439},{"name":"Çiftehan","country":"TR","lat":37.51233,"lon":34.76953},{"name":"Çifteler","country":"TR","lat":39.38306,"lon":31.03917},{"name":"Çiftepınar","country":"TR","lat":36.71344,"lon":34.34551},{"name":"Çiftlik","country":"TR","lat":39.78276,"lon":40.63484},{"name":"Çiftlik","country":"TR","lat":38.1758,"lon":34.48535},{"name":"Çiftlik","country":"TR","lat":40.07234,"lon":42.25617},{"name":"Çiftlikköy","country":"TR","lat":40.66028,"lon":29.32361},{"name":"Çiftlikköyü","country":"TR","lat":37.17427,"lon":42.4197},{"name":"Çiğil","country":"TR","lat":37.47923,"lon":33.31805},{"name":"Cihadiye","country":"TR","lat":37.05079,"lon":35.56291},{"name":"Cihanbeyli","country":"TR","lat":38.66072,"lon":32.92437},{"name":"Cikcilli","country":"TR","lat":36.55403,"lon":32.02962},{"name":"Çilimli","country":"TR","lat":40.89361,"lon":31.04917},{"name":"Cimin","country":"TR","lat":39.70947,"lon":39.70015},{"name":"Çine","country":"TR","lat":37.61266,"lon":28.05912},{"name":"Çivril","country":"TR","lat":38.30139,"lon":29.73861},{"name":"Cizre","country":"TR","lat":37.33024,"lon":42.18484},{"name":"Çığır","country":"TR","lat":37.15869,"lon":41.74107},{"name":"Çığlı","country":"TR","lat":37.3229,"lon":43.37482},{"name":"Çıldır","country":"TR","lat":41.12525,"lon":43.13645},{"name":"Çınar","country":"TR","lat":37.72226,"lon":40.40696},{"name":"Çınaraltı","country":"TR","lat":37.3851,"lon":40.86039},{"name":"Çınarcık","country":"TR","lat":40.64538,"lon":29.1245},{"name":"Çınarköy","country":"TR","lat":37.63404,"lon":40.10187},{"name":"Çınarlı","country":"TR","lat":40.05325,"lon":26.38972},{"name":"Çıplak","country":"TR","lat":36.94472,"lon":40.2375},{"name":"Çıplaklı","country":"TR","lat":36.56266,"lon":32.05226},{"name":"Çırçır","country":"TR","lat":40.055,"lon":36.775},{"name":"Çırpı","country":"TR","lat":38.16444,"lon":27.4975},{"name":"Çırtıman","country":"TR","lat":36.52531,"lon":36.18129},{"name":"Çobanlar","country":"TR","lat":38.70139,"lon":30.78278},{"name":"Çokak","country":"TR","lat":37.73613,"lon":36.32865},{"name":"Çolaklı","country":"TR","lat":38.33351,"lon":38.51946},{"name":"Çolaklı","country":"TR","lat":36.83739,"lon":31.31842},{"name":"Çömçeli","country":"TR","lat":37.63332,"lon":40.00478},{"name":"Çöpköy","country":"TR","lat":41.21972,"lon":26.82278},{"name":"Çorlu","country":"TR","lat":41.16069,"lon":27.80093},{"name":"Çorum","country":"TR","lat":40.54889,"lon":34.95333},{"name":"Çubuk","country":"TR","lat":40.23861,"lon":33.03222},{"name":"Çubuklu","country":"TR","lat":41.10419,"lon":29.08331},{"name":"Çukurca","country":"TR","lat":37.24806,"lon":43.61361},{"name":"Çukurköy","country":"TR","lat":38.45257,"lon":40.33979},{"name":"Çukuroba","country":"TR","lat":36.76444,"lon":37.1425},{"name":"Cumaçay","country":"TR","lat":39.91524,"lon":43.18653},{"name":"Cumalı","country":"TR","lat":36.91667,"lon":31.06667},{"name":"Cumayeri","country":"TR","lat":40.87389,"lon":30.95091},{"name":"Çumra","country":"TR","lat":37.5732,"lon":32.77446},{"name":"Çüngüş","country":"TR","lat":38.20798,"lon":39.28554},{"name":"Dadaşköy","country":"TR","lat":39.94489,"lon":41.25465},{"name":"Daday","country":"TR","lat":41.47866,"lon":33.46667},{"name":"Dağ","country":"TR","lat":37.19306,"lon":30.50417},{"name":"Dağardı","country":"TR","lat":39.4308,"lon":28.99558},{"name":"Dağbaşı","country":"TR","lat":37.89825,"lon":39.33366},{"name":"Dağbaşı","country":"TR","lat":40.72763,"lon":39.91177},{"name":"Dağkızılca","country":"TR","lat":38.311,"lon":27.39081},{"name":"Dağlıca","country":"TR","lat":37.36658,"lon":44.08528},{"name":"Dağlıca","country":"TR","lat":37.43179,"lon":42.77611},{"name":"Dağyolu","country":"TR","lat":39.53845,"lon":39.90765},{"name":"Dalama","country":"TR","lat":37.79028,"lon":28.06639},{"name":"Dalaman","country":"TR","lat":36.76591,"lon":28.8028},{"name":"Dallıbahçe","country":"TR","lat":39.13321,"lon":39.87929},{"name":"Dallıca","country":"TR","lat":37.90667,"lon":28.28318},{"name":"Dalyan","country":"TR","lat":36.83429,"lon":28.6446},{"name":"Damal","country":"TR","lat":41.34145,"lon":42.8368},{"name":"Dambaslar","country":"TR","lat":41.22417,"lon":27.24806},{"name":"Damlacık","country":"TR","lat":37.9142,"lon":38.65392},{"name":"Danişment","country":"TR","lat":39.86917,"lon":27.63306},{"name":"Danişment","country":"TR","lat":39.17153,"lon":38.19851},{"name":"Darboğaz","country":"TR","lat":37.47383,"lon":34.55891},{"name":"Darende","country":"TR","lat":38.54583,"lon":37.50583},{"name":"Dargeçit","country":"TR","lat":37.54616,"lon":41.71652},{"name":"Darıca","country":"TR","lat":40.77973,"lon":29.39454},{"name":"Darıca","country":"TR","lat":40.0206,"lon":27.86374},{"name":"Darıkent","country":"TR","lat":38.96252,"lon":39.80792},{"name":"Datça","country":"TR","lat":36.73778,"lon":27.68417},{"name":"Davulga","country":"TR","lat":38.97917,"lon":31.37139},{"name":"Davutlar","country":"TR","lat":37.73392,"lon":27.29283},{"name":"Dazkırı","country":"TR","lat":37.91861,"lon":29.86056},{"name":"Dedebağı","country":"TR","lat":37.29513,"lon":29.4452},{"name":"Dedeköy","country":"TR","lat":40.74752,"lon":35.04249},{"name":"Dedeli","country":"TR","lat":39.17435,"lon":43.05524},{"name":"Değirmenaltı","country":"TR","lat":38.42969,"lon":42.17528},{"name":"Değirmendere","country":"TR","lat":38.11361,"lon":27.14139},{"name":"Değirmendere","country":"TR","lat":40.72,"lon":29.78083},{"name":"Değirmendere","country":"TR","lat":36.57583,"lon":32.0713},{"name":"Deliçay","country":"TR","lat":39.08163,"lon":43.48552},{"name":"Delice","country":"TR","lat":39.95371,"lon":34.02587},{"name":"Deliktaş","country":"TR","lat":39.34157,"lon":37.20378},{"name":"Deliktaş","country":"TR","lat":38.98897,"lon":26.92737},{"name":"Demirci","country":"TR","lat":37.41269,"lon":39.76838},{"name":"Demirci","country":"TR","lat":39.8,"lon":29.01667},{"name":"Demirci","country":"TR","lat":39.04607,"lon":28.65889},{"name":"Demirciler","country":"TR","lat":36.79175,"lon":31.50947},{"name":"Demirdöven","country":"TR","lat":40.03661,"lon":41.7364},{"name":"Demirkent","country":"TR","lat":40.88598,"lon":41.73835},{"name":"Demirköprü","country":"TR","lat":36.24951,"lon":36.35267},{"name":"Demirli","country":"TR","lat":37.40458,"lon":39.9708},{"name":"Demirözü","country":"TR","lat":40.16023,"lon":39.89239},{"name":"Demirtaş","country":"TR","lat":36.42611,"lon":32.1925},{"name":"Demirtaş","country":"TR","lat":40.27194,"lon":29.09833},{"name":"Demiryol","country":"TR","lat":37.91751,"lon":41.14984},{"name":"Demre","country":"TR","lat":36.24444,"lon":29.985},{"name":"Denizciler","country":"TR","lat":36.6411,"lon":36.21418},{"name":"Denizli","country":"TR","lat":37.77417,"lon":29.0875},{"name":"Derbent","country":"TR","lat":38.01422,"lon":32.01639},{"name":"Dere","country":"TR","lat":38.98295,"lon":39.30017},{"name":"Derebucak","country":"TR","lat":37.39179,"lon":31.50918},{"name":"Derecik","country":"TR","lat":40.9459,"lon":39.59401},{"name":"Dereköy","country":"TR","lat":41.93008,"lon":27.37052},{"name":"Dereli","country":"TR","lat":40.7389,"lon":38.44337},{"name":"Derepazarı","country":"TR","lat":41.02398,"lon":40.42332},{"name":"Dereyanı","country":"TR","lat":37.4248,"lon":40.86233},{"name":"Derik","country":"TR","lat":37.36336,"lon":40.26473},{"name":"Derince","country":"TR","lat":40.75694,"lon":29.81472},{"name":"Derinkuyu","country":"TR","lat":38.3751,"lon":34.73419},{"name":"Derinsu","country":"TR","lat":37.45645,"lon":40.08279},{"name":"Dernekpazarı","country":"TR","lat":40.79658,"lon":40.2446},{"name":"Destek","country":"TR","lat":40.84667,"lon":36.18306},{"name":"Devecikonağı","country":"TR","lat":39.91486,"lon":28.56176},{"name":"Develi","country":"TR","lat":38.39056,"lon":35.49222},{"name":"Devrek","country":"TR","lat":41.21917,"lon":31.95583},{"name":"Devrekani","country":"TR","lat":41.60303,"lon":33.83922},{"name":"Dicle","country":"TR","lat":38.36571,"lon":40.0645},{"name":"Dicle","country":"TR","lat":37.28869,"lon":42.06721},{"name":"Didim","country":"TR","lat":37.38496,"lon":27.25643},{"name":"Digor","country":"TR","lat":40.36896,"lon":43.40997},{"name":"Dikbıyık","country":"TR","lat":41.22078,"lon":36.615},{"name":"Dikili","country":"TR","lat":39.071,"lon":26.89017},{"name":"Dikmen","country":"TR","lat":36.90972,"lon":31.00083},{"name":"Dikmen","country":"TR","lat":41.65,"lon":35.26667},{"name":"Dilektepe","country":"TR","lat":38.07517,"lon":41.82717},{"name":"Dinar","country":"TR","lat":38.065,"lon":30.16557},{"name":"Dinek","country":"TR","lat":37.32481,"lon":32.61602},{"name":"Direkli","country":"TR","lat":39.71167,"lon":36.65167},{"name":"Divriği","country":"TR","lat":39.371,"lon":38.1137},{"name":"Diyadin","country":"TR","lat":39.54056,"lon":43.67135},{"name":"Diyarbakır","country":"TR","lat":37.91363,"lon":40.21721},{"name":"Dodurga","country":"TR","lat":39.79972,"lon":29.91722},{"name":"Dodurga","country":"TR","lat":40.85489,"lon":34.80703},{"name":"Doğanbey","country":"TR","lat":37.8005,"lon":31.8911},{"name":"Doğanbeyli","country":"TR","lat":39.69517,"lon":39.03499},{"name":"Doğanca","country":"TR","lat":37.79955,"lon":42.33099},{"name":"Doğançay","country":"TR","lat":40.62647,"lon":30.33557},{"name":"Doğancı","country":"TR","lat":40.77115,"lon":32.05919},{"name":"Doğanhisar","country":"TR","lat":38.1463,"lon":31.67648},{"name":"Doğankavak","country":"TR","lat":37.96265,"lon":41.22675},{"name":"Doğankent","country":"TR","lat":36.84432,"lon":35.34396},{"name":"Doğankent","country":"TR","lat":40.8075,"lon":38.91722},{"name":"Doğanköy","country":"TR","lat":37.76246,"lon":42.79017},{"name":"Doğanlı","country":"TR","lat":40.80091,"lon":31.23661},{"name":"Doğanpınar","country":"TR","lat":36.84321,"lon":37.61759},{"name":"Doğanşar","country":"TR","lat":40.20841,"lon":37.53123},{"name":"Doğanşehir","country":"TR","lat":38.08574,"lon":37.87116},{"name":"Doğansu","country":"TR","lat":39.13248,"lon":42.73249},{"name":"Doğantepe","country":"TR","lat":40.59778,"lon":35.60417},{"name":"Doğanyol","country":"TR","lat":38.30746,"lon":39.03431},{"name":"Doğanyurt","country":"TR","lat":42.00457,"lon":33.46029},{"name":"Doğanyurt","country":"TR","lat":40.68806,"lon":36.71639},{"name":"Doğrular","country":"TR","lat":36.95618,"lon":37.76162},{"name":"Doğruyol","country":"TR","lat":40.97986,"lon":43.47098},{"name":"Doğruyol","country":"TR","lat":41.06174,"lon":43.33409},{"name":"Doğubayazıt","country":"TR","lat":39.54694,"lon":44.08417},{"name":"Dökmetepe","country":"TR","lat":40.31224,"lon":36.2918},{"name":"Dokurcun","country":"TR","lat":40.5732,"lon":30.86784},{"name":"Domaniç","country":"TR","lat":39.80194,"lon":29.60918},{"name":"Dombay","country":"TR","lat":38.15421,"lon":30.20876},{"name":"Donduran","country":"TR","lat":37.83399,"lon":28.24257},{"name":"Dörtdivan","country":"TR","lat":40.72052,"lon":32.06314},{"name":"Dörtyol","country":"TR","lat":36.83917,"lon":36.23025},{"name":"Doruklu","country":"TR","lat":37.34202,"lon":42.38251},{"name":"Dorumali","country":"TR","lat":36.805,"lon":38.85306},{"name":"Dorutay","country":"TR","lat":38.79939,"lon":44.06726},{"name":"Döşemealtı","country":"TR","lat":37.02333,"lon":30.60247},{"name":"Duacı","country":"TR","lat":36.97444,"lon":30.65},{"name":"Dumlu","country":"TR","lat":40.05862,"lon":41.35654},{"name":"Dumlupınar","country":"TR","lat":38.85408,"lon":29.9772},{"name":"Dumlupınar","country":"TR","lat":40.12295,"lon":32.94348},{"name":"Durağan","country":"TR","lat":41.41583,"lon":35.05444},{"name":"Durak","country":"TR","lat":39.70658,"lon":28.27176},{"name":"Dursunbey","country":"TR","lat":39.58596,"lon":28.62568},{"name":"Dursunlu","country":"TR","lat":36.16736,"lon":36.15788},{"name":"Duruca","country":"TR","lat":37.09267,"lon":41.3103},{"name":"Durusu","country":"TR","lat":41.30337,"lon":28.67635},{"name":"Dutluca","country":"TR","lat":39.13586,"lon":38.60662},{"name":"Düvertepe","country":"TR","lat":39.23734,"lon":28.44001},{"name":"Düzce","country":"TR","lat":40.83889,"lon":31.16389},{"name":"Düziçi","country":"TR","lat":37.24216,"lon":36.45484},{"name":"Düzköy","country":"TR","lat":40.87461,"lon":39.41536},{"name":"Düzova","country":"TR","lat":37.35413,"lon":42.08837},{"name":"Eceabat","country":"TR","lat":40.18416,"lon":26.3574},{"name":"Edincik","country":"TR","lat":40.34229,"lon":27.86129},{"name":"Edirne","country":"TR","lat":41.67719,"lon":26.55597},{"name":"Edremit","country":"TR","lat":38.42069,"lon":43.25889},{"name":"Edremit","country":"TR","lat":39.59611,"lon":27.02444},{"name":"Eflani","country":"TR","lat":41.42289,"lon":32.95761},{"name":"Eğerci","country":"TR","lat":41.09922,"lon":31.81739},{"name":"Eğil","country":"TR","lat":38.25748,"lon":40.07435},{"name":"Eğirdir","country":"TR","lat":37.87462,"lon":30.85042},{"name":"Eğrice","country":"TR","lat":37.36183,"lon":37.33152},{"name":"Ekinözü","country":"TR","lat":38.05974,"lon":37.18786},{"name":"Ekinyolu","country":"TR","lat":38.90725,"lon":40.57401},{"name":"Elazığ","country":"TR","lat":38.67431,"lon":39.22321},{"name":"Elbaşı","country":"TR","lat":38.67351,"lon":35.96753},{"name":"Elbeyli","country":"TR","lat":36.67417,"lon":37.46667},{"name":"Elbeyli","country":"TR","lat":40.48611,"lon":29.72472},{"name":"Elbistan","country":"TR","lat":38.20591,"lon":37.1983},{"name":"Eldivan","country":"TR","lat":40.52975,"lon":33.49903},{"name":"Eleşkirt","country":"TR","lat":39.79803,"lon":42.67574},{"name":"Elifköy","country":"TR","lat":37.37792,"lon":37.88104},{"name":"Elikesik","country":"TR","lat":36.59473,"lon":31.93041},{"name":"Elmadağ","country":"TR","lat":39.92083,"lon":33.23083},{"name":"Elmalı","country":"TR","lat":36.73583,"lon":29.91775},{"name":"Elmalı","country":"TR","lat":36.95,"lon":29.23333},{"name":"Elmalıdere","country":"TR","lat":39.63721,"lon":42.31996},{"name":"Elvanlı","country":"TR","lat":36.70401,"lon":34.37374},{"name":"Emet","country":"TR","lat":39.343,"lon":29.25847},{"name":"Eminbey","country":"TR","lat":41.54755,"lon":42.78199},{"name":"Eminönü","country":"TR","lat":41.01754,"lon":28.97101},{"name":"Emiralem","country":"TR","lat":38.622,"lon":27.148},{"name":"Emirdağ","country":"TR","lat":39.01972,"lon":31.15},{"name":"Emirdoğan","country":"TR","lat":37.86285,"lon":27.9453},{"name":"Emirgazi","country":"TR","lat":37.90222,"lon":33.83722},{"name":"Emişbeleni","country":"TR","lat":36.61842,"lon":31.87628},{"name":"Enez","country":"TR","lat":40.72472,"lon":26.0825},{"name":"Enginalan","country":"TR","lat":39.96115,"lon":44.03146},{"name":"Erbaa","country":"TR","lat":40.66889,"lon":36.5675},{"name":"Erbeyli","country":"TR","lat":37.8657,"lon":27.67874},{"name":"Erçek","country":"TR","lat":38.65107,"lon":43.64401},{"name":"Erciş","country":"TR","lat":39.02587,"lon":43.35964},{"name":"Erdek","country":"TR","lat":40.3996,"lon":27.79348},{"name":"Erdemli","country":"TR","lat":36.60498,"lon":34.30836},{"name":"Ereğli","country":"TR","lat":37.51333,"lon":34.04672},{"name":"Ereğli","country":"TR","lat":41.28261,"lon":31.41806},{"name":"Erenler","country":"TR","lat":40.75504,"lon":30.39344},{"name":"Erentepe","country":"TR","lat":39.00893,"lon":42.04364},{"name":"Erfelek","country":"TR","lat":41.87926,"lon":34.91838},{"name":"Ergani","country":"TR","lat":38.26899,"lon":39.75446},{"name":"Erikli","country":"TR","lat":37.20258,"lon":37.28489},{"name":"Erikli","country":"TR","lat":37.86761,"lon":38.80418},{"name":"Erkilet","country":"TR","lat":38.82043,"lon":35.44011},{"name":"Erköklü","country":"TR","lat":37.86182,"lon":41.14413},{"name":"Ermenek","country":"TR","lat":36.64043,"lon":32.89179},{"name":"Ertuğrul","country":"TR","lat":39.57578,"lon":27.70672},{"name":"Eruh","country":"TR","lat":37.74183,"lon":42.17422},{"name":"Erzin","country":"TR","lat":36.95348,"lon":36.19839},{"name":"Erzincan","country":"TR","lat":39.73919,"lon":39.49015},{"name":"Erzurum","country":"TR","lat":39.90861,"lon":41.27694},{"name":"Eşen","country":"TR","lat":36.4548,"lon":29.28154},{"name":"Esenboğa","country":"TR","lat":40.134,"lon":32.98525},{"name":"Esençay","country":"TR","lat":40.66806,"lon":36.38028},{"name":"Esendere","country":"TR","lat":37.71144,"lon":44.60099},{"name":"Esenler","country":"TR","lat":41.0435,"lon":28.87619},{"name":"Esenpınar","country":"TR","lat":36.59043,"lon":34.11392},{"name":"Esentepe","country":"TR","lat":41.00515,"lon":36.14038},{"name":"Esenyurt","country":"TR","lat":41.02697,"lon":28.67732},{"name":"Esiroğlu","country":"TR","lat":40.87331,"lon":39.68829},{"name":"Eskihisar","country":"TR","lat":37.90341,"lon":28.1313},{"name":"Eskil","country":"TR","lat":38.40167,"lon":33.41306},{"name":"Eskipazar","country":"TR","lat":40.94298,"lon":32.53091},{"name":"Eskişehir","country":"TR","lat":39.77667,"lon":30.52056},{"name":"Eşme","country":"TR","lat":38.39976,"lon":28.96905},{"name":"Eşme","country":"TR","lat":37.15486,"lon":40.64121},{"name":"Espiye","country":"TR","lat":40.94705,"lon":38.70299},{"name":"Etiler","country":"TR","lat":41.0843,"lon":29.03588},{"name":"Etili","country":"TR","lat":39.98556,"lon":26.89667},{"name":"Etimesgut","country":"TR","lat":39.95328,"lon":32.63285},{"name":"Etlik","country":"TR","lat":39.98205,"lon":32.82459},{"name":"Evciler","country":"TR","lat":39.77556,"lon":26.77167},{"name":"Evciler","country":"TR","lat":38.04139,"lon":29.88667},{"name":"Evciler","country":"TR","lat":37.59839,"lon":28.06171},{"name":"Evren","country":"TR","lat":39.02402,"lon":33.80626},{"name":"Evren","country":"TR","lat":40.24527,"lon":39.17535},{"name":"Evrenseki","country":"TR","lat":36.83868,"lon":31.35559},{"name":"Evreşe","country":"TR","lat":40.66591,"lon":26.88362},{"name":"Eymir","country":"TR","lat":40.01927,"lon":35.20788},{"name":"Eymirli","country":"TR","lat":37.16967,"lon":40.6859},{"name":"Eynesil","country":"TR","lat":41.06436,"lon":39.14274},{"name":"Ezine","country":"TR","lat":39.78561,"lon":26.34083},{"name":"Fatsa","country":"TR","lat":41.02886,"lon":37.49977},{"name":"Faydalı","country":"TR","lat":37.22539,"lon":35.58001},{"name":"Feke","country":"TR","lat":37.81446,"lon":35.91233},{"name":"Felahiye","country":"TR","lat":39.09056,"lon":35.56722},{"name":"Ferhatlı","country":"TR","lat":37.49761,"lon":35.87968},{"name":"Ferizli","country":"TR","lat":40.94082,"lon":30.48583},{"name":"Fethiye","country":"TR","lat":36.64038,"lon":29.12758},{"name":"Fettahlı","country":"TR","lat":36.98669,"lon":30.80941},{"name":"Fevzipaşa","country":"TR","lat":37.09418,"lon":36.63719},{"name":"Filyos","country":"TR","lat":41.55383,"lon":32.02389},{"name":"Finike","country":"TR","lat":36.295,"lon":30.14056},{"name":"Fındık","country":"TR","lat":37.51317,"lon":41.96418},{"name":"Fındıklı","country":"TR","lat":41.269,"lon":41.14002},{"name":"Foça","country":"TR","lat":38.6703,"lon":26.75656},{"name":"Garipçe","country":"TR","lat":38.77072,"lon":30.35058},{"name":"Gazi","country":"TR","lat":37.29578,"lon":35.85239},{"name":"Gaziantep","country":"TR","lat":37.05944,"lon":37.3825},{"name":"Gaziemir","country":"TR","lat":38.32392,"lon":27.12918},{"name":"Gaziler","country":"TR","lat":37.25611,"lon":31.18444},{"name":"Gaziler","country":"TR","lat":40.42153,"lon":42.34799},{"name":"Gaziler","country":"TR","lat":40.08125,"lon":43.45187},{"name":"Gaziosmanpaşa","country":"TR","lat":39.89619,"lon":32.86652},{"name":"Gazipaşa","country":"TR","lat":36.26942,"lon":32.31792},{"name":"Gebiz","country":"TR","lat":37.10417,"lon":30.93778},{"name":"Gebze","country":"TR","lat":40.80276,"lon":29.43068},{"name":"Geçitli","country":"TR","lat":37.58669,"lon":43.56163},{"name":"Geçitli","country":"TR","lat":36.95377,"lon":35.62755},{"name":"Gedik","country":"TR","lat":36.91548,"lon":31.08494},{"name":"Gedikbaşı","country":"TR","lat":39.48939,"lon":38.24743},{"name":"Gedikler","country":"TR","lat":39.08229,"lon":38.80346},{"name":"Gediksaray","country":"TR","lat":40.44529,"lon":35.62627},{"name":"Gediz","country":"TR","lat":38.99389,"lon":29.39131},{"name":"Gelembe","country":"TR","lat":39.17872,"lon":27.84848},{"name":"Gelendost","country":"TR","lat":38.12083,"lon":31.01528},{"name":"Gelibolu","country":"TR","lat":40.40836,"lon":26.67174},{"name":"Gelinkaya","country":"TR","lat":37.41732,"lon":41.2695},{"name":"Gemerek","country":"TR","lat":39.18342,"lon":36.07189},{"name":"Gemlik","country":"TR","lat":40.43094,"lon":29.15969},{"name":"Genç","country":"TR","lat":38.74773,"lon":40.55343},{"name":"Gencek","country":"TR","lat":37.44984,"lon":31.54588},{"name":"Gerali","country":"TR","lat":37.90096,"lon":28.91219},{"name":"Gercebahşiş","country":"TR","lat":36.14842,"lon":32.88184},{"name":"Gercüş","country":"TR","lat":37.56249,"lon":41.37753},{"name":"Gerdibi","country":"TR","lat":37.51111,"lon":35.15528},{"name":"Gerede","country":"TR","lat":40.80083,"lon":32.19694},{"name":"Gerenkova","country":"TR","lat":37.85282,"lon":27.74242},{"name":"Gerger","country":"TR","lat":38.02807,"lon":39.03418},{"name":"Geriş","country":"TR","lat":36.9625,"lon":31.73306},{"name":"Geriş","country":"TR","lat":41.56833,"lon":32.43568},{"name":"Germencik","country":"TR","lat":37.87056,"lon":27.60283},{"name":"Gerze","country":"TR","lat":41.80361,"lon":35.20111},{"name":"Gesi","country":"TR","lat":38.7918,"lon":35.65923},{"name":"Gevaş","country":"TR","lat":38.2921,"lon":43.10189},{"name":"Geyikli","country":"TR","lat":39.80472,"lon":26.2075},{"name":"Geyikpınar","country":"TR","lat":38.31759,"lon":41.82065},{"name":"Geyve","country":"TR","lat":40.5075,"lon":30.2925},{"name":"Giresun","country":"TR","lat":40.91698,"lon":38.38741},{"name":"Girmeli","country":"TR","lat":37.11106,"lon":41.4196},{"name":"Göbel","country":"TR","lat":40.01972,"lon":28.14556},{"name":"Göçbeyli","country":"TR","lat":39.22328,"lon":27.40386},{"name":"Göcek","country":"TR","lat":36.75345,"lon":28.94571},{"name":"Göçerli","country":"TR","lat":38.29749,"lon":30.44989},{"name":"Gökbudak","country":"TR","lat":37.90319,"lon":42.64881},{"name":"Gökçe","country":"TR","lat":37.20407,"lon":40.69599},{"name":"Gökçeada","country":"TR","lat":40.20107,"lon":25.90902},{"name":"Gökçebağ","country":"TR","lat":37.90343,"lon":41.87737},{"name":"Gökçebağ","country":"TR","lat":37.78056,"lon":30.37918},{"name":"Gökçebey","country":"TR","lat":41.30583,"lon":32.14234},{"name":"Gökçedağ","country":"TR","lat":39.55832,"lon":28.91911},{"name":"Gökçek","country":"TR","lat":38.01222,"lon":29.95694},{"name":"Gökçekent","country":"TR","lat":40.28644,"lon":38.11771},{"name":"Gökçekoru","country":"TR","lat":37.9559,"lon":42.44916},{"name":"Gökçeler","country":"TR","lat":36.96783,"lon":35.11029},{"name":"Gökçeli","country":"TR","lat":40.58333,"lon":36.73333},{"name":"Gökçen","country":"TR","lat":38.11367,"lon":27.87144},{"name":"Gökçeören","country":"TR","lat":38.57528,"lon":28.48889},{"name":"Gökçeören","country":"TR","lat":36.23901,"lon":29.54243},{"name":"Gökçesu","country":"TR","lat":40.89389,"lon":31.95957},{"name":"Gökçeyazı","country":"TR","lat":39.62712,"lon":27.63139},{"name":"Gökdere","country":"TR","lat":37.03278,"lon":30.9},{"name":"Gökdere","country":"TR","lat":38.7428,"lon":40.20815},{"name":"Gökdere","country":"TR","lat":40.47292,"lon":36.7525},{"name":"Gökköy","country":"TR","lat":39.74582,"lon":28.34591},{"name":"Gökoğlan","country":"TR","lat":39.54648,"lon":41.30402},{"name":"Gökpınar","country":"TR","lat":36.75,"lon":29.9548},{"name":"Göksu","country":"TR","lat":39.48906,"lon":42.15127},{"name":"Göksun","country":"TR","lat":38.02096,"lon":36.4973},{"name":"Göksüncük","country":"TR","lat":37.20029,"lon":37.36491},{"name":"Göktaş","country":"TR","lat":37.48629,"lon":40.16696},{"name":"Göktepe","country":"TR","lat":37.41908,"lon":28.55894},{"name":"Göktepe","country":"TR","lat":36.62751,"lon":32.6254},{"name":"Gölbaşı","country":"TR","lat":39.79043,"lon":32.80903},{"name":"Gölbaşı","country":"TR","lat":37.78361,"lon":37.63667},{"name":"Gölcük","country":"TR","lat":38.23119,"lon":34.77671},{"name":"Gölcük","country":"TR","lat":39.31309,"lon":27.98319},{"name":"Gölcük","country":"TR","lat":37.48135,"lon":39.04736},{"name":"Gölcük","country":"TR","lat":40.71501,"lon":29.81824},{"name":"Göldüzü","country":"TR","lat":38.81335,"lon":43.01904},{"name":"Göle","country":"TR","lat":40.78746,"lon":42.60603},{"name":"Gölgelikonak","country":"TR","lat":37.76834,"lon":42.1284},{"name":"Gölhisar","country":"TR","lat":37.1459,"lon":29.50876},{"name":"Gölköy","country":"TR","lat":40.68689,"lon":37.61544},{"name":"Gölköy","country":"TR","lat":40.69911,"lon":31.51009},{"name":"Göllü","country":"TR","lat":39.4499,"lon":34.30011},{"name":"Göllüce","country":"TR","lat":40.37381,"lon":29.59025},{"name":"Gölmarmara","country":"TR","lat":38.71389,"lon":27.91417},{"name":"Gölören","country":"TR","lat":37.84949,"lon":33.8597},{"name":"Gölormanı","country":"TR","lat":40.76126,"lon":31.08404},{"name":"Gölova","country":"TR","lat":36.79917,"lon":30.03889},{"name":"Gölova","country":"TR","lat":40.06194,"lon":38.60667},{"name":"Gölpazarı","country":"TR","lat":40.28472,"lon":30.31722},{"name":"Göltepesi","country":"TR","lat":38.95974,"lon":40.59216},{"name":"Gölyaka","country":"TR","lat":40.7769,"lon":30.99587},{"name":"Gömbe","country":"TR","lat":36.55306,"lon":29.66859},{"name":"Gömeç","country":"TR","lat":39.39016,"lon":26.84127},{"name":"Gönen","country":"TR","lat":37.95639,"lon":30.5114},{"name":"Gönen","country":"TR","lat":40.1049,"lon":27.65399},{"name":"Gördes","country":"TR","lat":38.93278,"lon":28.28942},{"name":"Görele","country":"TR","lat":41.03083,"lon":39.00306},{"name":"Göreme","country":"TR","lat":38.6437,"lon":34.83529},{"name":"Görükle","country":"TR","lat":40.23114,"lon":28.84017},{"name":"Göynücek","country":"TR","lat":40.39917,"lon":35.525},{"name":"Göynük","country":"TR","lat":39.13947,"lon":40.87438},{"name":"Göynük","country":"TR","lat":36.66,"lon":30.55},{"name":"Göynük","country":"TR","lat":40.40028,"lon":30.78833},{"name":"Gözeli","country":"TR","lat":38.4246,"lon":39.05728},{"name":"Gözler","country":"TR","lat":38.10679,"lon":29.15375},{"name":"Gözlükuyu","country":"TR","lat":38.18471,"lon":34.10918},{"name":"Gözne","country":"TR","lat":36.99528,"lon":34.57306},{"name":"Gözpınar","country":"TR","lat":37.97717,"lon":41.45761},{"name":"Gözyeri","country":"TR","lat":40.86596,"lon":32.54167},{"name":"Güce","country":"TR","lat":40.8932,"lon":38.7982},{"name":"Güçlükonak","country":"TR","lat":37.46957,"lon":41.90593},{"name":"Gücük","country":"TR","lat":38.1936,"lon":37.4812},{"name":"Gücünkaya","country":"TR","lat":38.3845,"lon":34.13333},{"name":"Güdül","country":"TR","lat":40.21051,"lon":32.24552},{"name":"Gülağaç","country":"TR","lat":38.39576,"lon":34.34576},{"name":"Güleçler","country":"TR","lat":37.95334,"lon":42.53892},{"name":"Güllü","country":"TR","lat":38.27114,"lon":29.10451},{"name":"Güllübahçe","country":"TR","lat":37.66575,"lon":27.32038},{"name":"Güllük","country":"TR","lat":37.23972,"lon":27.60028},{"name":"Gülnar","country":"TR","lat":36.34148,"lon":33.39921},{"name":"Gülpınar","country":"TR","lat":39.53278,"lon":26.12056},{"name":"Gülşehir","country":"TR","lat":38.74594,"lon":34.62524},{"name":"Gültepe","country":"TR","lat":36.81741,"lon":31.37846},{"name":"Gülveren","country":"TR","lat":37.48822,"lon":41.49412},{"name":"Gülyalı","country":"TR","lat":40.96153,"lon":38.04937},{"name":"Gülyazı","country":"TR","lat":37.38974,"lon":42.98922},{"name":"Gümüş","country":"TR","lat":40.84018,"lon":35.17195},{"name":"Gümüşakar","country":"TR","lat":39.79382,"lon":38.67297},{"name":"Gümüşçay","country":"TR","lat":40.28228,"lon":27.28205},{"name":"Gümüşgöze","country":"TR","lat":36.14785,"lon":36.13284},{"name":"Gümüşhacıköy","country":"TR","lat":40.87306,"lon":35.21472},{"name":"Gümüşhane","country":"TR","lat":40.46001,"lon":39.47176},{"name":"Gümüşkaya","country":"TR","lat":37.42302,"lon":38.1737},{"name":"Gümüşkent","country":"TR","lat":38.82556,"lon":34.53212},{"name":"Gümüşova","country":"TR","lat":40.84694,"lon":30.94111},{"name":"Gümüşsu","country":"TR","lat":38.23927,"lon":29.98651},{"name":"Gündeş","country":"TR","lat":37.30695,"lon":43.44689},{"name":"Gündoğan","country":"TR","lat":40.17048,"lon":27.63072},{"name":"Gündoğdu","country":"TR","lat":41.05319,"lon":40.60664},{"name":"Gündoğdu","country":"TR","lat":40.26408,"lon":27.09288},{"name":"Gündoğdu","country":"TR","lat":36.92762,"lon":30.7107},{"name":"Gündoğmuş","country":"TR","lat":36.81339,"lon":31.99971},{"name":"Güneren","country":"TR","lat":36.73417,"lon":39.08861},{"name":"Güneri","country":"TR","lat":37.44934,"lon":35.77131},{"name":"Güneşli","country":"TR","lat":38.90253,"lon":35.62743},{"name":"Güney","country":"TR","lat":38.15444,"lon":29.06778},{"name":"Güney","country":"TR","lat":37.49685,"lon":29.55496},{"name":"Güneyce","country":"TR","lat":40.82095,"lon":40.47035},{"name":"Güneysınır","country":"TR","lat":37.26944,"lon":32.72898},{"name":"Güneysu","country":"TR","lat":40.9813,"lon":40.60465},{"name":"güngören merter","country":"TR","lat":41.00711,"lon":28.88795},{"name":"Güngürge","country":"TR","lat":37.21542,"lon":37.46921},{"name":"Günyazı","country":"TR","lat":36.23307,"lon":36.11702},{"name":"Günyurdu","country":"TR","lat":37,"lon":35.1},{"name":"Günyüzü","country":"TR","lat":39.38345,"lon":31.80995},{"name":"Gürbüz","country":"TR","lat":38.37911,"lon":40.36248},{"name":"Güre","country":"TR","lat":38.65111,"lon":29.16694},{"name":"Gürgentepe","country":"TR","lat":40.78995,"lon":37.60073},{"name":"Güroymak","country":"TR","lat":38.5758,"lon":42.01558},{"name":"Gürpınar","country":"TR","lat":38.32372,"lon":43.40991},{"name":"Gürpınar","country":"TR","lat":40.99256,"lon":28.61428},{"name":"Gürsu","country":"TR","lat":40.21876,"lon":29.19487},{"name":"Gürün","country":"TR","lat":38.72225,"lon":37.27097},{"name":"Güveçli","country":"TR","lat":38.84702,"lon":40.52446},{"name":"Güvem","country":"TR","lat":40.59069,"lon":32.66111},{"name":"Güvenç","country":"TR","lat":36.68538,"lon":36.42312},{"name":"Güvercinlik","country":"TR","lat":37.13706,"lon":27.58186},{"name":"Güzelbağ","country":"TR","lat":36.73411,"lon":31.89789},{"name":"Güzelçamlı","country":"TR","lat":37.71333,"lon":27.22778},{"name":"Güzelkent","country":"TR","lat":41.94843,"lon":34.3945},{"name":"Güzeloluk","country":"TR","lat":36.79444,"lon":34.08274},{"name":"Güzelsu","country":"TR","lat":38.75859,"lon":42.19184},{"name":"Güzelsu","country":"TR","lat":38.31032,"lon":43.79906},{"name":"Güzelsu","country":"TR","lat":36.89472,"lon":31.85639},{"name":"Güzelsu","country":"TR","lat":37.87782,"lon":38.91901},{"name":"Güzelyalı","country":"TR","lat":40.04158,"lon":26.34304},{"name":"Güzelyurt","country":"TR","lat":38.27722,"lon":34.37194},{"name":"Gyundyukoru","country":"TR","lat":37.14207,"lon":40.50149},{"name":"Haberli","country":"TR","lat":37.3051,"lon":41.61758},{"name":"Habibfaki","country":"TR","lat":41.1677,"lon":35.19364},{"name":"Hacıbektaş","country":"TR","lat":38.94077,"lon":34.5577},{"name":"Hacıhalilarpaç","country":"TR","lat":36.72496,"lon":34.37842},{"name":"Hacıhamza","country":"TR","lat":41.0743,"lon":34.449},{"name":"Hacıköy","country":"TR","lat":40.98015,"lon":26.55087},{"name":"Hacılar","country":"TR","lat":39.09868,"lon":40.82271},{"name":"Hacılar","country":"TR","lat":38.64631,"lon":35.44937},{"name":"Hacılar","country":"TR","lat":41.49115,"lon":32.09305},{"name":"Hacımehmetli","country":"TR","lat":36.5633,"lon":31.96775},{"name":"Hacıpaşa","country":"TR","lat":36.06907,"lon":36.37076},{"name":"Hacıveliler","country":"TR","lat":36.36746,"lon":30.27328},{"name":"Hadim","country":"TR","lat":36.98776,"lon":32.45674},{"name":"Hafik","country":"TR","lat":39.85639,"lon":37.38639},{"name":"Hakkâri","country":"TR","lat":37.57444,"lon":43.74083},{"name":"Halfeti","country":"TR","lat":37.24529,"lon":37.86874},{"name":"Halilçavuş","country":"TR","lat":39.2472,"lon":41.79257},{"name":"Halitpaşa","country":"TR","lat":38.68541,"lon":27.67836},{"name":"Halıcılar","country":"TR","lat":37.70673,"lon":30.39915},{"name":"Halıdere","country":"TR","lat":40.71604,"lon":29.75223},{"name":"Halkapınar","country":"TR","lat":37.43394,"lon":34.18743},{"name":"Hamamözü","country":"TR","lat":40.78476,"lon":35.0258},{"name":"Hamdibey","country":"TR","lat":39.84944,"lon":27.24806},{"name":"Hamidiye","country":"TR","lat":41.15128,"lon":26.66411},{"name":"Hamur","country":"TR","lat":39.60561,"lon":42.985},{"name":"Hamzabey","country":"TR","lat":40.13583,"lon":29.52639},{"name":"Hamzalı","country":"TR","lat":38.34159,"lon":41.16254},{"name":"Han","country":"TR","lat":39.15917,"lon":30.86139},{"name":"Hanak","country":"TR","lat":41.23344,"lon":42.84037},{"name":"Hani","country":"TR","lat":38.40741,"lon":40.38578},{"name":"Hankendi","country":"TR","lat":38.56879,"lon":39.05739},{"name":"Hanköy","country":"TR","lat":36.95081,"lon":40.19855},{"name":"Hanönü","country":"TR","lat":41.62705,"lon":34.46667},{"name":"Harbiye","country":"TR","lat":36.13685,"lon":36.13293},{"name":"Harmancık","country":"TR","lat":39.67611,"lon":29.15528},{"name":"Harmanlı","country":"TR","lat":37.83812,"lon":37.74428},{"name":"Harput","country":"TR","lat":38.70373,"lon":39.2415},{"name":"Harran","country":"TR","lat":36.86,"lon":39.03139},{"name":"Hasanbey","country":"TR","lat":40.12902,"lon":27.64228},{"name":"Hasanbeyli","country":"TR","lat":37.12838,"lon":36.54608},{"name":"Hasancalı","country":"TR","lat":36.88551,"lon":36.81615},{"name":"Hasançelebi","country":"TR","lat":38.95093,"lon":37.88064},{"name":"Hasankeyf","country":"TR","lat":37.70612,"lon":41.4048},{"name":"Hasayaz","country":"TR","lat":40.24067,"lon":33.328},{"name":"Hasbek","country":"TR","lat":39.54945,"lon":35.54772},{"name":"Hasköy","country":"TR","lat":38.68231,"lon":41.67851},{"name":"Hasköy","country":"TR","lat":41.64134,"lon":26.85882},{"name":"Hasköy","country":"TR","lat":40.99292,"lon":42.8842},{"name":"Hassa","country":"TR","lat":36.79944,"lon":36.51778},{"name":"Hasyurt","country":"TR","lat":36.32415,"lon":30.22285},{"name":"Hatip","country":"TR","lat":37.75447,"lon":32.4222},{"name":"Hatipler","country":"TR","lat":37.16667,"lon":30.78333},{"name":"Hatunsaray","country":"TR","lat":37.58753,"lon":32.34802},{"name":"Havran","country":"TR","lat":39.55833,"lon":27.09833},{"name":"Havsa","country":"TR","lat":41.54898,"lon":26.82207},{"name":"Havutlu","country":"TR","lat":36.92484,"lon":35.3567},{"name":"Havza","country":"TR","lat":40.97056,"lon":35.66222},{"name":"Haydarlı","country":"TR","lat":38.25972,"lon":30.38583},{"name":"Haymana","country":"TR","lat":39.43212,"lon":32.49732},{"name":"Hayrabolu","country":"TR","lat":41.21311,"lon":27.10688},{"name":"Hayrat","country":"TR","lat":40.8853,"lon":40.36495},{"name":"Hazar","country":"TR","lat":38.3878,"lon":39.42365},{"name":"Hazro","country":"TR","lat":38.24903,"lon":40.77129},{"name":"Hekimdağ","country":"TR","lat":39.90904,"lon":30.5646},{"name":"Hekimhan","country":"TR","lat":38.81622,"lon":37.92882},{"name":"Hemşin","country":"TR","lat":41.04777,"lon":40.8984},{"name":"Hendek","country":"TR","lat":40.79944,"lon":30.74806},{"name":"Hendekköy","country":"TR","lat":38.15624,"lon":39.627},{"name":"Hereke","country":"TR","lat":40.78611,"lon":29.61472},{"name":"Hilal","country":"TR","lat":37.47337,"lon":42.78923},{"name":"Hilvan","country":"TR","lat":37.58687,"lon":38.95505},{"name":"Himmetdede","country":"TR","lat":38.91028,"lon":35.09607},{"name":"Himmetli","country":"TR","lat":37.86706,"lon":36.0643},{"name":"Hisar","country":"TR","lat":37.60108,"lon":41.22819},{"name":"Hisarcık","country":"TR","lat":39.25057,"lon":29.23116},{"name":"Hizan","country":"TR","lat":38.22498,"lon":42.4183},{"name":"Hıdırbaba","country":"TR","lat":38.76706,"lon":38.97698},{"name":"Hıdırbey","country":"TR","lat":36.20802,"lon":36.12787},{"name":"Hıdırbeyli","country":"TR","lat":37.89238,"lon":27.58831},{"name":"Hıdırlı","country":"TR","lat":36.93188,"lon":35.31772},{"name":"Hınıs","country":"TR","lat":39.35766,"lon":41.69253},{"name":"Hırkatolu","country":"TR","lat":38.4062,"lon":33.93081},{"name":"Hocalar","country":"TR","lat":38.57824,"lon":29.96768},{"name":"Honaz","country":"TR","lat":37.7573,"lon":29.26996},{"name":"Hopa","country":"TR","lat":41.39046,"lon":41.41966},{"name":"Horasan","country":"TR","lat":40.03885,"lon":42.16366},{"name":"Horsunlu","country":"TR","lat":37.91441,"lon":28.59151},{"name":"Hotamış","country":"TR","lat":37.64004,"lon":33.31862},{"name":"Hozat","country":"TR","lat":39.10029,"lon":39.20816},{"name":"Hüyük","country":"TR","lat":37.95388,"lon":31.59639},{"name":"İbradı","country":"TR","lat":37.09694,"lon":31.59917},{"name":"İbriktepe","country":"TR","lat":41.01037,"lon":26.50343},{"name":"İçme","country":"TR","lat":38.61257,"lon":39.5513},{"name":"İçmeler","country":"TR","lat":36.79859,"lon":28.22635},{"name":"İçmeler","country":"TR","lat":40.84639,"lon":29.30889},{"name":"İçören","country":"TR","lat":37.55738,"lon":41.09647},{"name":"İdil","country":"TR","lat":37.33481,"lon":41.88944},{"name":"İğdir","country":"TR","lat":36.9067,"lon":34.6432},{"name":"İğdir","country":"TR","lat":41.83792,"lon":33.61687},{"name":"İğdir","country":"TR","lat":41.22617,"lon":33.13699},{"name":"İğdir","country":"TR","lat":40.26633,"lon":35.62645},{"name":"Iğdır","country":"TR","lat":39.92371,"lon":44.045},{"name":"İğneada","country":"TR","lat":41.87444,"lon":27.98389},{"name":"İhsangazi","country":"TR","lat":41.20432,"lon":33.55455},{"name":"İhsaniye","country":"TR","lat":39.02916,"lon":30.41639},{"name":"İhsaniye","country":"TR","lat":40.69087,"lon":29.83472},{"name":"İkiköprü","country":"TR","lat":37.96459,"lon":41.33119},{"name":"İkizce","country":"TR","lat":39.59516,"lon":32.66097},{"name":"İkizce","country":"TR","lat":36.86262,"lon":37.77432},{"name":"İkizce","country":"TR","lat":41.05833,"lon":37.08028},{"name":"İkizdere","country":"TR","lat":40.77484,"lon":40.55227},{"name":"İkizören","country":"TR","lat":40.68833,"lon":33.88333},{"name":"Ilgaz","country":"TR","lat":40.92511,"lon":33.62586},{"name":"Ilgın","country":"TR","lat":38.27917,"lon":31.91389},{"name":"İliç","country":"TR","lat":39.45106,"lon":38.55836},{"name":"Ilıca","country":"TR","lat":39.94653,"lon":41.0952},{"name":"Ilıca","country":"TR","lat":39.87583,"lon":27.77639},{"name":"Ilıcalar","country":"TR","lat":38.98034,"lon":40.67394},{"name":"Ilıdağ","country":"TR","lat":37.94276,"lon":28.04191},{"name":"İlkadım","country":"TR","lat":41.28732,"lon":36.29046},{"name":"İlyaslı","country":"TR","lat":38.60389,"lon":29.20056},{"name":"İmamoğlu","country":"TR","lat":37.26506,"lon":35.65717},{"name":"İmrahor","country":"TR","lat":37.0534,"lon":30.21667},{"name":"İmranlı","country":"TR","lat":39.87544,"lon":38.11358},{"name":"İnanöz","country":"TR","lat":37.708,"lon":39.96842},{"name":"İncehıdır","country":"TR","lat":38.02254,"lon":39.63614},{"name":"İncek","country":"TR","lat":39.80701,"lon":32.69816},{"name":"Incekum","country":"TR","lat":36.64434,"lon":31.73522},{"name":"İncesu","country":"TR","lat":38.6224,"lon":35.18261},{"name":"İncesu","country":"TR","lat":38.16468,"lon":33.80384},{"name":"İncesu","country":"TR","lat":41.16431,"lon":35.32527},{"name":"İncesu","country":"TR","lat":37.21898,"lon":37.2898},{"name":"İncirli","country":"TR","lat":39.98431,"lon":32.84317},{"name":"İncirliova","country":"TR","lat":37.85222,"lon":27.72361},{"name":"İnebolu","country":"TR","lat":41.97893,"lon":33.76012},{"name":"İnece","country":"TR","lat":41.67454,"lon":27.06799},{"name":"İnecik","country":"TR","lat":40.93518,"lon":27.28118},{"name":"İnegol","country":"TR","lat":40.07806,"lon":29.51333},{"name":"İnhisar","country":"TR","lat":40.04932,"lon":30.38521},{"name":"İnli","country":"TR","lat":38.51583,"lon":30.78944},{"name":"İnönü","country":"TR","lat":39.81534,"lon":30.14549},{"name":"İnönü","country":"TR","lat":37.31667,"lon":33.76667},{"name":"İntepe","country":"TR","lat":40.01333,"lon":26.33287},{"name":"İpsala","country":"TR","lat":40.92115,"lon":26.38273},{"name":"İsabeyli","country":"TR","lat":37.90147,"lon":28.26475},{"name":"İscehisar","country":"TR","lat":38.86194,"lon":30.75028},{"name":"İşgören","country":"TR","lat":37.65653,"lon":40.65806},{"name":"İshaklı","country":"TR","lat":38.19972,"lon":30.01333},{"name":"Işıklar","country":"TR","lat":38.67101,"lon":30.74098},{"name":"Işıklar","country":"TR","lat":36.99417,"lon":40.12639},{"name":"Işıklar","country":"TR","lat":40.14916,"lon":26.49663},{"name":"Işıklı","country":"TR","lat":37.83546,"lon":27.80383},{"name":"Işıklı","country":"TR","lat":37.1453,"lon":37.19248},{"name":"Işıklı","country":"TR","lat":36.38509,"lon":33.36673},{"name":"İskenderun","country":"TR","lat":36.58718,"lon":36.17347},{"name":"İskilip","country":"TR","lat":40.73528,"lon":34.47389},{"name":"İslahiye","country":"TR","lat":37.025,"lon":36.63056},{"name":"Isparta","country":"TR","lat":37.76444,"lon":30.55222},{"name":"İspir","country":"TR","lat":40.47981,"lon":40.99373},{"name":"Istanbul","country":"TR","lat":41.01384,"lon":28.94966},{"name":"İstinye","country":"TR","lat":41.11008,"lon":29.05094},{"name":"İvrindi","country":"TR","lat":39.58389,"lon":27.48639},{"name":"İyidere","country":"TR","lat":41.01192,"lon":40.36185},{"name":"İzmir","country":"TR","lat":38.41273,"lon":27.13838},{"name":"İzmit","country":"TR","lat":40.76499,"lon":29.92928},{"name":"İznik","country":"TR","lat":40.42861,"lon":29.72111},{"name":"Kabadüz","country":"TR","lat":40.86096,"lon":37.8847},{"name":"Kabahaydar","country":"TR","lat":37.31338,"lon":39.00995},{"name":"Kabahaydar","country":"TR","lat":37.4,"lon":39.08333},{"name":"Kabakum","country":"TR","lat":39.13115,"lon":26.8875},{"name":"Kabala","country":"TR","lat":37.35045,"lon":40.80287},{"name":"Kabalı","country":"TR","lat":41.85211,"lon":35.06249},{"name":"Kabasakal","country":"TR","lat":37.05756,"lon":35.22642},{"name":"Kabataş","country":"TR","lat":40.75,"lon":37.45},{"name":"Kadirli","country":"TR","lat":37.37389,"lon":36.09611},{"name":"Kadıköy","country":"TR","lat":37.82163,"lon":27.81019},{"name":"Kadıköy","country":"TR","lat":40.62015,"lon":29.22536},{"name":"Kadınhanı","country":"TR","lat":38.23972,"lon":32.21139},{"name":"Kadışehri","country":"TR","lat":39.99568,"lon":35.79193},{"name":"Kadriye","country":"TR","lat":36.88655,"lon":31.00608},{"name":"Kağızman","country":"TR","lat":40.15669,"lon":43.13424},{"name":"Kahraman","country":"TR","lat":37.60339,"lon":28.03742},{"name":"Kahramanmaraş","country":"TR","lat":37.5847,"lon":36.92641},{"name":"Kâhta","country":"TR","lat":37.78552,"lon":38.6237},{"name":"Kaklık","country":"TR","lat":37.83251,"lon":29.41435},{"name":"Kalafat","country":"TR","lat":39.94667,"lon":26.23306},{"name":"Kaldırım","country":"TR","lat":36.69046,"lon":35.53702},{"name":"Kale","country":"TR","lat":39.03333,"lon":38},{"name":"Kale","country":"TR","lat":37.43917,"lon":28.84528},{"name":"Kale","country":"TR","lat":38.41538,"lon":38.77092},{"name":"Kale","country":"TR","lat":40.38688,"lon":39.68332},{"name":"Kaleburcu","country":"TR","lat":36.93304,"lon":34.83709},{"name":"Kalecik","country":"TR","lat":40.09722,"lon":33.40833},{"name":"Kalınkoz","country":"TR","lat":37.13225,"lon":29.31995},{"name":"Kalkan","country":"TR","lat":36.2651,"lon":29.41369},{"name":"Kalkandere","country":"TR","lat":40.92046,"lon":40.43692},{"name":"Kalkım","country":"TR","lat":39.81167,"lon":27.215},{"name":"Kaman","country":"TR","lat":39.3575,"lon":33.72389},{"name":"Kâmil","country":"TR","lat":41.10364,"lon":34.76298},{"name":"Kamışlı","country":"TR","lat":37.55519,"lon":34.9472},{"name":"Kandilli","country":"TR","lat":39.90587,"lon":40.83662},{"name":"Kandıra","country":"TR","lat":41.07,"lon":30.15262},{"name":"Kangal","country":"TR","lat":39.23354,"lon":37.39111},{"name":"Kanlıavşar","country":"TR","lat":37.21646,"lon":38.30936},{"name":"Kanlıca","country":"TR","lat":41.10024,"lon":29.06675},{"name":"Kapaklı","country":"TR","lat":41.32912,"lon":27.98064},{"name":"Kapısuyu","country":"TR","lat":36.12893,"lon":35.94008},{"name":"Kaptanpaşa","country":"TR","lat":40.96067,"lon":40.78238},{"name":"Karaağaçkuyusu","country":"TR","lat":38.01833,"lon":29.78167},{"name":"Karaağıl","country":"TR","lat":39.13609,"lon":42.08459},{"name":"Karabağlar","country":"TR","lat":38.37396,"lon":27.1352},{"name":"Karabiga","country":"TR","lat":40.40361,"lon":27.30389},{"name":"Karabük","country":"TR","lat":41.20488,"lon":32.62768},{"name":"Karabulduk","country":"TR","lat":40.82043,"lon":38.54941},{"name":"Karaburun","country":"TR","lat":38.6364,"lon":26.51094},{"name":"Karacaahmet","country":"TR","lat":39.03028,"lon":30.34694},{"name":"Karacabey","country":"TR","lat":40.21323,"lon":28.3612},{"name":"Karacaburç","country":"TR","lat":37.22606,"lon":37.34555},{"name":"Karacadağ","country":"TR","lat":37.72894,"lon":39.63547},{"name":"Karacaköy","country":"TR","lat":41.40338,"lon":28.38055},{"name":"Karacaköy","country":"TR","lat":41.15126,"lon":29.76935},{"name":"Karacalar","country":"TR","lat":36.74628,"lon":31.55101},{"name":"Karaçalı","country":"TR","lat":37.95444,"lon":40.31696},{"name":"Karaçallı","country":"TR","lat":36.89154,"lon":30.86942},{"name":"Karacaören","country":"TR","lat":39.73062,"lon":38.11527},{"name":"Karacaören","country":"TR","lat":38.12878,"lon":34.06269},{"name":"Karacaören","country":"TR","lat":37.47789,"lon":37.68225},{"name":"Karacasu","country":"TR","lat":37.72816,"lon":28.60569},{"name":"Karaçay","country":"TR","lat":36.13551,"lon":36.07743},{"name":"Karaçevre","country":"TR","lat":37.67588,"lon":40.05775},{"name":"Karaçoban","country":"TR","lat":39.34364,"lon":42.09918},{"name":"Karadağ","country":"TR","lat":36.37917,"lon":29.86556},{"name":"Karadere","country":"TR","lat":40.73174,"lon":30.83992},{"name":"Karadirek","country":"TR","lat":38.56834,"lon":30.18417},{"name":"Karahallı","country":"TR","lat":38.32083,"lon":29.53028},{"name":"Karahasanlı","country":"TR","lat":39.29693,"lon":34.72159},{"name":"Karahisar","country":"TR","lat":37.61337,"lon":28.95757},{"name":"Karahıdırlı","country":"TR","lat":36.73493,"lon":34.27024},{"name":"Karaisalı","country":"TR","lat":37.25667,"lon":35.05889},{"name":"Karaisalı","country":"TR","lat":36.1332,"lon":32.99349},{"name":"Karakasım","country":"TR","lat":41.51718,"lon":26.64381},{"name":"Karakeçi","country":"TR","lat":37.45234,"lon":39.44285},{"name":"Karakeçili","country":"TR","lat":39.59417,"lon":33.37778},{"name":"Karakesek","country":"TR","lat":37.32505,"lon":37.24303},{"name":"Karakise","country":"TR","lat":36.85,"lon":36.21667},{"name":"Karakoçan","country":"TR","lat":38.95178,"lon":40.02706},{"name":"Karakollar","country":"TR","lat":37.6158,"lon":28.03833},{"name":"Karaköprü","country":"TR","lat":39.31512,"lon":41.96458},{"name":"Karaköprü","country":"TR","lat":37.20361,"lon":38.79944},{"name":"Karaköy","country":"TR","lat":39.09101,"lon":41.68301},{"name":"Karakoyunlu","country":"TR","lat":39.87036,"lon":43.63014},{"name":"Karakurt","country":"TR","lat":40.16591,"lon":42.60453},{"name":"Karalar","country":"TR","lat":37.2999,"lon":41.67628},{"name":"Karalarbahşiş","country":"TR","lat":36.15918,"lon":32.85828},{"name":"Karaman","country":"TR","lat":37.18111,"lon":33.215},{"name":"Karamanlı","country":"TR","lat":37.37301,"lon":29.82308},{"name":"Karamürsel","country":"TR","lat":40.69129,"lon":29.61649},{"name":"Karaoğlan","country":"TR","lat":39.22644,"lon":39.20853},{"name":"Karaoğlanlı","country":"TR","lat":38.52917,"lon":27.56667},{"name":"Karaova","country":"TR","lat":37.10699,"lon":27.66578},{"name":"Karaöz","country":"TR","lat":36.77948,"lon":31.51516},{"name":"Karapınar","country":"TR","lat":37.71596,"lon":33.55064},{"name":"Karapürçek","country":"TR","lat":40.64194,"lon":30.53944},{"name":"Karaşar","country":"TR","lat":40.32573,"lon":31.98682},{"name":"Karasu","country":"TR","lat":41.10442,"lon":30.69664},{"name":"Karasu Mahallesi","country":"TR","lat":41.07096,"lon":30.78543},{"name":"Karasüleymanlı","country":"TR","lat":36.34191,"lon":36.41431},{"name":"Karasungur","country":"TR","lat":37.6067,"lon":39.98591},{"name":"Karataş","country":"TR","lat":37.13972,"lon":30.62608},{"name":"Karataş","country":"TR","lat":36.58204,"lon":35.37014},{"name":"Karatay","country":"TR","lat":37.86726,"lon":32.52863},{"name":"Karateke","country":"TR","lat":37.75693,"lon":29.21917},{"name":"Karatoprak","country":"TR","lat":37.01385,"lon":27.25893},{"name":"Karaurgan","country":"TR","lat":40.23964,"lon":42.27283},{"name":"Karayahşılar","country":"TR","lat":38.22028,"lon":29.72917},{"name":"Karayaka","country":"TR","lat":40.74402,"lon":36.59018},{"name":"Karayazı","country":"TR","lat":39.69604,"lon":42.14277},{"name":"Karayün","country":"TR","lat":39.68194,"lon":37.30528},{"name":"Karayün","country":"TR","lat":37.83493,"lon":41.11376},{"name":"Kardeşköy","country":"TR","lat":37.84389,"lon":27.76972},{"name":"Kargalık","country":"TR","lat":37.0514,"lon":30.18108},{"name":"Kargı","country":"TR","lat":36.70132,"lon":29.07557},{"name":"Kargı","country":"TR","lat":41.13373,"lon":34.48744},{"name":"Kargıcak","country":"TR","lat":36.47817,"lon":32.10931},{"name":"Karıncalı","country":"TR","lat":39.97118,"lon":28.85894},{"name":"Karkamış","country":"TR","lat":36.83452,"lon":37.9983},{"name":"Karlı","country":"TR","lat":37.49134,"lon":44.24336},{"name":"Karlıova","country":"TR","lat":39.29044,"lon":41.00594},{"name":"Karpuzlu","country":"TR","lat":37.55861,"lon":27.83528},{"name":"Kars","country":"TR","lat":40.59825,"lon":43.08548},{"name":"Karşıyaka","country":"TR","lat":38.45772,"lon":27.1142},{"name":"Karşıyaka","country":"TR","lat":40.6936,"lon":29.94154},{"name":"Karslı","country":"TR","lat":37.05897,"lon":35.29903},{"name":"Kartal","country":"TR","lat":37.1063,"lon":36.98008},{"name":"Kaş","country":"TR","lat":36.20176,"lon":29.63766},{"name":"Kasaba","country":"TR","lat":36.31134,"lon":29.73381},{"name":"Kasımlar","country":"TR","lat":37.52875,"lon":31.1927},{"name":"Kaşlıca","country":"TR","lat":37.81359,"lon":37.95563},{"name":"Kastal","country":"TR","lat":36.2476,"lon":36.2409},{"name":"Kastamonu","country":"TR","lat":41.37805,"lon":33.77528},{"name":"Kataro","country":"TR","lat":37.34293,"lon":40.24902},{"name":"Kavacık","country":"TR","lat":39.67551,"lon":28.49446},{"name":"Kavak","country":"TR","lat":39.29205,"lon":37.48127},{"name":"Kavak","country":"TR","lat":41.07833,"lon":36.0425},{"name":"Kavakbaşı","country":"TR","lat":38.48337,"lon":41.81967},{"name":"Kavaklı","country":"TR","lat":41.09258,"lon":28.33172},{"name":"Kavaklıdere","country":"TR","lat":37.44463,"lon":28.36276},{"name":"Kavaklıdere","country":"TR","lat":39.91154,"lon":32.85795},{"name":"Kayabağlar","country":"TR","lat":37.98599,"lon":41.66756},{"name":"Kayacı","country":"TR","lat":36.64419,"lon":34.19163},{"name":"Kayacık","country":"TR","lat":38.34142,"lon":40.61336},{"name":"Kayadibi","country":"TR","lat":39.47993,"lon":36.71245},{"name":"Kayaköy","country":"TR","lat":38.20611,"lon":27.81778},{"name":"Kayalıpınar","country":"TR","lat":37.33029,"lon":41.22788},{"name":"Kayaönü","country":"TR","lat":37.80531,"lon":38.19163},{"name":"Kayapa","country":"TR","lat":39.49271,"lon":27.44547},{"name":"Kayapınar","country":"TR","lat":37.93733,"lon":40.17756},{"name":"Kayapınar","country":"TR","lat":37.55762,"lon":41.16231},{"name":"Kayış","country":"TR","lat":37.54528,"lon":30.3475},{"name":"Kaymakçı","country":"TR","lat":38.16778,"lon":28.11528},{"name":"Kaymas","country":"TR","lat":40.9231,"lon":30.26597},{"name":"Kaymaz","country":"TR","lat":39.51667,"lon":31.17972},{"name":"Kaynakkaya","country":"TR","lat":37.33976,"lon":40.93168},{"name":"Kaynar","country":"TR","lat":38.89917,"lon":36.45417},{"name":"Kaynarca","country":"TR","lat":41.03083,"lon":30.3075},{"name":"Kaynaşlı","country":"TR","lat":40.76917,"lon":31.32211},{"name":"Kaypak","country":"TR","lat":37.11487,"lon":36.46511},{"name":"Kayseri","country":"TR","lat":38.73222,"lon":35.48528},{"name":"Kaytazdere","country":"TR","lat":40.68225,"lon":29.53236},{"name":"Kazan","country":"TR","lat":40.23167,"lon":32.68389},{"name":"Kazancı","country":"TR","lat":37.77106,"lon":40.6},{"name":"Kazancı","country":"TR","lat":36.50188,"lon":32.86128},{"name":"Kazanlı","country":"TR","lat":36.81565,"lon":34.75761},{"name":"Kazımkarabekir","country":"TR","lat":37.23028,"lon":32.95889},{"name":"Kazımkarabekir","country":"TR","lat":39.91598,"lon":41.28145},{"name":"Kazımpaşa","country":"TR","lat":40.7916,"lon":30.295},{"name":"Keban","country":"TR","lat":38.7938,"lon":38.73517},{"name":"Keçiborlu","country":"TR","lat":37.9425,"lon":30.30222},{"name":"Kefken","country":"TR","lat":41.16966,"lon":30.22714},{"name":"Kelekçi","country":"TR","lat":37.24073,"lon":29.30425},{"name":"Keles","country":"TR","lat":39.91361,"lon":29.22944},{"name":"Kelkit","country":"TR","lat":40.12682,"lon":39.43424},{"name":"Kelleci","country":"TR","lat":37.80559,"lon":28.90274},{"name":"Kemah","country":"TR","lat":39.59606,"lon":39.02329},{"name":"Kemaliye","country":"TR","lat":39.26288,"lon":38.49674},{"name":"Kemalpaşa","country":"TR","lat":38.42621,"lon":27.41731},{"name":"Kemalpaşa","country":"TR","lat":41.48336,"lon":41.5275},{"name":"Kemer","country":"TR","lat":37.35222,"lon":30.06306},{"name":"Kemer","country":"TR","lat":36.6481,"lon":29.3591},{"name":"Kemer","country":"TR","lat":36.59778,"lon":30.56056},{"name":"Kemerağzı","country":"TR","lat":37.10647,"lon":30.39864},{"name":"Kemerburgaz","country":"TR","lat":41.15902,"lon":28.91572},{"name":"Kemerhisar","country":"TR","lat":37.82388,"lon":34.57145},{"name":"Kemerkaya","country":"TR","lat":38.88944,"lon":31.06639},{"name":"Kepez","country":"TR","lat":36.91579,"lon":30.70782},{"name":"Kepsut","country":"TR","lat":39.68889,"lon":28.15222},{"name":"Kerimler","country":"TR","lat":41.37834,"lon":32.16832},{"name":"Keşan","country":"TR","lat":40.85525,"lon":26.63266},{"name":"Keşap","country":"TR","lat":40.91032,"lon":38.5013},{"name":"Keskin","country":"TR","lat":39.67306,"lon":33.61361},{"name":"Kestel","country":"TR","lat":36.50861,"lon":32.08278},{"name":"Kestel","country":"TR","lat":40.19828,"lon":29.21237},{"name":"Kiğı","country":"TR","lat":39.31361,"lon":40.35028},{"name":"Kilimli","country":"TR","lat":41.49111,"lon":31.83861},{"name":"Kilis","country":"TR","lat":36.71611,"lon":37.115},{"name":"Kindirip","country":"TR","lat":37.44706,"lon":41.21976},{"name":"Kiraz","country":"TR","lat":38.23056,"lon":28.20444},{"name":"Kirazlı","country":"TR","lat":40.09964,"lon":29.04163},{"name":"Kirazlı","country":"TR","lat":40.04176,"lon":26.7009},{"name":"Kirazlıyayla","country":"TR","lat":36.97833,"lon":29.20278},{"name":"Kireç","country":"TR","lat":39.55517,"lon":28.36506},{"name":"Kireçocağı","country":"TR","lat":37.05,"lon":35.23333},{"name":"Kiriş","country":"TR","lat":36.5757,"lon":30.58115},{"name":"Kirişçiler","country":"TR","lat":37.04361,"lon":30.70028},{"name":"Kıbrıscık","country":"TR","lat":40.40778,"lon":31.85194},{"name":"Kılavuz","country":"TR","lat":37.48413,"lon":41.779},{"name":"Kılbasan","country":"TR","lat":37.32488,"lon":33.18634},{"name":"Kılçak","country":"TR","lat":41.16903,"lon":31.37869},{"name":"Kılıç","country":"TR","lat":40.63306,"lon":29.39472},{"name":"Kılıçkaya","country":"TR","lat":37.79602,"lon":40.01446},{"name":"Kılıçkaya","country":"TR","lat":40.70471,"lon":41.47385},{"name":"Kılıçlı","country":"TR","lat":37.07917,"lon":35.45315},{"name":"Kınalı","country":"TR","lat":40.90713,"lon":29.05499},{"name":"Kınık","country":"TR","lat":39.08722,"lon":27.38333},{"name":"Kırbaşı","country":"TR","lat":40.01378,"lon":31.83197},{"name":"Kırca","country":"TR","lat":38.50816,"lon":31.22743},{"name":"Kırcasalih","country":"TR","lat":41.39019,"lon":26.79496},{"name":"Kırık","country":"TR","lat":40.32794,"lon":40.91863},{"name":"Kırıkdağ","country":"TR","lat":37.5565,"lon":43.94783},{"name":"Kırıkhan","country":"TR","lat":36.49939,"lon":36.35755},{"name":"Kırıkkale","country":"TR","lat":39.84528,"lon":33.50639},{"name":"Kırka","country":"TR","lat":39.27944,"lon":30.52639},{"name":"Kırkağaç","country":"TR","lat":39.10638,"lon":27.66925},{"name":"Kırkgeçit","country":"TR","lat":38.13558,"lon":43.49387},{"name":"Kırkkoyun","country":"TR","lat":37.79851,"lon":39.93003},{"name":"Kırklareli","country":"TR","lat":41.73508,"lon":27.22521},{"name":"Kırmızıköprü","country":"TR","lat":39.3859,"lon":39.82439},{"name":"Kırobası","country":"TR","lat":36.7224,"lon":33.86711},{"name":"Kırşehir","country":"TR","lat":39.14583,"lon":34.16389},{"name":"Kısas","country":"TR","lat":37.10581,"lon":38.93152},{"name":"Kışlak","country":"TR","lat":35.9675,"lon":36.15749},{"name":"Kışlaköy","country":"TR","lat":40.32353,"lon":42.02233},{"name":"Kıyıköy","country":"TR","lat":41.63373,"lon":28.09484},{"name":"Kızıkhamurkesen","country":"TR","lat":37.25589,"lon":37.36296},{"name":"Kızıklı","country":"TR","lat":39.50219,"lon":27.03484},{"name":"Kızılağaç","country":"TR","lat":38.78019,"lon":41.31385},{"name":"Kızılağaç","country":"TR","lat":36.73055,"lon":31.53517},{"name":"Kızılay","country":"TR","lat":39.92128,"lon":32.85055},{"name":"Kızılca","country":"TR","lat":37.84024,"lon":34.35135},{"name":"Kızılca","country":"TR","lat":37.48692,"lon":29.13962},{"name":"Kızılcabölük","country":"TR","lat":37.61191,"lon":29.01838},{"name":"Kızılcadağ","country":"TR","lat":37.01722,"lon":29.96306},{"name":"Kızılcahamam","country":"TR","lat":40.46972,"lon":32.65056},{"name":"Kızılcaköy","country":"TR","lat":37.96414,"lon":28.10773},{"name":"Kızılcaşar","country":"TR","lat":39.82264,"lon":32.73292},{"name":"Kızılcaşehir","country":"TR","lat":36.56604,"lon":32.09055},{"name":"Kızılcasöğüt","country":"TR","lat":38.65111,"lon":29.66611},{"name":"Kızılin","country":"TR","lat":37.54693,"lon":38.07595},{"name":"Kızılırmak","country":"TR","lat":40.34556,"lon":33.98639},{"name":"Kızılkaş","country":"TR","lat":37.10796,"lon":35.46417},{"name":"Kızılkaya","country":"TR","lat":37.30361,"lon":30.44417},{"name":"Kızıllı","country":"TR","lat":37.1125,"lon":30.71083},{"name":"Kızılören","country":"TR","lat":38.25806,"lon":30.15167},{"name":"Kızılören","country":"TR","lat":37.86847,"lon":32.11618},{"name":"Kızılsu","country":"TR","lat":37.45402,"lon":42.19639},{"name":"Kızıltepe","country":"TR","lat":37.18836,"lon":40.57723},{"name":"Kızılyaka","country":"TR","lat":36.98301,"lon":29.52847},{"name":"Kızkalesi","country":"TR","lat":36.46192,"lon":34.14199},{"name":"Kocaali","country":"TR","lat":41.05336,"lon":30.85278},{"name":"Kocaaliler","country":"TR","lat":37.31694,"lon":30.74},{"name":"Kocadere","country":"TR","lat":40.63,"lon":29.03},{"name":"Kocahasanlı","country":"TR","lat":36.58417,"lon":34.27359},{"name":"Kocakoç","country":"TR","lat":39.11664,"lon":39.65931},{"name":"Kocaköy","country":"TR","lat":38.28889,"lon":40.49786},{"name":"Koçali","country":"TR","lat":37.92306,"lon":38.25788},{"name":"Kocapınar","country":"TR","lat":39.09553,"lon":43.19616},{"name":"Koçarlı","country":"TR","lat":37.76113,"lon":27.70583},{"name":"Kocasinan","country":"TR","lat":38.77147,"lon":35.5725},{"name":"Kocatepe","country":"TR","lat":37.22922,"lon":40.16104},{"name":"Kocatepe","country":"TR","lat":37.04176,"lon":37.69212},{"name":"Koçören","country":"TR","lat":36.17977,"lon":36.09575},{"name":"Kofçaz","country":"TR","lat":41.94481,"lon":27.15829},{"name":"Kökez","country":"TR","lat":37.58131,"lon":35.28747},{"name":"Köklüce","country":"TR","lat":37.46885,"lon":37.62076},{"name":"Köklüce","country":"TR","lat":36.94008,"lon":35.42281},{"name":"Köksalan","country":"TR","lat":37.2783,"lon":37.23905},{"name":"Kolay","country":"TR","lat":41.41824,"lon":35.80136},{"name":"Kömürlü","country":"TR","lat":40.73539,"lon":42.28819},{"name":"Konacık","country":"TR","lat":37.04487,"lon":27.40994},{"name":"Konaklı","country":"TR","lat":38.11278,"lon":27.99611},{"name":"Konaklı","country":"TR","lat":36.59251,"lon":31.89539},{"name":"Konakpınar","country":"TR","lat":39.43389,"lon":27.83623},{"name":"Konakpınar","country":"TR","lat":38.90583,"lon":37.29694},{"name":"Konalga","country":"TR","lat":37.87214,"lon":43.05122},{"name":"Konuklu","country":"TR","lat":37.12632,"lon":38.84858},{"name":"Konuralp","country":"TR","lat":40.90538,"lon":31.14568},{"name":"Konursu","country":"TR","lat":40.39397,"lon":40.25443},{"name":"Konya","country":"TR","lat":37.87135,"lon":32.48464},{"name":"Konyaaltı","country":"TR","lat":36.86644,"lon":30.63031},{"name":"Köprübaşı","country":"TR","lat":38.74972,"lon":28.40472},{"name":"Köprübaşı","country":"TR","lat":40.80692,"lon":40.11439},{"name":"Köprübaşı","country":"TR","lat":41.04754,"lon":35.51687},{"name":"Köprübaşı","country":"TR","lat":36.10908,"lon":32.84343},{"name":"Köprüköy","country":"TR","lat":39.966,"lon":41.86844},{"name":"Köprülü","country":"TR","lat":36.73157,"lon":32.18462},{"name":"Köprüören","country":"TR","lat":39.50832,"lon":29.76233},{"name":"Koramanlar","country":"TR","lat":41.41367,"lon":32.1915},{"name":"Körfez","country":"TR","lat":40.76704,"lon":29.78275},{"name":"Korgan","country":"TR","lat":40.82472,"lon":37.34667},{"name":"Korgun","country":"TR","lat":40.73479,"lon":33.51844},{"name":"Korkut","country":"TR","lat":38.7339,"lon":41.78396},{"name":"Korkuteli","country":"TR","lat":37.06498,"lon":30.19565},{"name":"Korucu","country":"TR","lat":39.47028,"lon":27.36528},{"name":"Koruköy","country":"TR","lat":40.65435,"lon":29.16289},{"name":"Kösbucağı","country":"TR","lat":36.68601,"lon":34.24708},{"name":"Köse","country":"TR","lat":40.20692,"lon":39.64626},{"name":"Köseçobanlı","country":"TR","lat":36.44434,"lon":33.13588},{"name":"Kösefakılı","country":"TR","lat":39.59386,"lon":34.13625},{"name":"Köseköy","country":"TR","lat":40.74012,"lon":30.00556},{"name":"Köseli","country":"TR","lat":37.83879,"lon":40.60811},