[{"name":"Abim","country":"UG","lat":2.70167,"lon":33.67611},{"name":"Adjumani","country":"UG","lat":3.37786,"lon":31.7909},{"name":"Agago","country":"UG","lat":2.83383,"lon":33.33361},{"name":"Alebtong","country":"UG","lat":2.24472,"lon":33.25472},{"name":"Amolatar","country":"UG","lat":1.61556,"lon":32.83972},{"name":"Amudat","country":"UG","lat":1.95,"lon":34.95},{"name":"Amuria","country":"UG","lat":2.00361,"lon":33.65111},{"name":"Amuru","country":"UG","lat":2.81388,"lon":31.93868},{"name":"Anaka","country":"UG","lat":2.60114,"lon":31.94749},{"name":"Apac","country":"UG","lat":1.97556,"lon":32.53861},{"name":"Arua","country":"UG","lat":3.02013,"lon":30.91105},{"name":"Binyiny","country":"UG","lat":1.41667,"lon":34.53333},{"name":"Bombo","country":"UG","lat":0.57387,"lon":32.51545},{"name":"Budadiri","country":"UG","lat":1.14806,"lon":34.32611},{"name":"Budaka","country":"UG","lat":1.00389,"lon":33.92556},{"name":"Bududa","country":"UG","lat":1.01118,"lon":34.33112},{"name":"Bugembe","country":"UG","lat":0.48213,"lon":33.24065},{"name":"Bugiri","country":"UG","lat":0.57139,"lon":33.74167},{"name":"Buhesi","country":"UG","lat":0.58105,"lon":30.21011},{"name":"Buhimba","country":"UG","lat":1.34722,"lon":31.30806},{"name":"Buhweju","country":"UG","lat":-0.35027,"lon":30.30029},{"name":"Buikwe","country":"UG","lat":0.3375,"lon":33.01056},{"name":"Bukedea","country":"UG","lat":1.31694,"lon":34.05056},{"name":"Bukomansimbi","country":"UG","lat":-0.15778,"lon":31.60417},{"name":"Bukomero","country":"UG","lat":0.6975,"lon":32.02861},{"name":"Bukwa","country":"UG","lat":1.25917,"lon":34.75389},{"name":"Bulambuli","country":"UG","lat":1.309,"lon":34.283},{"name":"Buliisa","country":"UG","lat":2.11781,"lon":31.41163},{"name":"Bunamwaya","country":"UG","lat":0.25344,"lon":32.55723},{"name":"Bundibugyo","country":"UG","lat":0.71117,"lon":30.06469},{"name":"Busembatia","country":"UG","lat":0.77725,"lon":33.62364},{"name":"Busesa","country":"UG","lat":0.62631,"lon":33.60027},{"name":"Bushenyi","country":"UG","lat":-0.53695,"lon":30.18579},{"name":"Busia","country":"UG","lat":0.46588,"lon":34.09221},{"name":"Busolwe","country":"UG","lat":0.85007,"lon":33.92624},{"name":"Butaleja","country":"UG","lat":0.91194,"lon":33.95111},{"name":"Butebo","country":"UG","lat":1.19417,"lon":33.92222},{"name":"Butemba","country":"UG","lat":1.15944,"lon":31.61083},{"name":"Butunduzi","country":"UG","lat":0.55473,"lon":30.85485},{"name":"Buwenge","country":"UG","lat":0.64996,"lon":33.17128},{"name":"Buyale","country":"UG","lat":1.93421,"lon":32.11643},{"name":"Buyende","country":"UG","lat":1.15167,"lon":33.155},{"name":"Bweyogerere","country":"UG","lat":0.35773,"lon":32.66332},{"name":"Bwizibwera","country":"UG","lat":-0.59167,"lon":30.62861},{"name":"Byakabanda","country":"UG","lat":-0.7425,"lon":31.40639},{"name":"Dokolo","country":"UG","lat":1.89833,"lon":33.1775},{"name":"Entebbe","country":"UG","lat":0.05621,"lon":32.47949},{"name":"Fort Portal","country":"UG","lat":0.66174,"lon":30.2748},{"name":"Gombe","country":"UG","lat":0.20333,"lon":32.08806},{"name":"Gulu","country":"UG","lat":2.77457,"lon":32.29899},{"name":"Hima","country":"UG","lat":0.34889,"lon":30.16222},{"name":"Hoima","country":"UG","lat":1.43314,"lon":31.35241},{"name":"Ibanda","country":"UG","lat":-0.13398,"lon":30.49616},{"name":"Iganga","country":"UG","lat":0.60917,"lon":33.46861},{"name":"Iryango","country":"UG","lat":-0.96667,"lon":30.6},{"name":"Ishaka","country":"UG","lat":-0.54306,"lon":30.13694},{"name":"Isingiro","country":"UG","lat":-0.86864,"lon":30.83019},{"name":"Jinja","country":"UG","lat":0.43902,"lon":33.20317},{"name":"Kaabong","country":"UG","lat":3.48361,"lon":34.14917},{"name":"Kabale","country":"UG","lat":-1.24857,"lon":29.98993},{"name":"Kaberamaido","country":"UG","lat":1.73889,"lon":33.15944},{"name":"Kagadi","country":"UG","lat":0.93778,"lon":30.80889},{"name":"Kajansi","country":"UG","lat":0.21548,"lon":32.53453},{"name":"Kakira","country":"UG","lat":0.50833,"lon":33.28778},{"name":"Kakiri","country":"UG","lat":0.41989,"lon":32.39127},{"name":"Kakumiro","country":"UG","lat":0.78056,"lon":31.32361},{"name":"Kalangala","country":"UG","lat":-0.30889,"lon":32.225},{"name":"Kaliro","country":"UG","lat":0.89444,"lon":33.49944},{"name":"Kalisizo","country":"UG","lat":-0.53639,"lon":31.62139},{"name":"Kalungu","country":"UG","lat":-0.16969,"lon":31.75847},{"name":"Kampala","country":"UG","lat":0.31628,"lon":32.58219},{"name":"Kampala Central Division","country":"UG","lat":0.32467,"lon":32.5747},{"name":"Kamuli","country":"UG","lat":0.94722,"lon":33.11972},{"name":"Kamwenge","country":"UG","lat":0.1866,"lon":30.45393},{"name":"Kanoni","country":"UG","lat":0.17722,"lon":31.88111},{"name":"Kanungu","country":"UG","lat":-0.9575,"lon":29.78972},{"name":"Kapchorwa","country":"UG","lat":1.40096,"lon":34.45038},{"name":"Kasaali","country":"UG","lat":-0.61667,"lon":31.55},{"name":"Kasambya","country":"UG","lat":0.43333,"lon":31.23333},{"name":"Kasanda","country":"UG","lat":0.55667,"lon":31.80222},{"name":"Kasangati","country":"UG","lat":0.43803,"lon":32.60246},{"name":"Kasanje","country":"UG","lat":0.15334,"lon":32.40088},{"name":"Kasese","country":"UG","lat":0.18333,"lon":30.08333},{"name":"Kasozi","country":"UG","lat":0.02,"lon":30.49861},{"name":"Katabi","country":"UG","lat":0.08411,"lon":32.46972},{"name":"Katakwi","country":"UG","lat":1.89111,"lon":33.96611},{"name":"Katoke","country":"UG","lat":0.75833,"lon":30.6825},{"name":"Kayunga","country":"UG","lat":0.7025,"lon":32.88861},{"name":"Kazo","country":"UG","lat":-0.07444,"lon":30.78528},{"name":"Kebisoni","country":"UG","lat":-0.92111,"lon":30.03667},{"name":"Kibale","country":"UG","lat":0.8,"lon":31.06667},{"name":"Kibiito","country":"UG","lat":0.47722,"lon":30.1925},{"name":"Kibingo","country":"UG","lat":-0.62602,"lon":30.43594},{"name":"Kiboga","country":"UG","lat":0.91611,"lon":31.77417},{"name":"Kibuku","country":"UG","lat":1.04333,"lon":33.7975},{"name":"Kigorobya","country":"UG","lat":1.6162,"lon":31.3089},{"name":"Kigumba","country":"UG","lat":1.80838,"lon":32.00502},{"name":"Kihihi","country":"UG","lat":-0.75,"lon":29.7},{"name":"Kikube","country":"UG","lat":1.35639,"lon":31.22222},{"name":"Kilembe","country":"UG","lat":0.19835,"lon":30.01302},{"name":"Kinoni","country":"UG","lat":-0.70111,"lon":30.49389},{"name":"Kira","country":"UG","lat":0.4,"lon":32.63333},{"name":"Kireka","country":"UG","lat":0.3475,"lon":32.64917},{"name":"Kiruhura","country":"UG","lat":-0.19664,"lon":30.84446},{"name":"Kiryandongo","country":"UG","lat":1.87633,"lon":32.06225},{"name":"Kiryandongo Refugee Camp","country":"UG","lat":1.9399,"lon":32.16605},{"name":"Kisinga","country":"UG","lat":0.07684,"lon":29.86832},{"name":"Kisoro","country":"UG","lat":-1.28538,"lon":29.68497},{"name":"Kitamilo","country":"UG","lat":0.22215,"lon":33.20608},{"name":"Kitgum","country":"UG","lat":3.27833,"lon":32.88667},{"name":"Kiziba","country":"UG","lat":0.51389,"lon":32.35056},{"name":"Koboko","country":"UG","lat":3.41364,"lon":30.95994},{"name":"Kole","country":"UG","lat":2.40015,"lon":32.80034},{"name":"Kotido","country":"UG","lat":2.98056,"lon":34.13306},{"name":"Kumi","country":"UG","lat":1.46083,"lon":33.93611},{"name":"Kyaka II Refugee Camp","country":"UG","lat":0.36738,"lon":31.10817},{"name":"Kyamahungu","country":"UG","lat":-0.45139,"lon":30.11333},{"name":"Kyangwali Refugee Camp","country":"UG","lat":1.18807,"lon":30.78281},{"name":"Kyankwanzi","country":"UG","lat":1.20061,"lon":31.80063},{"name":"Kyarusozi","country":"UG","lat":0.78417,"lon":30.53111},{"name":"Kyazanga","country":"UG","lat":-0.38333,"lon":31.35},{"name":"Kyegegwa","country":"UG","lat":0.50222,"lon":31.04139},{"name":"Kyengera","country":"UG","lat":0.29517,"lon":32.50159},{"name":"Kyenjojo","country":"UG","lat":0.63278,"lon":30.62139},{"name":"Kyotera","country":"UG","lat":-0.61556,"lon":31.5175},{"name":"Lamwo","country":"UG","lat":3.52972,"lon":32.8016},{"name":"Lira","country":"UG","lat":2.2499,"lon":32.89985},{"name":"Lugazi","country":"UG","lat":0.36788,"lon":32.9376},{"name":"Lukaya","country":"UG","lat":-0.11306,"lon":31.85389},{"name":"Luuka Town","country":"UG","lat":0.70076,"lon":33.3002},{"name":"Luwero","country":"UG","lat":0.84917,"lon":32.47306},{"name":"Lwakyomba","country":"UG","lat":1.11667,"lon":31.4},{"name":"Lwengo","country":"UG","lat":-0.41611,"lon":31.40806},{"name":"Lyantonde","country":"UG","lat":-0.40306,"lon":31.15722},{"name":"Mabare","country":"UG","lat":-0.96667,"lon":30.45},{"name":"Magamaga","country":"UG","lat":0.5196,"lon":33.34687},{"name":"Malaba","country":"UG","lat":0.64444,"lon":34.26056},{"name":"Manafwa","country":"UG","lat":0.952,"lon":34.27},{"name":"Maracha","country":"UG","lat":3.27042,"lon":30.95532},{"name":"Masaka","country":"UG","lat":-0.33379,"lon":31.73409},{"name":"Masindi","country":"UG","lat":1.67444,"lon":31.715},{"name":"Masindi Port","country":"UG","lat":1.69606,"lon":32.08608},{"name":"Mayuge","country":"UG","lat":0.45972,"lon":33.48028},{"name":"Mbale","country":"UG","lat":1.08209,"lon":34.17503},{"name":"Mbarara","country":"UG","lat":-0.60467,"lon":30.64851},{"name":"Mitoma","country":"UG","lat":-0.68417,"lon":30.07},{"name":"Mityana","country":"UG","lat":0.4175,"lon":32.02278},{"name":"Moroto","country":"UG","lat":2.53453,"lon":34.66659},{"name":"Moyo","country":"UG","lat":3.66088,"lon":31.72474},{"name":"Mpigi","country":"UG","lat":0.225,"lon":32.31361},{"name":"Mpondwe","country":"UG","lat":0.04008,"lon":29.7248},{"name":"Mubende","country":"UG","lat":0.55849,"lon":31.39489},{"name":"Muhororo","country":"UG","lat":0.93806,"lon":30.75944},{"name":"Muhorro","country":"UG","lat":0.91513,"lon":30.75078},{"name":"Mukono","country":"UG","lat":0.35333,"lon":32.75528},{"name":"Nagongera","country":"UG","lat":0.7616,"lon":34.02623},{"name":"Nakaloke","country":"UG","lat":1.15,"lon":34.15},{"name":"Nakapiripirit","country":"UG","lat":1.91667,"lon":34.78333},{"name":"Nakaseke","country":"UG","lat":0.75167,"lon":32.385},{"name":"Nakasongola","country":"UG","lat":1.30889,"lon":32.45639},{"name":"Nakivale Refugee Camp","country":"UG","lat":-0.74064,"lon":30.99632},{"name":"Namasuba","country":"UG","lat":0.68944,"lon":32.42139},{"name":"Namavundu","country":"UG","lat":0.36402,"lon":33.81759},{"name":"Namayingo","country":"UG","lat":0.23983,"lon":33.88491},{"name":"Namayumba","country":"UG","lat":0.52889,"lon":32.24861},{"name":"Namutumba","country":"UG","lat":0.83611,"lon":33.68611},{"name":"Nansana","country":"UG","lat":0.36389,"lon":32.52861},{"name":"Napak","country":"UG","lat":2.25139,"lon":34.25012},{"name":"Nebbi","country":"UG","lat":2.47826,"lon":31.08893},{"name":"Ngora","country":"UG","lat":1.43139,"lon":33.77722},{"name":"Njeru","country":"UG","lat":0.44166,"lon":33.17917},{"name":"Nkoma","country":"UG","lat":0.3,"lon":30.61667},{"name":"Nsika","country":"UG","lat":-0.358,"lon":30.43136},{"name":"Ntoroko","country":"UG","lat":1.04111,"lon":30.48111},{"name":"Ntungamo","country":"UG","lat":-0.88333,"lon":29.65},{"name":"Ntungamo","country":"UG","lat":-0.87944,"lon":30.26417},{"name":"Nwoya","country":"UG","lat":2.63422,"lon":32.00106},{"name":"Nyachera","country":"UG","lat":-0.9,"lon":30.41667},{"name":"Nyahuka","country":"UG","lat":0.675,"lon":29.9926},{"name":"Nyamunuka","country":"UG","lat":-0.83487,"lon":30.09216},{"name":"Opit","country":"UG","lat":2.61112,"lon":32.47559},{"name":"Otuke","country":"UG","lat":2.50038,"lon":33.50065},{"name":"Oyam","country":"UG","lat":2.235,"lon":32.38495},{"name":"Pader","country":"UG","lat":3.05,"lon":33.21667},{"name":"Pader","country":"UG","lat":2.88,"lon":33.08714},{"name":"Pader Palwo","country":"UG","lat":2.80056,"lon":33.135},{"name":"Paidha","country":"UG","lat":2.41669,"lon":30.98551},{"name":"Pakwach","country":"UG","lat":2.46335,"lon":31.49832},{"name":"Pallisa","country":"UG","lat":1.145,"lon":33.70944},{"name":"Rakai","country":"UG","lat":-0.72,"lon":31.48389},{"name":"Rubaare","country":"UG","lat":-1.08389,"lon":30.20167},{"name":"Rubanda","country":"UG","lat":-1.18833,"lon":29.84611},{"name":"Rubirizi","country":"UG","lat":-0.29889,"lon":30.13361},{"name":"Rukungiri","country":"UG","lat":-0.84111,"lon":29.94194},{"name":"Rutoma","country":"UG","lat":-0.56667,"lon":30.38333},{"name":"Rwamwanja Refugee Camp","country":"UG","lat":0.34801,"lon":30.65427},{"name":"Rwiimi","country":"UG","lat":0.37957,"lon":30.23039},{"name":"Sembabule","country":"UG","lat":-0.07722,"lon":31.45667},{"name":"Serere","country":"UG","lat":1.49417,"lon":33.45528},{"name":"Sironko","country":"UG","lat":1.23132,"lon":34.24773},{"name":"Soroti","country":"UG","lat":1.71464,"lon":33.61113},{"name":"Tororo","country":"UG","lat":0.69299,"lon":34.18085},{"name":"Wakiso","country":"UG","lat":0.40444,"lon":32.45944},{"name":"Wobulenzi","country":"UG","lat":0.72833,"lon":32.51222},{"name":"Yumbe","country":"UG","lat":3.46506,"lon":31.24689},{"name":"Zombo","country":"UG","lat":2.51355,"lon":30.90909}]