[{"name":"Amir Timur","country":"UZ","lat":41.01944,"lon":68.94083},{"name":"Andijon","country":"UZ","lat":40.78206,"lon":72.34424},{"name":"Angren","country":"UZ","lat":41.01667,"lon":70.14361},{"name":"Asaka","country":"UZ","lat":40.64153,"lon":72.23868},{"name":"Bag‘dod","country":"UZ","lat":40.46306,"lon":71.21222},{"name":"Baliqchi","country":"UZ","lat":40.90499,"lon":71.84737},{"name":"Bekobod","country":"UZ","lat":40.22083,"lon":69.26972},{"name":"Bektemir","country":"UZ","lat":41.20972,"lon":69.33417},{"name":"Beruniy","country":"UZ","lat":41.69111,"lon":60.7525},{"name":"Beruniy Shahri","country":"UZ","lat":41.69904,"lon":60.75501},{"name":"Beshariq","country":"UZ","lat":40.43583,"lon":70.61028},{"name":"Beshkent","country":"UZ","lat":38.82139,"lon":65.65306},{"name":"Beshkent Shahri","country":"UZ","lat":38.81107,"lon":65.64246},{"name":"Beshrabot","country":"UZ","lat":40.19761,"lon":65.33527},{"name":"Bo‘ka","country":"UZ","lat":40.81108,"lon":69.19417},{"name":"Bo‘ston Shahri","country":"UZ","lat":41.84607,"lon":60.94744},{"name":"Bog'don","country":"UZ","lat":40.41517,"lon":67.17946},{"name":"Bog’ot","country":"UZ","lat":41.35415,"lon":60.81787},{"name":"Boysun","country":"UZ","lat":38.20835,"lon":67.20664},{"name":"Bukhara","country":"UZ","lat":39.77472,"lon":64.42861},{"name":"Buloqboshi","country":"UZ","lat":40.62907,"lon":72.50212},{"name":"Bulung’ur Shahri","country":"UZ","lat":39.76003,"lon":67.27441},{"name":"Burchmulla","country":"UZ","lat":41.61667,"lon":70.08333},{"name":"Charxin","country":"UZ","lat":39.69413,"lon":66.827},{"name":"Chelak","country":"UZ","lat":39.92002,"lon":66.86228},{"name":"Chimboy Shahri","country":"UZ","lat":42.92952,"lon":59.78199},{"name":"Chinoz","country":"UZ","lat":40.93633,"lon":68.76128},{"name":"Chirchiq","country":"UZ","lat":41.46889,"lon":69.58222},{"name":"Chiroqchi","country":"UZ","lat":39.03361,"lon":66.57222},{"name":"Chiroqchi Shahri","country":"UZ","lat":39.02727,"lon":66.58083},{"name":"Chortoq","country":"UZ","lat":41.06924,"lon":71.82372},{"name":"Chortoq Shahri","country":"UZ","lat":41.07703,"lon":71.81772},{"name":"Chust","country":"UZ","lat":41.00329,"lon":71.23791},{"name":"Dahbed","country":"UZ","lat":39.7644,"lon":66.91626},{"name":"Dang‘ara","country":"UZ","lat":40.58389,"lon":70.91444},{"name":"Dardoq","country":"UZ","lat":40.81583,"lon":72.83166},{"name":"Dashtobod","country":"UZ","lat":40.12694,"lon":68.49444},{"name":"Denov","country":"UZ","lat":38.26746,"lon":67.89886},{"name":"Do’stlik Shahri","country":"UZ","lat":40.52881,"lon":68.03153},{"name":"Druzhba","country":"UZ","lat":41.22222,"lon":61.30667},{"name":"Eskiarab","country":"UZ","lat":40.36972,"lon":71.41861},{"name":"Fergana","country":"UZ","lat":40.38421,"lon":71.78432},{"name":"G’allaorol Shahri","country":"UZ","lat":40.02696,"lon":67.58781},{"name":"G‘azalkent","country":"UZ","lat":41.55806,"lon":69.77083},{"name":"G’ijduvon Shahri","country":"UZ","lat":40.10223,"lon":64.68226},{"name":"G’oliblar Qishlog’i","country":"UZ","lat":40.49528,"lon":67.87594},{"name":"G‘ozg‘on","country":"UZ","lat":40.59078,"lon":65.49466},{"name":"G‘uzor","country":"UZ","lat":38.6213,"lon":66.25152},{"name":"G‘uzor Shahri","country":"UZ","lat":38.62596,"lon":66.24515},{"name":"Gagarin Shahri","country":"UZ","lat":40.66473,"lon":68.16768},{"name":"Galaosiyo Shahri","country":"UZ","lat":39.85721,"lon":64.44641},{"name":"Gazli","country":"UZ","lat":40.13111,"lon":63.45713},{"name":"Guliston","country":"UZ","lat":40.48972,"lon":68.78417},{"name":"Gurlan","country":"UZ","lat":41.84123,"lon":60.39268},{"name":"Hamza","country":"UZ","lat":40.42762,"lon":71.50534},{"name":"Haqqulobod","country":"UZ","lat":40.91667,"lon":72.11667},{"name":"Hazorasp","country":"UZ","lat":41.31944,"lon":61.07417},{"name":"Hazratishoh","country":"UZ","lat":41.39465,"lon":71.78903},{"name":"Ibrat","country":"UZ","lat":40.55389,"lon":71.14667},{"name":"Ishtixon Shahri","country":"UZ","lat":39.96639,"lon":66.48611},{"name":"Iskandar","country":"UZ","lat":41.55389,"lon":69.70083},{"name":"Izboskan","country":"UZ","lat":41.03766,"lon":72.33659},{"name":"Jalolquduq","country":"UZ","lat":40.68918,"lon":72.60931},{"name":"Jizzax","country":"UZ","lat":40.12341,"lon":67.82842},{"name":"Jomboy Shahri","country":"UZ","lat":39.69889,"lon":67.09333},{"name":"Jondor Shaharchasi","country":"UZ","lat":39.7417,"lon":64.17962},{"name":"Juma Shahri","country":"UZ","lat":39.71611,"lon":66.66417},{"name":"Karakul’","country":"UZ","lat":39.53333,"lon":63.83333},{"name":"Karmana Shahri","country":"UZ","lat":40.13782,"lon":65.37545},{"name":"Kattaqo’rg’on Shahri","country":"UZ","lat":39.90546,"lon":66.26556},{"name":"Kegeyli Shahar","country":"UZ","lat":42.77667,"lon":59.60778},{"name":"Kirguli","country":"UZ","lat":40.43553,"lon":71.76721},{"name":"Kitob","country":"UZ","lat":39.12158,"lon":66.88605},{"name":"Kitob Shahri","country":"UZ","lat":39.12251,"lon":66.8757},{"name":"Kogon Shahri","country":"UZ","lat":39.72746,"lon":64.55466},{"name":"Konimex","country":"UZ","lat":40.27593,"lon":65.14511},{"name":"Koson","country":"UZ","lat":39.0375,"lon":65.585},{"name":"Koson Shahri","country":"UZ","lat":39.04472,"lon":65.59082},{"name":"Kosonsoy","country":"UZ","lat":41.24944,"lon":71.54738},{"name":"Kosonsoy Shahri","country":"UZ","lat":41.26327,"lon":71.54239},{"name":"Kuyganyor","country":"UZ","lat":40.85444,"lon":72.30734},{"name":"Kyzyldzhar","country":"UZ","lat":41.56667,"lon":70.01667},{"name":"Langar","country":"UZ","lat":40.5205,"lon":71.66015},{"name":"Loyish Shaharchasi","country":"UZ","lat":39.87904,"lon":66.75055},{"name":"Mang‘it Shahri","country":"UZ","lat":42.12215,"lon":60.06276},{"name":"Manghit","country":"UZ","lat":42.11556,"lon":60.05972},{"name":"Marg‘ilon","country":"UZ","lat":40.47237,"lon":71.72463},{"name":"Marhamat","country":"UZ","lat":40.50236,"lon":72.32646},{"name":"Marhamat","country":"UZ","lat":40.48048,"lon":72.31388},{"name":"Mo‘ynoq Shahri","country":"UZ","lat":43.77877,"lon":59.03039},{"name":"Muborak","country":"UZ","lat":39.25528,"lon":65.15278},{"name":"Muborak Shahri","country":"UZ","lat":39.25778,"lon":65.15674},{"name":"Mug‘lon Shahar","country":"UZ","lat":38.91878,"lon":65.41217},{"name":"Mŭynoq","country":"UZ","lat":43.76833,"lon":59.02139},{"name":"Namangan","country":"UZ","lat":40.9983,"lon":71.67257},{"name":"Navbahor","country":"UZ","lat":40.48104,"lon":70.77093},{"name":"Navoiy","country":"UZ","lat":40.08444,"lon":65.37917},{"name":"Nishon Tumani","country":"UZ","lat":38.69395,"lon":65.67512},{"name":"Novyy Turtkul’","country":"UZ","lat":41.55,"lon":61.01667},{"name":"Nukus","country":"UZ","lat":42.45306,"lon":59.61028},{"name":"Nurobod Shahri","country":"UZ","lat":39.60861,"lon":66.28667},{"name":"Nurota","country":"UZ","lat":40.56139,"lon":65.68861},{"name":"Nurota Shahri","country":"UZ","lat":40.56762,"lon":65.67947},{"name":"Ohangaron","country":"UZ","lat":40.90639,"lon":69.63833},{"name":"Olmaliq","country":"UZ","lat":40.84472,"lon":69.59833},{"name":"Olot Shahri","country":"UZ","lat":39.415,"lon":63.80333},{"name":"Oltiariq","country":"UZ","lat":40.39194,"lon":71.47417},{"name":"Oltinko‘l","country":"UZ","lat":43.06874,"lon":58.90372},{"name":"Oltinko‘l","country":"UZ","lat":40.80104,"lon":72.17306},{"name":"Oqmang‘it","country":"UZ","lat":42.59889,"lon":59.53444},{"name":"Oqoltin","country":"UZ","lat":40.74649,"lon":71.70031},{"name":"Oqqo‘rg‘on","country":"UZ","lat":40.8775,"lon":69.04583},{"name":"Oqtosh","country":"UZ","lat":39.92139,"lon":65.92528},{"name":"Oqtosh Shahri","country":"UZ","lat":39.92675,"lon":65.92953},{"name":"Oxunboboyev","country":"UZ","lat":40.71984,"lon":72.64282},{"name":"Oyim","country":"UZ","lat":40.81955,"lon":72.74234},{"name":"Parkent","country":"UZ","lat":41.29444,"lon":69.67639},{"name":"Paxtakor Shahri","country":"UZ","lat":40.31181,"lon":67.95667},{"name":"Paxtaobod","country":"UZ","lat":40.92936,"lon":72.49687},{"name":"Payariq Shahri","country":"UZ","lat":39.99249,"lon":66.85012},{"name":"Payshamba Shahri","country":"UZ","lat":40.01136,"lon":66.23113},{"name":"Piskent","country":"UZ","lat":40.89722,"lon":69.35056},{"name":"Pop","country":"UZ","lat":40.87361,"lon":71.10889},{"name":"Pop Shahri","country":"UZ","lat":40.87642,"lon":71.1022},{"name":"Poytug‘","country":"UZ","lat":40.8977,"lon":72.2449},{"name":"Qamashi Shahri","country":"UZ","lat":38.81998,"lon":66.46441},{"name":"Qanliko‘l","country":"UZ","lat":42.8395,"lon":59.00093},{"name":"Qarshi","country":"UZ","lat":38.86056,"lon":65.78905},{"name":"Qibray","country":"UZ","lat":41.38972,"lon":69.465},{"name":"Qizilcha","country":"UZ","lat":40.7107,"lon":66.13671},{"name":"Qiziltepa","country":"UZ","lat":40.03306,"lon":64.85},{"name":"Qiziltepa Shahri","country":"UZ","lat":40.0254,"lon":64.82885},{"name":"Qo‘ng‘irot Shahri","country":"UZ","lat":43.05207,"lon":58.84596},{"name":"Qo‘qon","country":"UZ","lat":40.52861,"lon":70.9425},{"name":"Qo‘rg‘ontepa","country":"UZ","lat":40.73192,"lon":72.76177},{"name":"Qo’shko’pir","country":"UZ","lat":41.53275,"lon":60.34698},{"name":"Qo’shrabod","country":"UZ","lat":40.25363,"lon":66.68849},{"name":"Qorako‘l Shahri","country":"UZ","lat":39.50699,"lon":63.84884},{"name":"Qorao‘zak","country":"UZ","lat":43.02207,"lon":60.01701},{"name":"Qorashina","country":"UZ","lat":38.34185,"lon":66.56342},{"name":"Qorasuv","country":"UZ","lat":40.72782,"lon":72.88577},{"name":"Qorovul","country":"UZ","lat":41.55384,"lon":60.58232},{"name":"Qorovulbozor","country":"UZ","lat":39.50056,"lon":64.79361},{"name":"Qorovulbozor Shahri","country":"UZ","lat":39.50308,"lon":64.81142},{"name":"Qozonketkan","country":"UZ","lat":43.01907,"lon":59.36425},{"name":"Qŭnghirot","country":"UZ","lat":43.04333,"lon":58.83944},{"name":"Quva","country":"UZ","lat":40.52204,"lon":72.07292},{"name":"Quvasoy","country":"UZ","lat":40.29721,"lon":71.98026},{"name":"Ravon","country":"UZ","lat":39.97724,"lon":71.13467},{"name":"Rishton","country":"UZ","lat":40.35667,"lon":71.28472},{"name":"Romitan Shahri","country":"UZ","lat":39.92944,"lon":64.37944},{"name":"Salor","country":"UZ","lat":41.37222,"lon":69.38167},{"name":"Samarkand","country":"UZ","lat":39.65417,"lon":66.95972},{"name":"Shahrisabz","country":"UZ","lat":39.05778,"lon":66.83417},{"name":"Shahrisabz Shahri","country":"UZ","lat":39.05206,"lon":66.82083},{"name":"Shahrixon","country":"UZ","lat":40.71331,"lon":72.05706},{"name":"Sho‘rchi","country":"UZ","lat":37.99944,"lon":67.7875},{"name":"Sho‘rsuv","country":"UZ","lat":40.28431,"lon":70.79972},{"name":"Shofirkon Shahri","country":"UZ","lat":40.12,"lon":64.50139},{"name":"Shohimardon","country":"UZ","lat":39.98322,"lon":71.80512},{"name":"Shovot","country":"UZ","lat":41.65817,"lon":60.29451},{"name":"Shumanay","country":"UZ","lat":42.64281,"lon":58.91345},{"name":"Shumanay Shahri","country":"UZ","lat":42.63433,"lon":58.9306},{"name":"Sirdaryo","country":"UZ","lat":40.84361,"lon":68.66167},{"name":"Sultonobod","country":"UZ","lat":40.76461,"lon":72.97647},{"name":"Tashkent","country":"UZ","lat":41.26465,"lon":69.21627},{"name":"Taxtako‘pir","country":"UZ","lat":43.01171,"lon":60.30111},{"name":"Tinchlik","country":"UZ","lat":40.47591,"lon":71.55089},{"name":"Tirmiz","country":"UZ","lat":37.22417,"lon":67.27833},{"name":"To‘rqao‘rg‘on","country":"UZ","lat":40.99984,"lon":71.51162},{"name":"To‘rtko‘l Shahri","country":"UZ","lat":41.56055,"lon":61.0018},{"name":"Tomdibuloq","country":"UZ","lat":41.7508,"lon":64.61711},{"name":"Toshbuloq","country":"UZ","lat":40.91617,"lon":71.57819},{"name":"Toshloq","country":"UZ","lat":40.47722,"lon":71.76778},{"name":"Toyloq Qishlog’i","country":"UZ","lat":39.60139,"lon":67.09083},{"name":"Tŭragŭrghon Shahri","country":"UZ","lat":41.00334,"lon":71.51056},{"name":"Tŭytepa","country":"UZ","lat":41.0321,"lon":69.36253},{"name":"Uchko‘prik","country":"UZ","lat":40.54222,"lon":71.06083},{"name":"Uchkuduk","country":"UZ","lat":41.05,"lon":62.78333},{"name":"Uchquduq Shahri","country":"UZ","lat":42.15001,"lon":63.55221},{"name":"Uchqŭrghon Shahri","country":"UZ","lat":41.11371,"lon":72.07915},{"name":"Uchtepa Qishlog’i","country":"UZ","lat":40.20447,"lon":67.90396},{"name":"Urganch","country":"UZ","lat":41.55339,"lon":60.62057},{"name":"Urgut Shahri","country":"UZ","lat":39.41902,"lon":67.26118},{"name":"Ŭrtaowul","country":"UZ","lat":41.18667,"lon":69.14528},{"name":"Usmat Shaharchasi","country":"UZ","lat":39.73982,"lon":67.6479},{"name":"Uychi","country":"UZ","lat":41.08073,"lon":71.92331},{"name":"Vobkent Shahri","country":"UZ","lat":40.00033,"lon":64.50213},{"name":"Vodil","country":"UZ","lat":40.17424,"lon":71.73013},{"name":"Xiva","country":"UZ","lat":41.38555,"lon":60.36408},{"name":"Xo‘jaobod","country":"UZ","lat":40.66886,"lon":72.56002},{"name":"Xo‘jayli Shahri","country":"UZ","lat":42.40881,"lon":59.44544},{"name":"Xonobod","country":"UZ","lat":40.8026,"lon":72.97499},{"name":"Xonqa","country":"UZ","lat":41.47783,"lon":60.78146},{"name":"Yakkabog‘ Shahri","country":"UZ","lat":38.97664,"lon":66.68867},{"name":"Yangi Marg‘ilon","country":"UZ","lat":40.42722,"lon":71.71889},{"name":"Yangi Mirishkor","country":"UZ","lat":38.85143,"lon":65.27789},{"name":"Yangi-Nishon Shahri","country":"UZ","lat":38.64501,"lon":65.68952},{"name":"Yangiariq","country":"UZ","lat":41.36583,"lon":60.60438},{"name":"Yangibozor","country":"UZ","lat":41.71157,"lon":60.53394},{"name":"Yangibozor Qishlog’i","country":"UZ","lat":40.03839,"lon":64.38587},{"name":"Yangiobod","country":"UZ","lat":41.11919,"lon":70.09406},{"name":"Yangiqo‘rg‘on","country":"UZ","lat":41.19474,"lon":71.72385},{"name":"Yangirabot","country":"UZ","lat":40.02539,"lon":65.96095},{"name":"Yangiyer","country":"UZ","lat":40.275,"lon":68.8225},{"name":"Yangiyŭl","country":"UZ","lat":41.11202,"lon":69.0471},{"name":"Yaypan","country":"UZ","lat":40.37583,"lon":70.81556},{"name":"Yozyovon","country":"UZ","lat":40.66139,"lon":71.74361},{"name":"Zafar","country":"UZ","lat":40.98333,"lon":68.9},{"name":"Zafarobod Shaharchasi","country":"UZ","lat":40.38903,"lon":67.82169},{"name":"Zarbdor Shaharchasi","country":"UZ","lat":40.08083,"lon":68.16454},{"name":"Ziyodin Shaharchasi","country":"UZ","lat":40.03106,"lon":65.66619},{"name":"Zomin Shaharchasi","country":"UZ","lat":39.96056,"lon":68.39583}]