[{"name":"A Lưới","country":"VN","lat":16.27228,"lon":107.23385},{"name":"A Yun Pa","country":"VN","lat":13.40025,"lon":108.43503},{"name":"Ái Tử","country":"VN","lat":16.76886,"lon":107.16504},{"name":"An Bá","country":"VN","lat":14.98333,"lon":108.85},{"name":"An Biên","country":"VN","lat":9.81532,"lon":105.06366},{"name":"An Châu","country":"VN","lat":21.33465,"lon":106.84934},{"name":"An Châu","country":"VN","lat":10.44559,"lon":105.38622},{"name":"An Dương","country":"VN","lat":20.86382,"lon":106.6133},{"name":"An Hà","country":"VN","lat":15.58333,"lon":108.48333},{"name":"An Hòa","country":"VN","lat":10.29693,"lon":105.74435},{"name":"An Lão","country":"VN","lat":14.61241,"lon":108.8899},{"name":"An Lão","country":"VN","lat":20.82294,"lon":106.55575},{"name":"An Nhơn","country":"VN","lat":13.88579,"lon":109.10823},{"name":"An Phú","country":"VN","lat":10.81591,"lon":105.09038},{"name":"Ân Thi","country":"VN","lat":20.81835,"lon":106.09118},{"name":"Anh Son","country":"VN","lat":18.96961,"lon":105.05505},{"name":"Ấp Tân Ngãi","country":"VN","lat":10.23333,"lon":106.28333},{"name":"Ba Đồn","country":"VN","lat":17.75353,"lon":106.42355},{"name":"Ba Tơ","country":"VN","lat":14.7636,"lon":108.73223},{"name":"Ba Tri","country":"VN","lat":10.04427,"lon":106.5902},{"name":"Bác Ái","country":"VN","lat":11.84104,"lon":108.90316},{"name":"Bắc Giang","country":"VN","lat":21.27307,"lon":106.1946},{"name":"Bắc Hà","country":"VN","lat":22.53911,"lon":104.29305},{"name":"Bắc Kạn","country":"VN","lat":22.14701,"lon":105.83481},{"name":"Bạc Liêu","country":"VN","lat":9.29414,"lon":105.72776},{"name":"Bắc Ninh","country":"VN","lat":21.18608,"lon":106.07631},{"name":"Bắc Sơn","country":"VN","lat":21.89999,"lon":106.32077},{"name":"Bắc Yên","country":"VN","lat":21.24626,"lon":104.43281},{"name":"Bẩn Yên Nhân","country":"VN","lat":20.93653,"lon":106.05711},{"name":"Bằng Lũng","country":"VN","lat":22.15777,"lon":105.59559},{"name":"Bảo Lộc","country":"VN","lat":11.54798,"lon":107.80772},{"name":"Bát Xát","country":"VN","lat":22.54311,"lon":103.88989},{"name":"Bến Cầu","country":"VN","lat":11.11051,"lon":106.17924},{"name":"Bến Sung","country":"VN","lat":19.63141,"lon":105.57815},{"name":"Bến Tre","country":"VN","lat":10.24147,"lon":106.37585},{"name":"Bích Động","country":"VN","lat":21.27421,"lon":106.10069},{"name":"Biên Hòa","country":"VN","lat":10.94469,"lon":106.82432},{"name":"Bỉm Sơn","country":"VN","lat":20.07806,"lon":105.86028},{"name":"Bình Đại","country":"VN","lat":10.18964,"lon":106.69149},{"name":"Bình Gia","country":"VN","lat":21.96094,"lon":106.36448},{"name":"Bình Long","country":"VN","lat":11.64711,"lon":106.60586},{"name":"Bình Minh","country":"VN","lat":10.06821,"lon":105.82221},{"name":"Bình Mỹ","country":"VN","lat":20.49121,"lon":106.00955},{"name":"Bình Sơn","country":"VN","lat":15.29776,"lon":108.76124},{"name":"Bình Thủy","country":"VN","lat":10.07431,"lon":105.73974},{"name":"Bo","country":"VN","lat":20.67264,"lon":105.53625},{"name":"Bộc Bố","country":"VN","lat":22.61206,"lon":105.66707},{"name":"Bồng Sơn","country":"VN","lat":14.42907,"lon":109.0156},{"name":"Bù Đốp","country":"VN","lat":11.95486,"lon":106.80018},{"name":"Buôn Hồ","country":"VN","lat":12.95226,"lon":108.2962},{"name":"Buôn Ma Thuột","country":"VN","lat":12.66747,"lon":108.03775},{"name":"Buôn Trấp","country":"VN","lat":12.48478,"lon":108.02982},{"name":"Bút Sơn","country":"VN","lat":19.85797,"lon":105.85482},{"name":"Cà Mau","country":"VN","lat":9.17682,"lon":105.15242},{"name":"Cái Dầu","country":"VN","lat":10.56982,"lon":105.22953},{"name":"Cái Đôi Vàm","country":"VN","lat":8.85707,"lon":104.81199},{"name":"Cái Nhum","country":"VN","lat":10.17412,"lon":106.11051},{"name":"Cái Nước","country":"VN","lat":8.94231,"lon":105.01411},{"name":"Cái Răng","country":"VN","lat":10.0009,"lon":105.75095},{"name":"Cái Tàu Hạ","country":"VN","lat":10.25973,"lon":105.87044},{"name":"Cam Lâm","country":"VN","lat":12.05398,"lon":109.16004},{"name":"Cẩm Lệ","country":"VN","lat":16.01771,"lon":108.20381},{"name":"Cam Lộ","country":"VN","lat":16.80797,"lon":106.99405},{"name":"Cẩm Phả","country":"VN","lat":21.01004,"lon":107.27345},{"name":"Cẩm Phả Mines","country":"VN","lat":21.01667,"lon":107.3},{"name":"Cam Ranh","country":"VN","lat":11.92144,"lon":109.15913},{"name":"Cẩm Thủy","country":"VN","lat":20.20866,"lon":105.4695},{"name":"Cẩm Xuyên","country":"VN","lat":18.25029,"lon":106.00132},{"name":"Cần Đước","country":"VN","lat":10.50966,"lon":106.60308},{"name":"Cần Giờ","country":"VN","lat":10.41115,"lon":106.95474},{"name":"Cần Giuộc","country":"VN","lat":10.60857,"lon":106.67135},{"name":"Cần Thơ","country":"VN","lat":10.03711,"lon":105.78825},{"name":"Cành Nàng","country":"VN","lat":20.34803,"lon":105.22881},{"name":"Cao Bằng","country":"VN","lat":22.66568,"lon":106.25786},{"name":"Cao Lãnh","country":"VN","lat":10.46017,"lon":105.63294},{"name":"Cao Phong","country":"VN","lat":20.70446,"lon":105.32063},{"name":"Cao Thượng","country":"VN","lat":21.38707,"lon":106.12931},{"name":"Cát Bà","country":"VN","lat":20.72779,"lon":107.04819},{"name":"Cầu Diễn","country":"VN","lat":21.03929,"lon":105.76659},{"name":"Cầu Giát","country":"VN","lat":19.146,"lon":105.63089},{"name":"Cầu Giấy","country":"VN","lat":21.03228,"lon":105.80073},{"name":"Cầu Gồ","country":"VN","lat":21.47679,"lon":106.12653},{"name":"Cầu Kè","country":"VN","lat":9.8724,"lon":106.05497},{"name":"Châu Đốc","country":"VN","lat":10.7,"lon":105.11667},{"name":"Châu Thành","country":"VN","lat":9.86989,"lon":106.34939},{"name":"Châu Thành","country":"VN","lat":11.31167,"lon":106.0295},{"name":"Châu Thành","country":"VN","lat":10.30122,"lon":106.35701},{"name":"Châu Thành","country":"VN","lat":9.7007,"lon":105.90202},{"name":"Chí Linh","country":"VN","lat":21.06667,"lon":106.31667},{"name":"Chi Nê","country":"VN","lat":20.49056,"lon":105.778},{"name":"Chí Thạnh","country":"VN","lat":13.30845,"lon":109.21522},{"name":"Chờ","country":"VN","lat":21.19491,"lon":105.95471},{"name":"Chợ Chu","country":"VN","lat":21.90724,"lon":105.64219},{"name":"Chợ Gạo","country":"VN","lat":10.34984,"lon":106.4634},{"name":"Chợ Lách","country":"VN","lat":10.26032,"lon":106.11892},{"name":"Chợ Lầu","country":"VN","lat":11.22158,"lon":108.50707},{"name":"Chợ Mới","country":"VN","lat":21.88374,"lon":105.77281},{"name":"Chợ Mới","country":"VN","lat":10.55123,"lon":105.40441},{"name":"Chơn Thành","country":"VN","lat":11.42821,"lon":106.63536},{"name":"Chũ","country":"VN","lat":21.37379,"lon":106.56649},{"name":"Chư Prông","country":"VN","lat":13.75684,"lon":107.88624},{"name":"Chư Sê","country":"VN","lat":13.69153,"lon":108.08023},{"name":"Chư Ty","country":"VN","lat":13.80507,"lon":107.6961},{"name":"Chùa Hang","country":"VN","lat":21.62384,"lon":105.84168},{"name":"Chúc Sơn","country":"VN","lat":20.92375,"lon":105.70155},{"name":"Cờ Đỏ","country":"VN","lat":10.09377,"lon":105.42916},{"name":"Cổ Lễ","country":"VN","lat":20.32336,"lon":106.26584},{"name":"Cổ Lóa","country":"VN","lat":21.11667,"lon":105.86667},{"name":"Cổ Phúc","country":"VN","lat":21.75585,"lon":104.82768},{"name":"Cô Tô","country":"VN","lat":20.97268,"lon":107.76578},{"name":"Con Cuông","country":"VN","lat":19.04996,"lon":104.88124},{"name":"Côn Sơn","country":"VN","lat":8.68641,"lon":106.60824},{"name":"Củ Chi","country":"VN","lat":10.97333,"lon":106.49325},{"name":"Cù Lao Dung","country":"VN","lat":9.67314,"lon":106.14874},{"name":"Cung Kiệm","country":"VN","lat":21.18697,"lon":106.16076},{"name":"Củng Sơn","country":"VN","lat":13.04998,"lon":108.97895},{"name":"Đà Bắc","country":"VN","lat":20.87714,"lon":105.25417},{"name":"Ðà Lạt","country":"VN","lat":11.94646,"lon":108.44193},{"name":"Da Nang","country":"VN","lat":16.06778,"lon":108.22083},{"name":"Đạ Tẻh","country":"VN","lat":11.51148,"lon":107.49092},{"name":"Đại Cường","country":"VN","lat":15.85,"lon":108.08333},{"name":"Đại Đồng","country":"VN","lat":15.87439,"lon":108.02133},{"name":"Đại Lộc","country":"VN","lat":15.88214,"lon":108.12092},{"name":"Đại Nghĩa","country":"VN","lat":20.68667,"lon":105.74471},{"name":"Đại Nghĩa","country":"VN","lat":15.87901,"lon":108.08903},{"name":"Đại Quang","country":"VN","lat":15.86667,"lon":108.05},{"name":"Đại Tân","country":"VN","lat":15.83333,"lon":108.05},{"name":"Đăk Đoa","country":"VN","lat":13.99501,"lon":108.11207},{"name":"Đắk Glei","country":"VN","lat":15.08642,"lon":107.73577},{"name":"Đắk Hà","country":"VN","lat":14.51345,"lon":107.92102},{"name":"Đắk Mâm","country":"VN","lat":12.45789,"lon":107.86246},{"name":"Đắk Mil","country":"VN","lat":12.44957,"lon":107.62237},{"name":"Đắk Rve","country":"VN","lat":14.50717,"lon":108.2473},{"name":"Đắk Song","country":"VN","lat":12.25518,"lon":107.60924},{"name":"Đắk Tô","country":"VN","lat":14.66092,"lon":107.8389},{"name":"Đầm Dơi","country":"VN","lat":8.99214,"lon":105.19602},{"name":"Dầu Tiếng","country":"VN","lat":11.2741,"lon":106.35879},{"name":"Dĩ An","country":"VN","lat":10.90682,"lon":106.7694},{"name":"Di Linh","country":"VN","lat":11.58153,"lon":108.07641},{"name":"Diêm Điền","country":"VN","lat":20.55832,"lon":106.56882},{"name":"Điện Bàn","country":"VN","lat":15.88853,"lon":108.25447},{"name":"Điện Biên Đông","country":"VN","lat":21.29673,"lon":103.22009},{"name":"Dien Bien Phu","country":"VN","lat":21.38602,"lon":103.02301},{"name":"Diễn Châu","country":"VN","lat":18.97652,"lon":105.60034},{"name":"Diên Khánh","country":"VN","lat":12.2549,"lon":109.09332},{"name":"Đình Lập","country":"VN","lat":21.54633,"lon":107.09812},{"name":"Đinh Văn","country":"VN","lat":11.78624,"lon":108.24282},{"name":"Đố Sơn","country":"VN","lat":20.71361,"lon":106.78944},{"name":"Đoan Hùng","country":"VN","lat":21.62254,"lon":105.18462},{"name":"Đồi Ngô","country":"VN","lat":21.30626,"lon":106.38673},{"name":"Đông Anh","country":"VN","lat":21.13962,"lon":105.84926},{"name":"Đống Đa","country":"VN","lat":21.02009,"lon":105.83097},{"name":"Ðông Hà","country":"VN","lat":16.81625,"lon":107.10031},{"name":"Đồng Hới","country":"VN","lat":17.46885,"lon":106.62226},{"name":"Đông Hưng","country":"VN","lat":20.55651,"lon":106.35532},{"name":"Đồng Lê","country":"VN","lat":17.88389,"lon":106.02536},{"name":"Đồng Mỏ","country":"VN","lat":21.65701,"lon":106.57832},{"name":"Đồng Nai","country":"VN","lat":11.57981,"lon":107.36518},{"name":"Đông Thành","country":"VN","lat":10.89221,"lon":106.30614},{"name":"Đồng Xoài","country":"VN","lat":11.53495,"lon":106.88324},{"name":"Đồng Xuân","country":"VN","lat":13.37732,"lon":109.10807},{"name":"Đu","country":"VN","lat":21.73847,"lon":105.70388},{"name":"Đức Phổ","country":"VN","lat":14.81355,"lon":108.95931},{"name":"Đức Phong","country":"VN","lat":11.81346,"lon":107.24433},{"name":"Đức Thọ","country":"VN","lat":18.53957,"lon":105.58302},{"name":"Đưc Trọng","country":"VN","lat":11.73559,"lon":108.3733},{"name":"Dương Đông","country":"VN","lat":10.21716,"lon":103.95929},{"name":"Dương Minh Châu","country":"VN","lat":11.38414,"lon":106.23078},{"name":"Duy Xuyên","country":"VN","lat":15.82898,"lon":108.25956},{"name":"Duyên Hải","country":"VN","lat":9.63497,"lon":106.49237},{"name":"Ea Drăng","country":"VN","lat":13.2045,"lon":108.21029},{"name":"Ea Kar","country":"VN","lat":12.80816,"lon":108.44901},{"name":"Ea Súp","country":"VN","lat":13.06616,"lon":107.88546},{"name":"Ea T’ling","country":"VN","lat":12.58904,"lon":107.89578},{"name":"Gia Bình","country":"VN","lat":21.05938,"lon":106.17468},{"name":"Gia Lộc","country":"VN","lat":20.86783,"lon":106.3},{"name":"Gia Nghĩa","country":"VN","lat":12.00423,"lon":107.69074},{"name":"Gia Ray","country":"VN","lat":10.92615,"lon":107.40172},{"name":"Gio Linh","country":"VN","lat":16.9248,"lon":107.08438},{"name":"Giồng Riềng","country":"VN","lat":9.90974,"lon":105.31433},{"name":"Giồng Trôm","country":"VN","lat":10.15021,"lon":106.50606},{"name":"Gò Công","country":"VN","lat":10.36667,"lon":106.66667},{"name":"Gò Dầu","country":"VN","lat":11.0885,"lon":106.26346},{"name":"Gò Quao","country":"VN","lat":9.7332,"lon":105.27393},{"name":"Gôi","country":"VN","lat":20.33335,"lon":106.07826},{"name":"Hà Đông","country":"VN","lat":20.97136,"lon":105.77876},{"name":"Hà Giang","country":"VN","lat":22.82333,"lon":104.98357},{"name":"Hạ Hòa","country":"VN","lat":21.56302,"lon":105.00512},{"name":"Hà Lam","country":"VN","lat":15.73871,"lon":108.35062},{"name":"Hạ Long","country":"VN","lat":20.95045,"lon":107.07336},{"name":"Hà Tiên","country":"VN","lat":10.3831,"lon":104.48753},{"name":"Hà Tĩnh","country":"VN","lat":18.34282,"lon":105.90569},{"name":"Hà Trung","country":"VN","lat":20.01285,"lon":105.85322},{"name":"Hai BàTrưng","country":"VN","lat":21.01341,"lon":105.84772},{"name":"Hải Dương","country":"VN","lat":20.94099,"lon":106.33302},{"name":"Hải Lăng","country":"VN","lat":16.69347,"lon":107.25124},{"name":"Hai Riêng","country":"VN","lat":12.97908,"lon":108.89732},{"name":"Haiphong","country":"VN","lat":20.86481,"lon":106.68345},{"name":"Hàng Trạm","country":"VN","lat":20.39472,"lon":105.6224},{"name":"Hanoi","country":"VN","lat":21.0245,"lon":105.84117},{"name":"Hanoi","country":"VN","lat":20.32773,"lon":106.01208},{"name":"Hát Lót","country":"VN","lat":21.19733,"lon":104.10595},{"name":"Hậu Lộc","country":"VN","lat":19.91444,"lon":105.88615},{"name":"Hậu Nghĩa","country":"VN","lat":10.89434,"lon":106.39695},{"name":"Hiệp Đức","country":"VN","lat":15.58224,"lon":108.11422},{"name":"Hồ","country":"VN","lat":21.06308,"lon":106.0857},{"name":"Ho Chi Minh City","country":"VN","lat":10.82302,"lon":106.62965},{"name":"Hồ Xá","country":"VN","lat":17.06836,"lon":107.0052},{"name":"Hòa Bình","country":"VN","lat":19.26393,"lon":104.47232},{"name":"Hòa Bình","country":"VN","lat":20.81717,"lon":105.33759},{"name":"Hòa Mạc","country":"VN","lat":20.64173,"lon":105.989},{"name":"Hòa Thành","country":"VN","lat":11.28696,"lon":106.12936},{"name":"Hòa Vang","country":"VN","lat":15.98764,"lon":108.13893},{"name":"Hoài Ân","country":"VN","lat":14.36352,"lon":108.96476},{"name":"Hoàn Kiếm","country":"VN","lat":21.02857,"lon":105.85064},{"name":"Hoàn Lão","country":"VN","lat":17.58436,"lon":106.53425},{"name":"Hoàng Sa","country":"VN","lat":16.66657,"lon":112.72541},{"name":"Hoàng Sa","country":"VN","lat":16.83517,"lon":112.33873},{"name":"Hóc Môn","country":"VN","lat":10.8891,"lon":106.59533},{"name":"Hoi An","country":"VN","lat":15.87944,"lon":108.335},{"name":"Hòn Đất","country":"VN","lat":10.18462,"lon":104.92959},{"name":"Hợp Hòa","country":"VN","lat":21.37525,"lon":105.54256},{"name":"Huế","country":"VN","lat":16.4619,"lon":107.59546},{"name":"Hưng Hà","country":"VN","lat":20.5904,"lon":106.22445},{"name":"Hưng Hóa","country":"VN","lat":21.25487,"lon":105.2953},{"name":"Hưng Nguyên","country":"VN","lat":18.67165,"lon":105.62882},{"name":"Hưng Yên","country":"VN","lat":20.64637,"lon":106.05112},{"name":"Hương Canh","country":"VN","lat":21.27882,"lon":105.64697},{"name":"Hương Khê","country":"VN","lat":18.17669,"lon":105.70019},{"name":"Hương Sơn","country":"VN","lat":21.46014,"lon":105.97814},{"name":"Hương Trà","country":"VN","lat":16.52539,"lon":107.4755},{"name":"Hữu Lũng","country":"VN","lat":21.5056,"lon":106.34459},{"name":"Huyện Bảo Lâm","country":"VN","lat":11.69958,"lon":107.76252},{"name":"Huyện Lâm Hà","country":"VN","lat":11.81554,"lon":108.21444},{"name":"Huỳnh Hữu Nghĩa","country":"VN","lat":9.63537,"lon":105.81165},{"name":"Ia Kha","country":"VN","lat":13.96242,"lon":107.84484},{"name":"Ia Pa","country":"VN","lat":13.53361,"lon":108.45529},{"name":"Ít Ong","country":"VN","lat":21.5175,"lon":104.02701},{"name":"K Bang","country":"VN","lat":14.14453,"lon":108.59908},{"name":"Kế Sách","country":"VN","lat":9.76743,"lon":105.98574},{"name":"Kẻ Sặt","country":"VN","lat":20.91007,"lon":106.14771},{"name":"Kép","country":"VN","lat":21.4,"lon":106.26667},{"name":"Khâm Đức","country":"VN","lat":15.44508,"lon":107.79337},{"name":"Khánh Hải","country":"VN","lat":11.59105,"lon":109.04052},{"name":"Khánh Vĩnh","country":"VN","lat":12.28355,"lon":108.9047},{"name":"Khe Sanh","country":"VN","lat":16.62825,"lon":106.73884},{"name":"Khe Tre","country":"VN","lat":16.1691,"lon":107.71793},{"name":"Khoái Châu","country":"VN","lat":20.83912,"lon":105.97755},{"name":"Kiến Giang","country":"VN","lat":17.22328,"lon":106.79011},{"name":"Kiên Lương","country":"VN","lat":10.28624,"lon":104.64616},{"name":"Kim Bài","country":"VN","lat":20.85265,"lon":105.76963},{"name":"Kim Sơn","country":"VN","lat":19.60409,"lon":104.91903},{"name":"Kim Tân","country":"VN","lat":20.13053,"lon":105.67454},{"name":"Kinh Môn","country":"VN","lat":20.98962,"lon":106.5551},{"name":"Kon Dơng","country":"VN","lat":14.03886,"lon":108.25011},{"name":"Kon Tum","country":"VN","lat":14.35451,"lon":108.00759},{"name":"Kông Chro","country":"VN","lat":13.77532,"lon":108.52558},{"name":"Krông Klang","country":"VN","lat":16.68906,"lon":106.8874},{"name":"Krông Kmar","country":"VN","lat":12.5045,"lon":108.33288},{"name":"Krông Năng","country":"VN","lat":12.9517,"lon":108.34425},{"name":"Kỳ Anh","country":"VN","lat":18.06243,"lon":106.29832},{"name":"Kỳ Sơn","country":"VN","lat":20.88668,"lon":105.35244},{"name":"La Gi","country":"VN","lat":10.65993,"lon":107.77206},{"name":"Lạc Dương","country":"VN","lat":12.00405,"lon":108.41905},{"name":"Lai Cách","country":"VN","lat":20.93252,"lon":106.24756},{"name":"Lai Châu","country":"VN","lat":22.39644,"lon":103.45824},{"name":"Lái Thiêu","country":"VN","lat":10.90512,"lon":106.69949},{"name":"Lắk","country":"VN","lat":12.41086,"lon":108.17682},{"name":"Lâm Thao","country":"VN","lat":21.3201,"lon":105.29156},{"name":"Lang Chánh","country":"VN","lat":20.15611,"lon":105.24223},{"name":"Lạng Sơn","country":"VN","lat":21.85264,"lon":106.76101},{"name":"Láng Thượng","country":"VN","lat":21.02374,"lon":105.8036},{"name":"Lào Cai","country":"VN","lat":22.48556,"lon":103.97066},{"name":"Lao Chải","country":"VN","lat":22.31377,"lon":103.86844},{"name":"Lập Thạch","country":"VN","lat":21.41539,"lon":105.46081},{"name":"Lấp Vò","country":"VN","lat":10.36161,"lon":105.51924},{"name":"Liên Chiểu","country":"VN","lat":16.07272,"lon":108.15815},{"name":"Liên Hương","country":"VN","lat":11.22761,"lon":108.72366},{"name":"Liên Quan","country":"VN","lat":21.05723,"lon":105.57919},{"name":"Liễu Đề","country":"VN","lat":20.22095,"lon":106.18747},{"name":"Lim","country":"VN","lat":21.14388,"lon":106.02018},{"name":"Lộc Bình","country":"VN","lat":21.75873,"lon":106.92335},{"name":"Lộc Ninh","country":"VN","lat":11.84476,"lon":106.59073},{"name":"Lộc Thắng","country":"VN","lat":11.62836,"lon":107.83508},{"name":"Long Hồ","country":"VN","lat":10.19281,"lon":106.01229},{"name":"Long Khánh","country":"VN","lat":10.92655,"lon":107.24783},{"name":"Long Mỹ","country":"VN","lat":9.68141,"lon":105.57226},{"name":"Long Phú","country":"VN","lat":9.61025,"lon":106.11881},{"name":"Long Thành","country":"VN","lat":10.78909,"lon":106.95029},{"name":"Long Xuyên","country":"VN","lat":10.38639,"lon":105.43518},{"name":"Lũng Hồ","country":"VN","lat":22.98479,"lon":105.23983},{"name":"Lương Bằng","country":"VN","lat":20.74003,"lon":106.05998},{"name":"Lương Sơn","country":"VN","lat":20.87148,"lon":105.52568},{"name":"Lý Sơn","country":"VN","lat":15.37198,"lon":109.11891},{"name":"M’Đrăk","country":"VN","lat":12.74624,"lon":108.74281},{"name":"Ma Đa Gui","country":"VN","lat":11.38702,"lon":107.53508},{"name":"Ma Lâm","country":"VN","lat":11.07297,"lon":108.12997},{"name":"Măng Đen","country":"VN","lat":14.60064,"lon":108.29088},{"name":"Me","country":"VN","lat":20.34697,"lon":105.83615},{"name":"Mê Linh","country":"VN","lat":21.1831,"lon":105.72041},{"name":"Minh Long","country":"VN","lat":14.93218,"lon":108.70328},{"name":"Minh Lương","country":"VN","lat":9.90248,"lon":105.1595},{"name":"Mỏ Cày","country":"VN","lat":10.13312,"lon":106.33519},{"name":"Mộ Đức","country":"VN","lat":14.95513,"lon":108.88586},{"name":"Mộc Châu","country":"VN","lat":20.85199,"lon":104.62177},{"name":"Móng Cái","country":"VN","lat":21.52471,"lon":107.96619},{"name":"Một Ngàn","country":"VN","lat":9.92402,"lon":105.62964},{"name":"Mù Cang Chải","country":"VN","lat":21.85125,"lon":104.08954},{"name":"Mường Ảng","country":"VN","lat":21.51993,"lon":103.22294},{"name":"Mường Chà","country":"VN","lat":21.76172,"lon":103.09783},{"name":"Mường Chiên","country":"VN","lat":21.8424,"lon":103.56608},{"name":"Mường Khến","country":"VN","lat":20.61441,"lon":105.27948},{"name":"Mường Lát","country":"VN","lat":20.52915,"lon":104.60138},{"name":"Mường Lay","country":"VN","lat":22,"lon":103.13333},{"name":"Mường Nhé","country":"VN","lat":22.19236,"lon":102.4579},{"name":"Mường Xén","country":"VN","lat":19.39795,"lon":104.15239},{"name":"Mỹ Lộc","country":"VN","lat":20.44111,"lon":106.10238},{"name":"Mỹ Phước","country":"VN","lat":10.47711,"lon":106.19256},{"name":"Mỹ Tho","country":"VN","lat":10.36004,"lon":106.35996},{"name":"Mỹ Thọ","country":"VN","lat":10.44267,"lon":105.69508},{"name":"Mỹ Xuyên","country":"VN","lat":9.56006,"lon":105.98984},{"name":"Năm Căn","country":"VN","lat":8.75899,"lon":104.99285},{"name":"Nam Đàn","country":"VN","lat":18.69799,"lon":105.49881},{"name":"Nam Định","country":"VN","lat":20.43389,"lon":106.17729},{"name":"Nam Giang","country":"VN","lat":20.33322,"lon":106.17754},{"name":"Nam Sách","country":"VN","lat":20.99205,"lon":106.33613},{"name":"Nàng Mau","country":"VN","lat":9.75129,"lon":105.53448},{"name":"Neo","country":"VN","lat":21.20048,"lon":106.24739},{"name":"Ngã Bảy","country":"VN","lat":9.81371,"lon":105.82096},{"name":"Ngã Sáu","country":"VN","lat":9.92303,"lon":105.80542},{"name":"Nga Sơn","country":"VN","lat":20.00722,"lon":105.97044},{"name":"Nghèn","country":"VN","lat":18.45119,"lon":105.77969},{"name":"Nghi Xuân","country":"VN","lat":18.66206,"lon":105.75575},{"name":"Nghĩa Hành","country":"VN","lat":15.04568,"lon":108.77724},{"name":"Nghĩa Lộ","country":"VN","lat":21.6,"lon":104.51667},{"name":"Ngô Đồng","country":"VN","lat":20.28296,"lon":106.44347},{"name":"Ngọc Hiển","country":"VN","lat":8.65724,"lon":105.06021},{"name":"Ngọc Lặc","country":"VN","lat":20.09189,"lon":105.36761},{"name":"Ngũ Hành Sơn","country":"VN","lat":16.01618,"lon":108.25335},{"name":"Nhà Bàng","country":"VN","lat":10.61772,"lon":105.00343},{"name":"Nhà Bè","country":"VN","lat":10.69672,"lon":106.74032},{"name":"Nha Trang","country":"VN","lat":12.24507,"lon":109.19432},{"name":"Nho Quan","country":"VN","lat":20.32279,"lon":105.75189},{"name":"Nhơn Trạch","country":"VN","lat":10.72294,"lon":106.88341},{"name":"Như Quỳnh","country":"VN","lat":20.98167,"lon":105.98486},{"name":"Ninh Bình","country":"VN","lat":20.25809,"lon":105.97965},{"name":"Ninh Giang","country":"VN","lat":20.73083,"lon":106.39789},{"name":"Ninh Hòa","country":"VN","lat":12.49187,"lon":109.12495},{"name":"Nông Cống","country":"VN","lat":19.62403,"lon":105.64941},{"name":"Núi Đèo","country":"VN","lat":20.91569,"lon":106.6744},{"name":"Núi Đối","country":"VN","lat":20.75078,"lon":106.66894},{"name":"Núi Sập","country":"VN","lat":10.26478,"lon":105.26676},{"name":"Núi Thành","country":"VN","lat":15.43194,"lon":108.65946},{"name":"Ô Chợ Dừa","country":"VN","lat":21.02146,"lon":105.82464},{"name":"Ô Môn","country":"VN","lat":10.10974,"lon":105.62318},{"name":"Pác Miầu","country":"VN","lat":22.82968,"lon":105.49334},{"name":"Phan Rang-Tháp Chàm","country":"VN","lat":11.56432,"lon":108.98858},{"name":"Phan Thiết","country":"VN","lat":10.92889,"lon":108.10208},{"name":"Phát Diệm","country":"VN","lat":20.09054,"lon":106.08323},{"name":"Phố Châu","country":"VN","lat":18.51335,"lon":105.42411},{"name":"Phong Châu","country":"VN","lat":21.4068,"lon":105.31228},{"name":"Phong Điền","country":"VN","lat":16.58321,"lon":107.36438},{"name":"Phong Điền","country":"VN","lat":9.99753,"lon":105.6673},{"name":"Phong Thổ","country":"VN","lat":22.54433,"lon":103.29776},{"name":"Phù Cát","country":"VN","lat":14.00316,"lon":109.05804},{"name":"Phú Hòa","country":"VN","lat":14.10005,"lon":107.96896},{"name":"Phú Khương","country":"VN","lat":11.28333,"lon":106.13333},{"name":"Phú Lộc","country":"VN","lat":9.42838,"lon":105.74111},{"name":"Phú Lộc","country":"VN","lat":16.28035,"lon":107.85898},{"name":"Phủ Lý","country":"VN","lat":20.54531,"lon":105.91221},{"name":"Phú Mỹ","country":"VN","lat":10.59236,"lon":105.35573},{"name":"Phù Mỹ","country":"VN","lat":14.17182,"lon":109.04888},{"name":"Phú Ninh","country":"VN","lat":15.55473,"lon":108.41142},{"name":"Phù Ninh","country":"VN","lat":21.08333,"lon":105.95},{"name":"Phú Phong","country":"VN","lat":13.90964,"lon":108.91903},{"name":"Phú Quốc","country":"VN","lat":10.28715,"lon":104.01047},{"name":"Phú Quý","country":"VN","lat":10.5166,"lon":108.93292},{"name":"Phú Thái","country":"VN","lat":20.96278,"lon":106.5095},{"name":"Phú Thọ","country":"VN","lat":21.39963,"lon":105.22221},{"name":"Phủ Thông","country":"VN","lat":22.27314,"lon":105.87943},{"name":"Phú Túc","country":"VN","lat":13.19682,"lon":108.69043},{"name":"Phú Vang","country":"VN","lat":16.43911,"lon":107.71438},{"name":"Phú Xuyên","country":"VN","lat":20.74549,"lon":105.91363},{"name":"Phù Yên","country":"VN","lat":21.26331,"lon":104.64439},{"name":"Phúc Sơn","country":"VN","lat":18.96667,"lon":105.05},{"name":"Phúc Thọ","country":"VN","lat":21.10345,"lon":105.54551},{"name":"Phúc Yên","country":"VN","lat":21.23695,"lon":105.70483},{"name":"Phùng","country":"VN","lat":21.08902,"lon":105.65901},{"name":"Phụng Hiệp","country":"VN","lat":9.77972,"lon":105.7338},{"name":"Phước An","country":"VN","lat":12.71298,"lon":108.30148},{"name":"Phước Dân","country":"VN","lat":11.52696,"lon":108.92996},{"name":"Plei Kần","country":"VN","lat":14.70495,"lon":107.6862},{"name":"Pleiku","country":"VN","lat":13.98333,"lon":108},{"name":"Prao","country":"VN","lat":15.92438,"lon":107.64814},{"name":"Quận Ba","country":"VN","lat":10.77494,"lon":106.68628},{"name":"Quận Bảy","country":"VN","lat":10.7118,"lon":106.73643},{"name":"Quận Bình Thạnh","country":"VN","lat":10.80325,"lon":106.69666},{"name":"Quận Bốn","country":"VN","lat":10.76684,"lon":106.70574},{"name":"Quận Chín","country":"VN","lat":10.8397,"lon":106.77093},{"name":"Quận Đức Thành","country":"VN","lat":10.25874,"lon":105.646},{"name":"Quận Đức Thịnh","country":"VN","lat":10.30989,"lon":105.73855},{"name":"Quận Hai","country":"VN","lat":10.79156,"lon":106.74948},{"name":"Quán Hành","country":"VN","lat":18.77927,"lon":105.64597},{"name":"Quán Hàu","country":"VN","lat":17.40438,"lon":106.64072},{"name":"Quan Hóa","country":"VN","lat":20.38481,"lon":105.10024},{"name":"Quán Lào","country":"VN","lat":19.97153,"lon":105.65106},{"name":"Quận Lấp Vò","country":"VN","lat":10.35554,"lon":105.58125},{"name":"Quận Một","country":"VN","lat":10.78069,"lon":106.69944},{"name":"Quận Mười","country":"VN","lat":10.76823,"lon":106.66632},{"name":"Quận Mười Một","country":"VN","lat":10.76383,"lon":106.64355},{"name":"Quận Năm","country":"VN","lat":10.75567,"lon":106.66745},{"name":"Quận Phú Nhuận","country":"VN","lat":10.79475,"lon":106.6763},{"name":"Quận Sáu","country":"VN","lat":10.7468,"lon":106.64903},{"name":"Quan Sơn","country":"VN","lat":20.25909,"lon":104.94521},{"name":"Quận Tân Phú","country":"VN","lat":10.78379,"lon":106.63704},{"name":"Quảng Hà","country":"VN","lat":21.4506,"lon":107.75592},{"name":"Quang Minh","country":"VN","lat":21.18884,"lon":105.77269},{"name":"Quảng Ngãi","country":"VN","lat":15.12047,"lon":108.79232},{"name":"Quảng Phú","country":"VN","lat":12.81965,"lon":108.07738},{"name":"Quảng Xương","country":"VN","lat":19.72948,"lon":105.78273},{"name":"Quảng Yên","country":"VN","lat":20.9421,"lon":106.8027},{"name":"Quế","country":"VN","lat":20.58064,"lon":105.87266},{"name":"Quế Sơn","country":"VN","lat":15.67356,"lon":108.2201},{"name":"Qui Nhon","country":"VN","lat":13.77648,"lon":109.22367},{"name":"Quốc Oai","country":"VN","lat":20.99019,"lon":105.64088},{"name":"Quỳ Châu","country":"VN","lat":19.55206,"lon":105.09387},{"name":"Quy Đạt","country":"VN","lat":17.80459,"lon":105.97044},{"name":"Quỳ Hợp","country":"VN","lat":19.32546,"lon":105.18251},{"name":"Quỳnh Côi","country":"VN","lat":20.66192,"lon":106.32744},{"name":"Rạch Giá","country":"VN","lat":10.01245,"lon":105.08091},{"name":"Rừng Thông","country":"VN","lat":19.81906,"lon":105.73279},{"name":"Sa Dec","country":"VN","lat":10.29085,"lon":105.75635},{"name":"Sa Pa","country":"VN","lat":22.34023,"lon":103.84415},{"name":"Sa Rài","country":"VN","lat":10.87016,"lon":105.46583},{"name":"Sa Thầy","country":"VN","lat":14.41377,"lon":107.79339},{"name":"Si Ma Cai","country":"VN","lat":22.6951,"lon":104.27857},{"name":"Sịa","country":"VN","lat":16.57452,"lon":107.51066},{"name":"Sóc Sơn","country":"VN","lat":21.25782,"lon":105.84894},{"name":"Sóc Trăng","country":"VN","lat":9.59995,"lon":105.97193},{"name":"Sơn Dương","country":"VN","lat":21.69676,"lon":105.39901},{"name":"Sơn Hà","country":"VN","lat":15.04193,"lon":108.46973},{"name":"Sơn La","country":"VN","lat":21.3256,"lon":103.91882},{"name":"Sơn Tây","country":"VN","lat":21.14053,"lon":105.50686},{"name":"Sơn Thịnh","country":"VN","lat":21.56252,"lon":104.5948},{"name":"Sơn Tịnh","country":"VN","lat":15.15856,"lon":108.79582},{"name":"Sơn Trà","country":"VN","lat":16.06068,"lon":108.23256},{"name":"Sông Cầu","country":"VN","lat":13.4556,"lon":109.22348},{"name":"Sông Mã","country":"VN","lat":21.05091,"lon":103.74987},{"name":"Sông Thao","country":"VN","lat":21.4213,"lon":105.13374},{"name":"Tam Bình","country":"VN","lat":10.04811,"lon":106.00017},{"name":"Tam Đảo","country":"VN","lat":21.39324,"lon":105.61441},{"name":"Tam Điệp","country":"VN","lat":20.15635,"lon":105.91737},{"name":"Tam Đường","country":"VN","lat":22.31812,"lon":103.62619},{"name":"Tam Kỳ","country":"VN","lat":15.57364,"lon":108.47403},{"name":"Tầm Vu","country":"VN","lat":10.44114,"lon":106.46793},{"name":"Tân An","country":"VN","lat":10.53589,"lon":106.41366},{"name":"Tân Biên","country":"VN","lat":11.54441,"lon":106.01161},{"name":"Tân Châu","country":"VN","lat":10.79832,"lon":105.23887},{"name":"Tân Châu","country":"VN","lat":11.55202,"lon":106.17245},{"name":"Tân Hiệp","country":"VN","lat":10.44905,"lon":106.34386},{"name":"Tân Hiệp","country":"VN","lat":10.11709,"lon":105.28578},{"name":"Tân Hòa","country":"VN","lat":10.31906,"lon":106.71128},{"name":"Tân Hưng","country":"VN","lat":10.83476,"lon":105.66135},{"name":"Tân Kỳ","country":"VN","lat":19.04756,"lon":105.26807},{"name":"Tân Phú","country":"VN","lat":11.27221,"lon":107.43655},{"name":"Tân Phú","country":"VN","lat":11.45119,"lon":106.86811},{"name":"Tân Sơn","country":"VN","lat":11.77521,"lon":108.7848},{"name":"Tân Thạnh","country":"VN","lat":10.60666,"lon":106.04714},{"name":"Tân Trụ","country":"VN","lat":10.51271,"lon":106.50762},{"name":"Tân Túc","country":"VN","lat":10.69541,"lon":106.59128},{"name":"Tân Việt","country":"VN","lat":22.86407,"lon":105.45905},{"name":"Tánh Linh","country":"VN","lat":11.08421,"lon":107.68095},{"name":"Tây Đằng","country":"VN","lat":21.19809,"lon":105.42217},{"name":"Tây Hồ","country":"VN","lat":21.06895,"lon":105.81053},{"name":"Tây Ninh","country":"VN","lat":11.31004,"lon":106.09828},{"name":"Tây Trà","country":"VN","lat":15.16948,"lon":108.35998},{"name":"Thạch Hà","country":"VN","lat":18.36788,"lon":105.86122},{"name":"Thái Bình","country":"VN","lat":20.45,"lon":106.34002},{"name":"Thái Nguyên","country":"VN","lat":21.59422,"lon":105.84817},{"name":"Than Uyên","country":"VN","lat":21.95907,"lon":103.88001},{"name":"Thắng","country":"VN","lat":21.35505,"lon":105.98344},{"name":"Thanh Ba","country":"VN","lat":21.49881,"lon":105.14104},{"name":"Thanh Bình","country":"VN","lat":10.5619,"lon":105.48411},{"name":"Thanh Chương","country":"VN","lat":18.77877,"lon":105.33356},{"name":"Thanh Hà","country":"VN","lat":20.89816,"lon":106.42612},{"name":"Thanh Hóa","country":"VN","lat":19.8,"lon":105.76667},{"name":"Thạnh Hóa","country":"VN","lat":10.65744,"lon":106.18081},{"name":"Thanh Khê","country":"VN","lat":16.0706,"lon":108.19102},{"name":"Thanh Lưu","country":"VN","lat":20.47398,"lon":105.95268},{"name":"Thanh Miện","country":"VN","lat":20.78714,"lon":106.24623},{"name":"Thạnh Mỹ","country":"VN","lat":15.74889,"lon":107.83678},{"name":"Thạnh Mỹ","country":"VN","lat":11.76165,"lon":108.49473},{"name":"Thanh Nê","country":"VN","lat":20.3881,"lon":106.43834},{"name":"Thành Phố Bà Rịa","country":"VN","lat":10.49626,"lon":107.1685},{"name":"Thành phố Trà Vinh","country":"VN","lat":9.94719,"lon":106.34225},{"name":"Thành Phố Uông Bí","country":"VN","lat":21.03433,"lon":106.77049},{"name":"Thạnh Phú","country":"VN","lat":9.94827,"lon":106.51629},{"name":"Thanh Sơn","country":"VN","lat":21.19867,"lon":105.17892},{"name":"Thanh Thủy","country":"VN","lat":21.17548,"lon":105.28388},{"name":"Thanh Xuân","country":"VN","lat":20.99472,"lon":105.79977},{"name":"Thị Trấn Bảo Lạc","country":"VN","lat":22.94924,"lon":105.68046},{"name":"Thị Trấn Cao Lộc","country":"VN","lat":21.8665,"lon":106.76833},{"name":"Thị Trấn Đất Đỏ","country":"VN","lat":10.49093,"lon":107.27014},{"name":"Thị Trấn Điện Biên","country":"VN","lat":21.2596,"lon":103.0344},{"name":"Thị Trấn Đồng Đăng","country":"VN","lat":21.9511,"lon":106.69767},{"name":"Thị Trấn Đông Khê","country":"VN","lat":22.42939,"lon":106.43194},{"name":"Thị Trấn Đồng Văn","country":"VN","lat":23.27841,"lon":105.36291},{"name":"Thị Trấn Gành Hào","country":"VN","lat":9.03183,"lon":105.42115},{"name":"Thị Trấn Giá Rai","country":"VN","lat":9.23789,"lon":105.45524},{"name":"Thị Trấn Hòa Bình","country":"VN","lat":9.28471,"lon":105.62916},{"name":"Thị Trấn Hùng Quốc","country":"VN","lat":22.82898,"lon":106.32335},{"name":"Thị Trấn Khánh Yên","country":"VN","lat":22.08935,"lon":104.25149},{"name":"Thị Trấn Lai Vung","country":"VN","lat":10.28701,"lon":105.6617},{"name":"Thị Trấn Long Điền","country":"VN","lat":10.48557,"lon":107.21226},{"name":"Thị Trấn Mèo Vạc","country":"VN","lat":23.16411,"lon":105.40993},{"name":"Thị Trấn Mường Khương","country":"VN","lat":22.76141,"lon":104.12156},{"name":"Thị Trấn Mường Tè","country":"VN","lat":22.38067,"lon":102.82011},{"name":"Thị Trấn Na Hang","country":"VN","lat":22.34917,"lon":105.38241},{"name":"Thị Trấn Na Sầm","country":"VN","lat":22.05639,"lon":106.6151},{"name":"Thị Trấn Ngải Giao","country":"VN","lat":10.6471,"lon":107.24577},{"name":"Thị Trấn Ngan Dừa","country":"VN","lat":9.56703,"lon":105.45019},{"name":"Thị Trấn Nguyên Bình","country":"VN","lat":22.64995,"lon":105.95985},{"name":"Thị Trấn Nước Hai","country":"VN","lat":22.73738,"lon":106.15216},{"name":"Thị Trấn Phố Lu","country":"VN","lat":22.31918,"lon":104.18719},{"name":"Thị Trấn Phố Ràng","country":"VN","lat":22.23429,"lon":104.47643},{"name":"Thị Trấn Phú Mỹ","country":"VN","lat":10.6036,"lon":107.054},{"name":"Thị Trấn Phước Bửu","country":"VN","lat":10.53472,"lon":107.40202},{"name":"Thị Trấn Phước Long","country":"VN","lat":9.43753,"lon":105.46217},{"name":"Thị Trấn Quảng Uyên","country":"VN","lat":22.69499,"lon":106.44235},{"name":"Thị Trấn Sìn Hồ","country":"VN","lat":22.36647,"lon":103.23438},{"name":"Thị Trấn Tà Lùng","country":"VN","lat":22.4979,"lon":106.5669},{"name":"Thị Trấn Tam Sơn","country":"VN","lat":23.0674,"lon":104.98926},{"name":"Thị Trấn Tân Yên","country":"VN","lat":22.0655,"lon":105.0345},{"name":"Thị Trấn Thanh Nhật","country":"VN","lat":22.68749,"lon":106.67004},{"name":"Thị Trấn Thất Khê","country":"VN","lat":22.25525,"lon":106.47359},{"name":"Thị Trấn Thông Nông","country":"VN","lat":22.7841,"lon":105.9832},{"name":"Thị Trấn Thuận Châu","country":"VN","lat":21.43849,"lon":103.69},{"name":"Thị Trấn Trạm Tấu","country":"VN","lat":21.46659,"lon":104.37966},{"name":"Thị Trấn Trùng Khánh","country":"VN","lat":22.83514,"lon":106.52496},{"name":"Thị Trấn Tủa Chùa","country":"VN","lat":21.85771,"lon":103.3426},{"name":"Thị Trấn Tuần Giáo","country":"VN","lat":21.58992,"lon":103.42179},{"name":"Thị Trấn Vị Xuyên","country":"VN","lat":22.66762,"lon":104.98191},{"name":"Thị Trấn Việt Lâm","country":"VN","lat":22.62486,"lon":104.95988},{"name":"Thị Trấn Việt Quang","country":"VN","lat":22.41509,"lon":104.80682},{"name":"Thị Trấn Vĩnh Lộc","country":"VN","lat":22.1436,"lon":105.27192},{"name":"Thị Trấn Vinh Quang","country":"VN","lat":22.74085,"lon":104.67956},{"name":"Thị Trấn Vĩnh Tuy","country":"VN","lat":22.27441,"lon":104.89091},{"name":"Thị Trấn Xuân Hoà","country":"VN","lat":22.90243,"lon":106.07737},{"name":"Thị Trấn Yên Minh","country":"VN","lat":23.11792,"lon":105.14159},{"name":"Thị Trấn Yên Thế","country":"VN","lat":22.11075,"lon":104.76748},{"name":"thị xã Quảng Trị","country":"VN","lat":16.75083,"lon":107.18278},{"name":"Thiên Tồn","country":"VN","lat":20.29905,"lon":105.95198},{"name":"Thọ Xuân","country":"VN","lat":19.93133,"lon":105.52179},{"name":"Thới Bình","country":"VN","lat":9.35584,"lon":105.09929},{"name":"Thới Lai","country":"VN","lat":10.06522,"lon":105.55863},{"name":"Thống Nhất","country":"VN","lat":10.95055,"lon":107.14571},{"name":"Thốt Nốt","country":"VN","lat":10.27213,"lon":105.5338},{"name":"Thủ Dầu Một","country":"VN","lat":10.9804,"lon":106.6519},{"name":"Thủ Đức","country":"VN","lat":10.84863,"lon":106.77209},{"name":"Thứ Mười Một","country":"VN","lat":9.61144,"lon":104.9465},{"name":"Thủ Thừa","country":"VN","lat":10.60232,"lon":106.40207},{"name":"Thứa","country":"VN","lat":21.01937,"lon":106.20044},{"name":"Thuận An","country":"VN","lat":10.9239,"lon":106.71428},{"name":"Thuận Nam","country":"VN","lat":10.85004,"lon":107.87864},{"name":"Thường Tín","country":"VN","lat":20.86874,"lon":105.86125},{"name":"Thường Xuân","country":"VN","lat":19.90294,"lon":105.34723},{"name":"Tiền Hải","country":"VN","lat":20.40557,"lon":106.50365},{"name":"Tiên Lãng","country":"VN","lat":20.72464,"lon":106.55391},{"name":"Tiên Phước","country":"VN","lat":15.48819,"lon":108.30736},{"name":"Tiểu Cần","country":"VN","lat":9.81166,"lon":106.19067},{"name":"Tĩnh Gia","country":"VN","lat":19.44645,"lon":105.77861},{"name":"Tô Hạp","country":"VN","lat":12.00582,"lon":108.94868},{"name":"Trà Bồng","country":"VN","lat":15.25569,"lon":108.51722},{"name":"Trà Cú","country":"VN","lat":9.69774,"lon":106.25834},{"name":"Trà My","country":"VN","lat":15.33965,"lon":108.22065},{"name":"Trà Ôn","country":"VN","lat":9.96261,"lon":105.92168},{"name":"Trại Khoai","country":"VN","lat":21.13174,"lon":105.34479},{"name":"Tràm Chim","country":"VN","lat":10.67001,"lon":105.56469},{"name":"Trần Cao","country":"VN","lat":20.72952,"lon":106.17971},{"name":"Trần Văn Thời","country":"VN","lat":9.07713,"lon":104.97914},{"name":"Trảng Bàng","country":"VN","lat":11.02987,"lon":106.35751},{"name":"Trảng Bom","country":"VN","lat":10.95358,"lon":107.00589},{"name":"Trâu Quỳ","country":"VN","lat":21.01951,"lon":105.93694},{"name":"Tri Tôn","country":"VN","lat":10.4202,"lon":105.00073},{"name":"Triệu Sơn","country":"VN","lat":19.81913,"lon":105.60392},{"name":"Trôi","country":"VN","lat":21.06953,"lon":105.70646},{"name":"Trới","country":"VN","lat":21.03141,"lon":106.99101},{"name":"Tứ Kỳ","country":"VN","lat":20.81914,"lon":106.40661},{"name":"Tư Nghĩa","country":"VN","lat":15.08451,"lon":108.826},{"name":"Tuy Hòa","country":"VN","lat":13.09546,"lon":109.32094},{"name":"Tuy Phước","country":"VN","lat":13.82738,"lon":109.16651},{"name":"Tuyên Quang","country":"VN","lat":21.82356,"lon":105.21424},{"name":"U Minh","country":"VN","lat":9.41286,"lon":104.97353},{"name":"Uyen Hung","country":"VN","lat":11.08416,"lon":106.78834},{"name":"Vân Canh","country":"VN","lat":13.61945,"lon":108.99805},{"name":"Văn Điển","country":"VN","lat":20.9463,"lon":105.845},{"name":"Vân Đình","country":"VN","lat":20.73514,"lon":105.77236},{"name":"Vạn Giã","country":"VN","lat":12.69203,"lon":109.22069},{"name":"Văn Giang","country":"VN","lat":20.94301,"lon":105.93119},{"name":"Vạn Hà","country":"VN","lat":19.88659,"lon":105.67879},{"name":"Văn Quan","country":"VN","lat":21.86516,"lon":106.53925},{"name":"Vân Tùng","country":"VN","lat":22.43082,"lon":105.99687},{"name":"Vị Thanh","country":"VN","lat":9.78449,"lon":105.47012},{"name":"Việt Trì","country":"VN","lat":21.32274,"lon":105.40198},{"name":"Vinh","country":"VN","lat":18.67337,"lon":105.69232},{"name":"Vĩnh An","country":"VN","lat":11.08901,"lon":107.03516},{"name":"Vĩnh Bình","country":"VN","lat":10.34498,"lon":106.58056},{"name":"Vĩnh Châu","country":"VN","lat":9.32439,"lon":105.98006},{"name":"Vĩnh Hưng","country":"VN","lat":10.89067,"lon":105.78495},{"name":"Vĩnh Lộc","country":"VN","lat":20.05438,"lon":105.61567},{"name":"Vĩnh Long","country":"VN","lat":10.25369,"lon":105.9722},{"name":"Vĩnh Thạnh","country":"VN","lat":14.10884,"lon":108.78381},{"name":"Vĩnh Thạnh","country":"VN","lat":10.22263,"lon":105.39841},{"name":"Vĩnh Thuận","country":"VN","lat":9.50802,"lon":105.25747},{"name":"Vĩnh Trụ","country":"VN","lat":20.5602,"lon":106.02812},{"name":"Vĩnh Tường","country":"VN","lat":21.2165,"lon":105.51249},{"name":"Vĩnh Yên","country":"VN","lat":21.30891,"lon":105.60489},{"name":"Võ Xu","country":"VN","lat":11.18691,"lon":107.56025},{"name":"Vụ Bản","country":"VN","lat":20.4642,"lon":105.44348},{"name":"Vũ Quang","country":"VN","lat":18.38385,"lon":105.5059},{"name":"Vũ Thư","country":"VN","lat":20.43671,"lon":106.29116},{"name":"Vũng Liêm","country":"VN","lat":10.09576,"lon":106.18548},{"name":"Vũng Tàu","country":"VN","lat":10.34599,"lon":107.08426},{"name":"Vương","country":"VN","lat":20.7011,"lon":106.11751},{"name":"Xã Đạ K'Nàng","country":"VN","lat":11.89361,"lon":108.13481},{"name":"Xã Hoài Đức","country":"VN","lat":11.74475,"lon":108.14689},{"name":"Xã Lai Vung","country":"VN","lat":10.25616,"lon":105.5928},{"name":"Xã Phúc Thọ","country":"VN","lat":11.80701,"lon":108.12875},{"name":"Xã Tân Hà","country":"VN","lat":11.73475,"lon":108.2023},{"name":"Xã Tân Thanh","country":"VN","lat":11.7522,"lon":108.06967},{"name":"Xã Tân Văn","country":"VN","lat":11.77545,"lon":108.22464},{"name":"Xuân Lạc","country":"VN","lat":19,"lon":105.28333},{"name":"Xuân Mai","country":"VN","lat":20.9,"lon":105.58333},{"name":"Xuân Trường","country":"VN","lat":20.29227,"lon":106.33275},{"name":"Yên Bái","country":"VN","lat":21.72288,"lon":104.9113},{"name":"Yên Bình","country":"VN","lat":22.40989,"lon":104.57949},{"name":"Yên Cát","country":"VN","lat":19.66327,"lon":105.42854},{"name":"Yên Châu","country":"VN","lat":21.04584,"lon":104.30101},{"name":"Yên Định","country":"VN","lat":20.20145,"lon":106.29578},{"name":"Yên Lạc","country":"VN","lat":21.23646,"lon":105.57297},{"name":"Yến Lạc","country":"VN","lat":22.23693,"lon":106.18149},{"name":"Yên Lập","country":"VN","lat":21.34705,"lon":105.05739},{"name":"Yên Mỹ","country":"VN","lat":20.88557,"lon":106.0356},{"name":"Yên Ninh","country":"VN","lat":20.18396,"lon":106.06121},{"name":"Yên Phú","country":"VN","lat":22.73223,"lon":105.37145},{"name":"Yên Thành","country":"VN","lat":18.99856,"lon":105.47116},{"name":"Yên Thịnh","country":"VN","lat":20.16245,"lon":106.00697},{"name":"Yên Thượng","country":"VN","lat":18.88333,"lon":105.28333},{"name":"Yên Vinh","country":"VN","lat":18.66667,"lon":105.66667}]