[{"name":"Budakovo","country":"XK","lat":42.355,"lon":20.925},{"name":"Deçan","country":"XK","lat":42.54018,"lon":20.28793},{"name":"Dragash","country":"XK","lat":42.0265,"lon":20.65333},{"name":"Dranoc","country":"XK","lat":42.51556,"lon":20.29222},{"name":"Dubova (Driloni)","country":"XK","lat":42.71194,"lon":20.36972},{"name":"Ferizaj","country":"XK","lat":42.37056,"lon":21.15528},{"name":"Gjakovë","country":"XK","lat":42.38028,"lon":20.43083},{"name":"Gjilan","country":"XK","lat":42.46045,"lon":21.46986},{"name":"Gjinoc","country":"XK","lat":42.31833,"lon":20.81861},{"name":"Glanica","country":"XK","lat":42.54933,"lon":21.06336},{"name":"Gllogjan","country":"XK","lat":42.50722,"lon":20.36278},{"name":"Glogovac","country":"XK","lat":42.62833,"lon":20.89389},{"name":"Hani i Elezit","country":"XK","lat":42.15,"lon":21.29667},{"name":"Irzniq","country":"XK","lat":42.52,"lon":20.34722},{"name":"Isniq","country":"XK","lat":42.5575,"lon":20.30278},{"name":"Istok","country":"XK","lat":42.78083,"lon":20.4875},{"name":"Junik","country":"XK","lat":42.47583,"lon":20.27722},{"name":"Kačanik","country":"XK","lat":42.23194,"lon":21.25944},{"name":"Kamenica","country":"XK","lat":42.57806,"lon":21.58028},{"name":"Klina","country":"XK","lat":42.62167,"lon":20.57778},{"name":"Klokot","country":"XK","lat":42.37139,"lon":21.37444},{"name":"Kosovo Polje","country":"XK","lat":42.66394,"lon":21.09611},{"name":"Kosuriq","country":"XK","lat":42.57028,"lon":20.46472},{"name":"Lëbushë","country":"XK","lat":42.56306,"lon":20.29083},{"name":"Leposaviq","country":"XK","lat":43.10389,"lon":20.80278},{"name":"Leshan","country":"XK","lat":42.32778,"lon":20.78111},{"name":"Lipljan","country":"XK","lat":42.52167,"lon":21.12583},{"name":"Llazicë","country":"XK","lat":42.55528,"lon":20.76333},{"name":"Lloqan","country":"XK","lat":42.52444,"lon":20.28083},{"name":"Lluka e Eperme","country":"XK","lat":42.545,"lon":20.30778},{"name":"Lumbardhi","country":"XK","lat":42.54667,"lon":20.34667},{"name":"Mališevo","country":"XK","lat":42.48222,"lon":20.74583},{"name":"Mamuša","country":"XK","lat":42.33083,"lon":20.72694},{"name":"Mitrovicë","country":"XK","lat":42.88333,"lon":20.86667},{"name":"Nishor","country":"XK","lat":42.42389,"lon":20.80167},{"name":"Novo Brdo","country":"XK","lat":42.6159,"lon":21.43405},{"name":"Obiliq","country":"XK","lat":42.68694,"lon":21.07028},{"name":"Orahovac","country":"XK","lat":42.39944,"lon":20.65472},{"name":"Pagaruša","country":"XK","lat":42.42,"lon":20.74222},{"name":"Papraqan","country":"XK","lat":42.55278,"lon":20.33111},{"name":"Partesh","country":"XK","lat":42.40194,"lon":21.43361},{"name":"Pejë","country":"XK","lat":42.65913,"lon":20.28828},{"name":"Peqan","country":"XK","lat":42.38361,"lon":20.82194},{"name":"Podujeva","country":"XK","lat":42.91056,"lon":21.19306},{"name":"Prilep","country":"XK","lat":42.5075,"lon":20.31778},{"name":"Pristina","country":"XK","lat":42.67272,"lon":21.16688},{"name":"Prizren","country":"XK","lat":42.21389,"lon":20.73972},{"name":"Ranilug","country":"XK","lat":42.49222,"lon":21.59889},{"name":"Shtime","country":"XK","lat":42.43306,"lon":21.03972},{"name":"Srbica","country":"XK","lat":42.74667,"lon":20.78861},{"name":"Strellc i Epërm","country":"XK","lat":42.57843,"lon":20.29398},{"name":"Strellc i Ulët","country":"XK","lat":42.58063,"lon":20.31619},{"name":"Štrpce","country":"XK","lat":42.23944,"lon":21.02722},{"name":"Suva Reka","country":"XK","lat":42.35861,"lon":20.825},{"name":"Vitina","country":"XK","lat":42.32139,"lon":21.35833},{"name":"Vushtrri","country":"XK","lat":42.82306,"lon":20.9675},{"name":"Zubin Potok","country":"XK","lat":42.91444,"lon":20.68972},{"name":"Zvečan","country":"XK","lat":42.9075,"lon":20.84028}]