[{"name":"Banket","country":"ZW","lat":-17.38333,"lon":30.4},{"name":"Beatrice","country":"ZW","lat":-18.25283,"lon":30.8473},{"name":"Beitbridge","country":"ZW","lat":-22.21667,"lon":30},{"name":"Bindura","country":"ZW","lat":-17.30192,"lon":31.33056},{"name":"Binga","country":"ZW","lat":-17.62027,"lon":27.34139},{"name":"Bulawayo","country":"ZW","lat":-20.15,"lon":28.58333},{"name":"Centenary","country":"ZW","lat":-16.72289,"lon":31.11462},{"name":"Chakari","country":"ZW","lat":-18.06294,"lon":29.89246},{"name":"Chegutu","country":"ZW","lat":-18.13021,"lon":30.14074},{"name":"Chimanimani","country":"ZW","lat":-19.8,"lon":32.86667},{"name":"Chinhoyi","country":"ZW","lat":-17.36667,"lon":30.2},{"name":"Chipinge","country":"ZW","lat":-20.18833,"lon":32.62365},{"name":"Chiredzi","country":"ZW","lat":-21.05,"lon":31.66667},{"name":"Chirundu","country":"ZW","lat":-16.03333,"lon":28.85},{"name":"Chitungwiza","country":"ZW","lat":-18.01274,"lon":31.07555},{"name":"Chivhu","country":"ZW","lat":-19.02112,"lon":30.89218},{"name":"Concession","country":"ZW","lat":-17.38333,"lon":30.95},{"name":"Dete","country":"ZW","lat":-18.61667,"lon":26.86667},{"name":"Dorowa Mining Lease","country":"ZW","lat":-19.06667,"lon":31.75},{"name":"Epworth","country":"ZW","lat":-17.89,"lon":31.1475},{"name":"Esigodini","country":"ZW","lat":-20.28979,"lon":28.92261},{"name":"Filabusi","country":"ZW","lat":-20.53333,"lon":29.28502},{"name":"Glendale","country":"ZW","lat":-17.35514,"lon":31.06718},{"name":"Gokwe","country":"ZW","lat":-18.20476,"lon":28.9349},{"name":"Gwanda","country":"ZW","lat":-20.93622,"lon":29.00698},{"name":"Gweru","country":"ZW","lat":-19.45,"lon":29.81667},{"name":"Harare","country":"ZW","lat":-17.82772,"lon":31.05337},{"name":"Harare Western Suburbs","country":"ZW","lat":-17.8415,"lon":30.87674},{"name":"Headlands","country":"ZW","lat":-18.27733,"lon":32.0515},{"name":"Hwange","country":"ZW","lat":-18.36446,"lon":26.49877},{"name":"Insiza","country":"ZW","lat":-19.78333,"lon":29.2},{"name":"Inyati","country":"ZW","lat":-19.67563,"lon":28.84687},{"name":"Kadoma","country":"ZW","lat":-18.33328,"lon":29.91534},{"name":"Kamativi Mine","country":"ZW","lat":-18.31563,"lon":27.05729},{"name":"Kariba","country":"ZW","lat":-16.51667,"lon":28.8},{"name":"Karoi","country":"ZW","lat":-16.80993,"lon":29.69247},{"name":"Kwekwe","country":"ZW","lat":-18.92809,"lon":29.81486},{"name":"Lalapanzi","country":"ZW","lat":-19.33225,"lon":30.17768},{"name":"Lupane","country":"ZW","lat":-18.93149,"lon":27.80696},{"name":"Macheke","country":"ZW","lat":-18.13901,"lon":31.84933},{"name":"Marondera","country":"ZW","lat":-18.18527,"lon":31.55193},{"name":"Mashava","country":"ZW","lat":-20.03665,"lon":30.48225},{"name":"Masvingo","country":"ZW","lat":-20.06373,"lon":30.82766},{"name":"Mazowe","country":"ZW","lat":-17.50404,"lon":30.97388},{"name":"Mhangura","country":"ZW","lat":-16.89387,"lon":30.16828},{"name":"Mhangura Mine","country":"ZW","lat":-16.89196,"lon":30.15902},{"name":"Mount Darwin","country":"ZW","lat":-16.77251,"lon":31.58381},{"name":"Mount Hampden","country":"ZW","lat":-17.74167,"lon":30.93889},{"name":"Murewa","country":"ZW","lat":-17.64322,"lon":31.784},{"name":"Mutare","country":"ZW","lat":-18.9707,"lon":32.67086},{"name":"Mutoko","country":"ZW","lat":-17.39699,"lon":32.22677},{"name":"Mvuma","country":"ZW","lat":-19.27924,"lon":30.52828},{"name":"Mvurwi","country":"ZW","lat":-17.03333,"lon":30.85},{"name":"Norton","country":"ZW","lat":-17.88333,"lon":30.7},{"name":"Nyanga","country":"ZW","lat":-18.21667,"lon":32.75},{"name":"Nyazura","country":"ZW","lat":-18.70587,"lon":32.16796},{"name":"Odzi","country":"ZW","lat":-18.96167,"lon":32.40557},{"name":"Penhalonga","country":"ZW","lat":-18.89112,"lon":32.69781},{"name":"Plumtree","country":"ZW","lat":-20.48333,"lon":27.81667},{"name":"Raffingora","country":"ZW","lat":-17.03333,"lon":30.43333},{"name":"Redcliff","country":"ZW","lat":-19.03333,"lon":29.78333},{"name":"Rusape","country":"ZW","lat":-18.52785,"lon":32.12843},{"name":"Ruwa","country":"ZW","lat":-17.88972,"lon":31.24472},{"name":"Shamva","country":"ZW","lat":-17.31159,"lon":31.57561},{"name":"Shangani","country":"ZW","lat":-19.78333,"lon":29.36667},{"name":"Shurugwi","country":"ZW","lat":-19.67016,"lon":30.00589},{"name":"Victoria Falls","country":"ZW","lat":-17.93285,"lon":25.83066},{"name":"Zvishavane","country":"ZW","lat":-20.32674,"lon":30.06648}]